     2.11           OBSERVATION DATA    M (MIXED)           RINEX VERSION / TYPE
teqc  2019Feb25     NGS Web             20220616 19:35:58UTCPGM / RUN BY / DATE
Linux 2.4.21-27.ELsmp|Opteron|gcc|Linux 64|=+               COMMENT
teqc  2019Feb25     CORS-ADM Account    20210820 19:30:14UTCCOMMENT
teqc  2019Feb25     NOAA/NOS/NGS/CORS   20210720 08:18:07UTCCOMMENT
teqc  2020Oct7      UNAVCO Archive Ops  20210720 01:33:17UTCCOMMENT
  0.0080      (antenna height)                              COMMENT
 +37.41651209 (latitude)                                    COMMENT
-122.20424721 (longitude)                                   COMMENT
0064.231      (elevation)                                   COMMENT
BIT 2 OF LLI FLAGS DATA COLLECTED UNDER A/S CONDITION       COMMENT
SLAC (COGO code)                                            COMMENT
RINEX file created by UNAVCO GPS Archive.                   COMMENT
For more information contact archive-gps@unavco.org         COMMENT
Monument ID: 18858                                          COMMENT
UNAVCO 4-char name:   SLAC                                  COMMENT
4-char name from Log or data file: SLAC                     COMMENT
Monument location: 37.416517 -122.204262 63.6962            COMMENT
Visit ID: 126772                                            COMMENT
doi:10.7283/T5KS6PW7                                        COMMENT
End of DB comments                                          COMMENT
input file: slac202107190000a.tgd                           COMMENT
 SNR is mapped to RINEX snr flag value [0-9]                COMMENT
  L1 & L2: min(max(int(snr_dBHz/6), 0), 9)                  COMMENT
teqc.e edited: all SBAS satellites excluded                 COMMENT
teqc.e edited: all QZSS satellites excluded                 COMMENT
Forced Modulo Decimation to 30 seconds                      COMMENT
SLAC                                                        MARKER NAME
49523S001                                                   MARKER NUMBER
Blume, Freddy       UNAVCO                                  OBSERVER / AGENCY
5302K56635          TRIMBLE NETR9       5.42                REC # / TYPE / VERS
0220369855          TRM59800.80     NONE                    ANT # / TYPE
 -2703115.2660 -4291768.3440  3854247.9550                  APPROX POSITION XYZ
        0.0000        0.0000        0.0000                  ANTENNA: DELTA H/E/N
     1     1                                                WAVELENGTH FACT L1/2
    20    L1    L2    C1    P2    P1    S1    S2    C2    L5# / TYPES OF OBSERV
          C5    S5    L6    C6    S6    L7    C7    S7    L8# / TYPES OF OBSERV
          C8    S8                                          # / TYPES OF OBSERV
    30.0000                                                 INTERVAL
teqc.w windowed: start @ 2021 Jul 19 00:00:00.000           COMMENT
teqc.w windowed:  end  @ 2021 Jul 20 00:00:00.000           COMMENT
teqc.w edited: all GLONASS satellites excluded              COMMENT
teqc.w edited: all SBAS satellites excluded                 COMMENT
teqc.w edited: all Galileo satellites excluded              COMMENT
teqc.w edited: all Beidou satellites excluded               COMMENT
teqc.w edited: all QZSS satellites excluded                 COMMENT
  2021     7    19     0     0    0.0000000     GPS         TIME OF FIRST OBS
    18                                                      LEAP SECONDS
                                                            END OF HEADER
 21  7 19  0  0  0.0000000  0  7G23G18G08G10G32G27G24
 115196080.986 7  89763211.767 7  21921072.766    21921080.980
        44.200          46.900    21921080.563    86023102.496 8  21921084.965
        51.400

 119268603.452 6  92936692.633 7  22696073.313    22696081.863
        41.600          44.900    22696081.723    89064367.273 7  22696084.547
        47.300

 118165523.008 7  92077045.539 7  22486154.266    22486164.848
        43.600          44.100    22486164.996    88240496.377 8  22486164.039
        48.500

 109084690.035 8  85001092.752 8  20758115.742    20758125.250
        51.100          50.500    20758124.477    81459390.247 8  20758123.133
        53.900

 109937110.635 8  85665384.453 8  20920338.891    20920348.281
        51.200          49.700    20920348.027    82096018.116 8  20920347.020
        53.400

 112594048.280 7  87735648.972 8  21425936.852    21425945.797
        47.600          48.800    21425945.773    84079992.074 8  21425945.379
        53.400

 123985020.321 6  96611765.619 6  23593575.398    23593586.281
        37.300          40.300    23593585.008    92586274.604 7  23593586.855
        46.900

 21  7 19  0  0 30.0000000  0  7G23G18G08G10G32G27G24
 115258345.025 7  89811729.195 7  21932922.016    21932929.637
        43.600          46.600    21932928.930    86069598.357 8  21932933.230
        51.300

 119349195.628 6  92999491.692 7  22711409.227    22711418.434
        40.600          44.400    22711418.129    89124549.683 7  22711421.031
        46.700

 118129825.498 7  92049229.300 7  22479361.758    22479371.746
        43.500          44.700    22479372.117    88213839.147 8  22479370.520
        48.300

 109099113.271 8  85012331.640 8  20760860.297    20760869.914
        50.800          50.500    20760869.039    81470160.843 8  20760867.652
        53.800

 109881917.468 8  85622376.804 8  20909835.398    20909845.633
        50.500          50.200    20909845.734    82054802.474 8  20909844.160
        53.400

 112620884.052 7  87756559.935 8  21431042.883    21431052.301
        47.500          48.500    21431052.164    84100031.761 8  21431052.012
        53.400

 123992088.195 6  96617273.025 6  23594920.859    23594931.797
        38.100          40.900    23594930.820    92591552.536 7  23594931.820
        46.800

 21  7 19  0  1  0.0000000  0  7G23G18G08G10G32G27G24
 115320732.369 7  89860342.681 7  21944793.859    21944801.695
        44.000          47.300    21944801.457    86116186.283 8  21944804.688
        50.900

 119430048.143 6  93062493.620 7  22726794.820    22726803.766
        41.100          44.000    22726803.242    89184926.499 7  22726807.309
        47.000

 118094673.376 7  92021838.042 7  22472672.273    22472682.859
        44.700          44.900    22472682.754    88187589.171 8  22472681.699
        48.400

 109113754.936 8  85023740.716 8  20763646.914    20763656.164
        50.800          50.500    20763655.512    81481094.543 8  20763653.934
        53.800

 109827193.664 8  85579734.909 8  20899421.586    20899431.828
        50.200          50.000    20899431.770    82013937.316 8  20899430.688
        53.500

 112648296.338 7  87777920.157 8  21436258.773    21436268.895
        47.300          48.400    21436268.820    84120501.977 8  21436268.520
        53.500

 123999720.639 6  96623220.411 6  23596375.305    23596384.152
        38.400          41.400    23596383.234    92597252.094 7  23596384.594
        47.000

 21  7 19  0  1 30.0000000  0  7G23G18G08G10G32G27G24
 115383243.150 7  89909052.382 7  21956689.117    21956697.184
        44.300          47.400    21956697.004    86162866.417 8  21956700.301
        51.000

 119511161.149 6  93125698.500 7  22742230.047    22742239.137
        41.700          44.000    22742238.945    89245497.840 7  22742242.809
        47.000

 118060068.633 7  91994873.299 7  22466087.148    22466097.750
        44.000          44.600    22466097.445    88161747.954 8  22466096.863
        48.700

 109128615.209 8  85035320.149 8  20766474.484    20766484.188
        52.600          50.400    20766483.414    81492191.492 8  20766481.797
        53.800

 109772941.307 8  85537460.358 8  20889098.063    20889107.801
        51.700          50.300    20889107.828    81973424.210 8  20889106.547
        53.400

 112676284.824 7  87799729.357 8  21441584.758    21441595.184
        47.600          49.000    21441594.660    84141402.446 8  21441594.613
        53.800

 124007918.962 6  96629608.692 6  23597933.039    23597944.195
        37.200          41.700    23597943.609    92603374.213 7  23597945.348
        47.400

 21  7 19  0  2  0.0000000  0  7G23G18G08G10G32G27G24
 115445877.406 7  89957858.260 7  21968608.203    21968616.063
        44.100          47.000    21968615.254    86209638.717 8  21968619.828
        51.400

 119592534.614 6  93189106.298 7  22757714.961    22757723.711
        40.300          43.700    22757723.188    89306263.660 7  22757728.293
        46.600

 118026012.320 7  91968335.901 7  22459607.133    22459617.043
        44.000          44.700    22459617.047    88136316.290 8  22459616.172
        48.800

 109143694.261 8  85047070.049 8  20769343.641    20769353.613
        51.900          50.400    20769353.027    81503451.809 8  20769351.480
        53.800

 109719162.260 8  85495554.615 8  20878864.609    20878874.039
        51.700          50.700    20878874.094    81933264.544 8  20878872.832
        53.500

 112704848.944 8  87821987.102 8  21447020.844    21447030.871
        48.200          48.900    21447030.469    84162732.775 8  21447030.395
        53.500

 124016684.097 5  96636438.700 7  23599600.836    23599612.609
        35.400          42.600    23599612.184    92609919.633 7  23599612.211
        46.000

 21  7 19  0  2 30.0000000  0  7G23G18G08G10G32G27G24
 115508633.327 7  90006758.963 7  21980549.992    21980558.348
        45.000          46.800    21980557.438    86256501.883 8  21980561.527
        51.300

 119674166.738 6  93252715.717 7  22773250.055    22773257.664
        40.700          43.600    22773257.957    89367222.660 7  22773261.473
        46.000

 117992505.163 7  91942226.435 7  22453230.391    22453240.766
        44.500          45.200    22453240.629    88111294.697 8  22453239.801
        49.200

 109158990.369 8  85058989.097 8  20772254.250    20772264.473
        52.500          50.300    20772263.746    81514874.230 8  20772262.348
        53.800

 109665856.567 8  85454017.733 8  20868720.289    20868730.254
        52.200          50.300    20868730.141    81893458.367 8  20868729.023
        53.400

 112733986.333 8  87844691.553 8  21452565.523    21452574.984
        48.700          48.400    21452574.922    84184491.197 8  21452575.113
        53.600

 124026015.523 5  96643709.950 6  23601374.719    23601388.363
        35.900          41.600    23601387.664    92616887.891 7  23601387.418
        45.800

 21  7 19  0  3  0.0000000  0  7G23G18G08G10G32G27G24
 115571509.545 7  90055753.393 7  21992515.164    21992523.082
        44.100          47.600    21992522.574    86303454.884 8  21992526.625
        51.900

 119756056.112 6  93316525.519 7  22788832.039    22788841.082
        40.800          44.100    22788841.063    89428373.742 7  22788844.598
        46.600

 117959547.525 7  91916545.128 7  22446958.703    22446969.234
        43.800          44.900    22446969.441    88086683.486 8  22446968.160
        49.200

 109174502.272 8  85071076.285 8  20775206.219    20775216.313
        52.800          50.400    20775215.527    81526457.776 8  20775213.809
        53.800

 109613024.718 8  85412850.069 8  20858666.891    20858676.699
        52.100          50.200    20858676.527    81854006.032 8  20858675.184
        53.600

 112763695.035 8  87867841.163 8  21458219.188    21458228.652
        48.500          48.300    21458228.328    84206676.251 8  21458228.313
        53.700

 124035912.775 6  96651422.071 6  23603259.883    23603271.402
        37.600          41.700    23603270.289    92624278.678 7  23603271.004
        45.800

 21  7 19  0  3 30.0000000  0  7G23G18G08G10G32G27G24
 115634505.472 7  90104841.119 7  22004502.211    22004511.000
        43.800          47.000    22004510.102    86350497.279 8  22004514.328
        51.100

 119838202.026 6  93380535.309 7  22804461.727    22804473.645
        39.400          44.100    22804473.191    89489716.400 7  22804476.137
        45.700

 117927140.334 7  91891292.786 7  22440791.422    22440802.742
        44.600          45.500    22440803.160    88062483.307 8  22440801.301
        49.300

 109190229.456 8  85083331.214 8  20778199.039    20778208.883
        53.000          50.400    20778208.438    81538202.091 8  20778206.477
        53.800

 109560667.886 8  85372052.563 8  20848704.125    20848713.492
        52.700          50.500    20848713.629    81814908.427 8  20848712.324
        53.400

 112793973.866 8  87891435.021 8  21463981.359    21463990.813
        48.700          49.000    21463990.668    84229287.026 8  21463990.273
        53.400

 124046376.213 6  96659575.417 7  23605251.289    23605262.172
        36.300          42.600    23605262.168    92632092.284 7  23605261.953
        45.500

 21  7 19  0  4  0.0000000  0  7G23G18G08G10G32G27G24
 115697620.787 7  90154021.875 7  22016513.648    22016521.668
        44.500          47.300    22016521.367    86397628.830 8  22016524.793
        51.500

 119920604.210 6  93444744.736 7  22820141.961    22820153.840
        38.900          43.200    22820153.203    89551250.419 7  22820156.852
        45.300

 117895285.277 7  91866470.670 7  22434729.648    22434741.016
        44.900          45.600    22434741.242    88038695.446 8  22434739.453
        49.000

 109206171.676 8  85095753.727 8  20781233.039    20781242.750
        51.900          50.500    20781241.914    81550107.000 8  20781240.375
        53.700

 109508787.554 8  85331626.342 8  20838831.719    20838840.996
        53.100          50.200    20838840.699    81776166.638 8  20838839.754
        53.400

 112824821.794 7  87915472.358 8  21469850.281    21469860.832
        47.500          48.600    21469860.734    84252322.799 8  21469860.406
        53.500

 124057406.548 6  96668170.458 7  23607350.148    23607362.270
        37.400          43.100    23607361.742    92640329.190 7  23607361.316
        45.900

 21  7 19  0  4 30.0000000  0  7G23G18G08G10G32G27G24
 115760855.071 7  90203295.331 7  22028547.055    22028554.918
        44.800          47.200    22028554.551    86444849.223 8  22028557.469
        50.200

 120003262.057 6  93509153.428 7  22835873.945    22835882.371
        41.700          42.600    22835883.012    89612975.432 7  22835885.676
        44.500

 117863983.173 7  91842079.426 7  22428773.734    22428784.379
        44.100          45.000    22428784.578    88015320.489 8  22428782.738
        48.100

 109222328.671 8  85108343.584 8  20784307.203    20784317.457
        52.600          50.000    20784316.859    81562172.269 8  20784315.043
        53.800

 109457385.115 8  85291572.512 8  20829049.813    20829059.453
        52.800          49.700    20829059.488    81737781.724 8  20829058.273
        53.200

 112856237.831 8  87939952.374 8  21475829.406    21475839.277
        48.300          48.100    21475838.938    84275782.801 8  21475838.473
        53.100

 124069004.276 6  96677207.669 7  23609556.938    23609568.648
        36.700          42.600    23609568.938    92648989.840 7  23609569.492
        47.100

 21  7 19  0  5  0.0000000  0  7G23G18G08G10G32G27G24
 115824207.646 7  90252660.973 7  22040601.633    22040610.262
        45.600          46.900    22040610.285    86492157.951 8  22040612.484
        50.000

 120086174.802 6  93573760.698 7  22851652.102    22851660.707
        41.500          42.000    22851660.359    89674890.714 7  22851663.484
        43.900

 117833234.854 7  91818119.676 7  22422923.234    22422932.945
        44.500          44.900    22422932.391    87992359.065 8  22422931.258
        48.400

 109238699.791 8  85121100.293 8  20787422.789    20787432.961
        53.200          50.500    20787432.113    81574397.456 8  20787430.223
        53.700

 109406461.520 8  85251891.811 8  20819359.633    20819368.887
        53.200          49.900    20819368.816    81699754.380 8  20819367.949
        53.400

 112888220.476 8  87964873.885 8  21481915.641    21481925.160
        48.000          48.400    21481924.820    84299665.916 8  21481925.027
        53.200

 124081169.502 6  96686687.048 7  23611873.297    23611883.262
        38.400          42.800    23611883.992    92658074.275 7  23611883.520
        46.000

 21  7 19  0  5 30.0000000  0  7G23G18G08G10G32G27G24
 115887677.393 7  90302117.885 7  22052679.984    22052687.645
        45.700          46.600    22052687.105    86539554.167 8  22052690.965
        50.300

 120169341.170 7  93638565.609 7  22867478.727    22867486.336
        42.100          42.500    22867486.664    89736995.426 7  22867490.145
        44.200

 117803041.580 7  91794592.453 7  22417176.563    22417187.117
        43.500          44.500    22417186.961    87969812.151 7  22417185.715
        47.700

 109255283.932 8  85134023.014 8  20790579.430    20790588.563
        53.200          50.500    20790588.043    81586781.718 8  20790586.156
        53.700

 109356017.365 9  85212584.697 8  20809760.516    20809769.875
        54.100          50.400    20809769.828    81662085.062 8  20809768.574
        53.200

 112920767.837 7  87990235.450 8  21488108.859    21488118.750
        47.800          48.100    21488118.492    84323970.737 8  21488118.500
        53.200

 124093901.987 6  96696608.474 7  23614296.969    23614306.410
        38.100          42.400    23614305.711    92667582.296 7  23614306.023
        46.400

 21  7 19  0  6  0.0000000  0  7G23G18G08G10G32G27G24
 115951264.150 7  90351665.982 7  22064780.258    22064787.797
        45.200          46.500    22064787.375    86587037.754 8  22064791.234
        50.200

 120252760.942 6  93703567.966 6  22883352.828    22883361.258
        41.400          41.800    22883361.184    89799289.355 7  22883364.883
        44.100

 117773404.392 7  91771498.535 7  22411537.047    22411547.227
        43.800          45.400    22411547.609    87947680.475 8  22411546.121
        48.500

 109272081.116 8  85147111.708 8  20793774.922    20793784.898
        52.600          49.900    20793784.418    81599325.054 8  20793782.734
        53.700

 109306054.222 9  85173652.403 8  20800252.664    20800262.305
        54.400          49.900    20800262.031    81624774.950 8  20800260.758
        53.200

 112953879.007 8  88016036.348 8  21494409.734    21494419.816
        48.000          48.000    21494419.602    84348696.587 8  21494419.164
        53.000

 124107202.455 5  96706972.431 6  23616825.445    23616837.777
        35.500          41.300    23616836.859    92677514.411 7  23616837.805
        47.200

 21  7 19  0  6 30.0000000  0  7G23G18G08G10G32G27G24
 116014967.177 7  90401304.676 7  22076902.875    22076910.480
        45.900          46.400    22076910.172    86634608.170 8  22076913.805
        50.800

 120336433.159 6  93768767.064 6  22899273.875    22899284.004
        40.000          40.300    22899283.215    89861771.820 7  22899287.660
        44.100

 117744324.076 7  91748838.543 7  22406004.266    22406013.840
        43.900          45.800    22406013.793    87925964.654 8  22406012.914
        49.000

 109289090.623 8  85160365.874 8  20797011.883    20797021.590
        52.800          50.200    20797020.809    81612026.963 8  20797019.484
        53.800

 109256573.004 8  85135095.621 8  20790836.555    20790846.293
        53.400          50.300    20790845.875    81587824.719 8  20790845.086
        53.400

 112987552.463 8  88042275.387 8  21500817.906    21500827.621
        49.100          48.100    21500827.539    84373842.339 8  21500827.027
        53.100

 124121070.898 5  96717779.009 6  23619463.203    23619476.008
        35.600          41.900    23619475.918    92687870.732 7  23619477.316
        47.600

 21  7 19  0  7  0.0000000  0  7G23G18G08G10G32G27G24
 116078785.488 7  90451033.208 7  22089046.422    22089054.918
        44.300          45.700    22089054.066    86682264.685 8  22089058.188
        50.100

 120420356.751 6  93834162.044 6  22915244.133    22915253.457
        40.400          41.800    22915253.309    89924441.981 7  22915257.453
        45.400

 117715801.690 7  91726613.311 7  22400576.055    22400586.383
        43.300          45.900    22400586.840    87904665.458 8  22400584.832
        49.300

 109306311.608 8  85173784.810 8  20800288.633    20800298.676
        51.400          50.400    20800297.859    81624886.771 8  20800296.371
        53.400

 109207574.359 8  85096914.878 8  20781512.078    20781522.176
        52.400          50.500    20781522.227    81551234.849 8  20781520.813
        53.200

 113021786.432 8  88068951.172 8  21507332.242    21507342.254
        48.500          48.800    21507342.105    84399406.634 8  21507341.531
        52.800

 124135507.200 5  96729028.015 6  23622211.203    23622222.555
        35.200          40.400    23622222.328    92698651.049 7  23622224.168
        46.500

 21  7 19  0  7 30.0000000  0  7G23G18G08G10G32G27G24
 116142718.615 7  90500851.217 7  22101211.523    22101221.008
        43.400          46.100    22101220.340    86730006.930 8  22101223.879
        50.300

 120504531.029 6  93899752.315 7  22931262.742    22931272.063
        41.300          42.400    22931271.449    89987299.313 7  22931275.574
        46.200

 117687837.271 7  91704822.827 7  22395254.125    22395264.844
        42.900          46.500    22395264.563    87883782.932 8  22395263.578
        49.600

 109323743.584 8  85187368.166 8  20803606.305    20803615.816
        53.300          50.200    20803615.156    81637904.154 8  20803613.340
        53.200

 109159059.397 8  85059111.039 8  20772279.984    20772289.762
        53.900          50.000    20772289.781    81515006.163 8  20772288.738
        53.100

 113056579.469 8  88096062.596 8  21513953.453    21513963.383
        48.700          48.600    21513963.098    84425388.418 8  21513962.520
        52.700

 124150511.412 6  96740719.643 6  23625070.016    23625078.125
        38.800          40.400    23625077.895    92709855.504 7  23625078.875
        46.200

 21  7 19  0  8  0.0000000  0  7G23G18G08G10G32G27G24
 116206765.511 7  90550757.880 7  22113400.195    22113408.633
        44.600          46.100    22113408.340    86777834.149 8  22113411.902
        50.400

 120588954.785 6  93965537.003 7  22947327.664    22947337.551
        40.900          43.300    22947337.766    90050342.961 7  22947340.840
        46.800

 117660432.184 7  91683468.207 7  22390039.109    22390049.801
        42.800          46.800    22390049.742    87863318.081 8  22390048.445
        49.600

 109341385.644 8  85201115.216 8  20806963.578    20806973.000
        52.100          49.800    20806972.391    81651078.401 8  20806970.574
        53.400

 109111028.686 8  85021684.526 8  20763140.234    20763149.668
        53.900          49.500    20763149.477    81479139.100 8  20763148.809
        53.400

 113091929.699 8  88123608.219 8  21520680.445    21520690.145
        49.100          48.400    21520689.965    84451786.293 8  21520689.641
        53.100

 124166083.391 6  96752853.640 6  23628032.781    23628041.820
        37.900          41.300    23628041.348    92721483.916 7  23628042.000
        46.500

 21  7 19  0  8 30.0000000  0  7G23G18G08G10G32G27G24
 116270925.969 7  90600753.033 7  22125609.641    22125617.914
        44.500          46.800    22125617.871    86825746.153 8  22125621.082
        50.300

 120673627.525 6  94031515.702 7  22963439.828    22963450.219
        40.200          43.000    22963449.742    90113572.532 7  22963453.664
        46.900

 117633587.133 7  91662549.986 7  22384931.555    22384941.328
        42.700          46.600    22384941.465    87843271.461 8  22384939.934
        49.900

 109359237.531 8  85215025.775 8  20810360.680    20810370.012
        52.300          49.900    20810369.348    81664409.351 8  20810367.984
        53.800

 109063483.519 8  84984636.367 8  20754092.445    20754102.379
        53.800          49.700    20754102.125    81443634.623 8  20754101.137
        53.400

 113127835.930 7  88151587.064 8  21527512.164    21527523.227
        47.800          48.500    21527522.477    84478599.357 8  21527521.984
        52.900

 124182223.354 6  96765430.270 6  23631102.648    23631113.109
        36.900          40.900    23631112.387    92733536.530 7  23631113.941
        46.900

 21  7 19  0  9  0.0000000  0  7G23G18G08G10G32G27G24
 116335199.763 7  90650836.475 7  22137840.438    22137848.660
        44.700          45.400    22137848.066    86873742.779 8  22137851.930
        49.900

 120758548.841 6  94097688.095 7  22979600.945    22979610.609
        40.800          43.700    22979610.281    90176987.729 7  22979613.762
        45.800

 117607303.243 7  91642069.039 7  22379927.930    22379939.500
        42.900          46.700    22379939.738    87823643.879 8  22379938.059
        49.200

 109377299.213 8  85229099.818 8  20813797.547    20813807.098
        53.000          49.900    20813806.484    81677896.971 8  20813804.898
        53.400

 109016425.273 8  84947967.631 8  20745137.672    20745147.512
        53.700          50.100    20745147.844    81408493.748 8  20745146.078
        53.400

 113164297.075 8  88179998.337 8  21534451.438    21534461.160
        48.600          48.000    21534460.992    84505826.811 8  21534460.629
        52.700

 124198931.982 5  96778449.903 7  23634280.508    23634292.938
        35.600          42.400    23634292.238    92746013.695 7  23634293.418
        45.900

 21  7 19  0  9 30.0000000  0  8G23G18G08G10G32G27G24G21
 116399585.764 7  90701007.335 7  22150092.805    22150100.930
        45.000          45.400    22150100.176    86921823.193 8  22150104.438
        50.500

 120843717.445 6  94164053.190 7  22995807.383    22995817.281
        39.800          43.300    22995817.852    90240587.581 7  22995820.934
        46.100

 117581581.259 7  91622025.950 7  22375033.805    22375044.809
        42.600          47.200    22375044.898    87804435.902 8  22375043.355
        49.200

 109395569.609 8  85243336.469 8  20817274.992    20817283.941
        53.200          50.300    20817283.125    81691540.430 8  20817281.535
        53.300

 108969854.319 8  84911678.579 8  20736275.438    20736285.160
        52.800          49.800    20736285.000    81373716.763 8  20736284.121
        53.500

 113201311.003 8  88208840.317 8  21541495.156    21541504.703
        48.800          49.400    21541504.137    84533467.046 8  21541503.918
        52.400

 124216208.543 6  96791912.182 6  23637568.281    23637580.535
        37.300          41.600    23637580.297    92758915.020 7  23637582.383
        47.100

 130125987.94614                  24762143.789
        28.300


 21  7 19  0 10  0.0000000  0  8G23G18G08G10G32G27G24G21
 116464083.791 7  90751265.525 7  22162367.047    22162374.441
        46.100          45.500    22162373.680    86969987.291 8  22162378.074
        50.700

 120929132.838 6  94230610.557 6  23012061.477    23012070.504
        40.500          41.900    23012070.527    90304371.741 7  23012074.629
        46.500

 117556422.126 7  91602421.431 7  22370247.227    22370257.266
        42.700          47.200    22370257.094    87785648.221 8  22370256.172
        50.100

 109414048.548 8  85257735.646 8  20820790.547    20820800.453
        53.000          50.200    20820799.688    81705339.643 8  20820798.418
        53.800

 108923771.945 8  84875770.264 8  20727506.133    20727515.945
        53.000          50.200    20727515.566    81339304.619 9  20727514.813
        54.000

 113238876.469 7  88238112.099 8  21548642.672    21548653.344
        47.400          48.700    21548652.906    84561519.163 8  21548652.168
        52.800

 124234053.495 6  96805817.308 6  23640964.773    23640975.711
        38.800          41.400    23640975.469    92772240.809 7  23640977.023
        46.800

 130041804.74614                  24746123.727
        27.600


 21  7 19  0 10 30.0000000  0  7G23G18G08G10G32G27G24
 116528692.705 7  90801610.105 7  22174662.078    22174669.336
        46.500          45.100    22174668.711    87018234.191 8  22174672.625
        50.200

 121014793.600 6  94297359.156 6  23028362.938    23028371.602
        39.800          41.100    23028371.207    90368339.137 7  23028375.309
        46.400

 117531826.003 7  91583255.619 7  22365565.266    22365576.598
        42.900          47.000    22365577.117    87767280.997 8  22365575.953
        50.400

 109432734.983 8  85272296.509 8  20824346.813    20824356.109
        52.100          50.800    20824355.688    81719293.793 8  20824353.957
        53.700

 108878178.471 8  84840242.907 8  20718830.320    20718839.637
        53.000          49.900    20718839.543    81305257.561 9  20718838.629
        54.000

 113276991.346 8  88267811.979 8  21555896.648    21555906.254
        49.100          48.900    21555906.285    84589981.541 8  21555905.473
        52.700

 124252466.172 6  96820164.835 6  23644467.539    23644480.164
        37.800          41.300    23644479.578    92785990.514 7  23644480.594
        46.500

 21  7 19  0 11  0.0000000  0  7G23G18G08G10G32G27G24
 116593412.193 7  90852040.857 7  22186977.695    22186985.098
        46.000          45.100    22186984.723    87066563.630 8  22186988.590
        50.000

 121100699.203 6  94364298.527 6  23044711.727    23044717.570
        40.200          39.700    23044717.617    90432489.319 7  23044722.426
        46.000

 117507793.759 7  91564529.194 7  22360993.148    22361003.578
        42.900          46.800    22361003.824    87749334.843 8  22361002.695
        50.200

 109451628.644 8  85287018.840 8  20827942.227    20827951.391
        51.100          50.400    20827950.691    81733402.691 8  20827949.211
        53.400

 108833075.046 8  84805097.392 8  20710247.102    20710256.828
        50.700          50.400    20710256.816    81271576.448 9  20710255.875
        54.000

 113315654.230 8  88297938.879 8  21563253.578    21563263.707
        48.900          48.900    21563263.527    84618853.144 8  21563262.902
        52.700

 124271446.887 6  96834954.971 6  23648080.758    23648091.910
        38.700          41.200    23648091.449    92800164.409 7  23648093.141
        46.200

 21  7 19  0 11 30.0000000  0  7G23G18G08G10G32G27G24
 116658241.645 7  90902557.303 7  22199313.422    22199321.883
        45.400          46.000    22199321.586    87114975.214 8  22199324.996
        49.500

 121186848.618 6  94431427.876 6  23061104.336    23061111.102
        39.700          39.000    23061110.996    90496821.619 7  23061116.012
        45.100

 117484326.079 7  91546242.685 7  22356527.500    22356537.746
        43.200          46.500    22356537.902    87731810.276 8  22356536.668
        50.300

 109470728.967 8  85301902.199 8  20831576.453    20831586.383
        51.900          50.500    20831585.930    81747665.918 8  20831584.078
        53.400

 108788462.428 8  84770334.322 8  20701757.859    20701767.590
        52.500          50.500    20701767.781    81238261.842 9  20701766.141
        54.100

 113354863.449 8  88328491.483 8  21570715.086    21570724.969
        48.700          48.700    21570724.402    84648132.729 8  21570724.441
        52.800

 124290995.361 6  96850187.544 6  23651800.648    23651812.109
        38.300          41.600    23651811.074    92814762.287 7  23651812.465
        45.700

 21  7 19  0 12  0.0000000  0  8G23G18G08G10G32G27G24G21
 116723180.239 7  90953158.761 7  22211671.273    22211679.219
        45.900          45.700    22211678.895    87163468.288 8  22211682.539
        49.500

 121273240.852 6  94498746.385 6  23077543.641    23077551.578
        39.600          39.200    23077550.758    90561335.210 7  23077555.590
        44.700

 117461423.716 7  91528396.679 7  22352168.336    22352179.625
        43.000          46.600    22352179.313    87714707.853 8  22352178.469
        50.300

 109490035.150 8  85316945.984 8  20835250.398    20835260.277
        50.800          50.300    20835259.836    81762082.869 8  20835257.863
        53.500

 108744341.153 8  84735954.124 8  20693361.563    20693371.652
        50.900          51.100    20693371.277    81205314.158 9  20693370.137
        54.400

 113394616.999 8  88359468.233 8  21578279.570    21578289.520
        48.800          48.800    21578289.414    84677818.775 8  21578289.574
        52.900

 124311111.198 6  96865862.193 7  23655627.586    23655640.172
        37.500          42.100    23655639.676    92829783.849 7  23655640.035
        45.200

 129705078.91915                  24682052.383
        32.000


 21  7 19  0 12 30.0000000  0  8G23G18G08G10G32G27G24G21
 116788227.260 7  91003844.736 7  22224048.969    22224056.949
        45.500          45.500    22224056.945    87212042.327 8  22224060.906
        49.500

 121359874.709 6  94566253.269 6  23094028.313    23094037.672
        38.500          38.300    23094036.973    90626029.310 7  23094041.957
        44.500

 117439087.032 7  91510991.465 7  22347919.141    22347929.105
        44.500          46.800    22347929.125    87698027.858 8  22347928.090
        50.800

 109509546.598 8  85332149.705 8  20838962.953    20838973.008
        50.900          50.200    20838972.563    81776653.103 8  20838970.672
        53.500

 108700711.954 8  84701957.371 8  20685059.273    20685069.199
        51.700          51.200    20685069.082    81172733.925 9  20685067.777
        54.300

 113434913.013 8  88390867.721 8  21585947.164    21585957.707
        48.800          48.400    21585957.445    84707909.929 8  21585957.199
        52.600

 124331794.260 6  96881978.902 6  23659565.977    23659576.559
        37.200          41.600    23659575.914    92845229.006 7  23659576.219
        45.200

 129620914.50915                  24666035.484
        32.300


 21  7 19  0 13  0.0000000  0  8G23G18G08G10G32G27G24G21
 116853382.114 7  91054614.741 7  22236447.750    22236455.723
        46.600          44.800    22236455.496    87260696.908 8  22236458.445
        49.200

 121446749.466 6  94633947.813 6  23110560.258    23110569.461
        37.500          38.700    23110569.734    90690903.233 7  23110574.742
        44.700

 117417316.429 7  91494027.352 7  22343776.031    22343786.441
        43.600          47.200    22343786.445    87681770.577 8  22343785.320
        50.300

 109529262.756 8  85347512.954 8  20842715.180    20842724.945
        50.900          50.300    20842724.289    81791376.196 8  20842722.773
        53.800

 108657575.543 8  84668344.581 8  20676850.539    20676860.453
        51.100          51.500    20676860.457    81140521.672 9  20676859.059
        54.300

 113475749.804 8  88422688.562 8  21593719.508    21593728.813
        49.100          49.100    21593728.539    84738404.906 8  21593728.594
        52.800

 124353044.219 5  96898537.273 6  23663606.492    23663620.047
        35.800          41.400    23663619.863    92861097.415 7  23663620.664
        45.300

 129536757.16515                  24650022.141
        32.500


 21  7 19  0 13 30.0000000  0  8G23G18G08G10G32G27G24G21
 116918645.281 7  91105469.127 7  22248866.766    22248875.266
        45.600          45.900    22248874.953    87309432.373 8  22248878.262
        49.700

 121533865.107 6  94701830.075 6  23127138.266    23127148.063
        37.700          38.900    23127148.180    90755957.038 7  23127151.953
        44.400

 117396113.291 7  91477505.438 7  22339741.188    22339751.625
        44.600          47.200    22339751.578    87665937.081 8  22339750.434
        50.300

 109549184.088 8  85363036.047 8  20846505.914    20846516.027
        51.100          51.100    20846515.484    81806252.513 8  20846513.801
        53.900

 108614933.651 8  84635117.143 8  20668736.328    20668745.688
        52.300          50.500    20668745.680    81108678.719 9  20668744.633
        54.500

 113517126.568 8  88454930.163 8  21601591.867    21601602.578
        48.700          48.800    21601602.555    84769303.097 8  21601602.059
        52.800

 124374861.790 5  96915537.966 6  23667759.039    23667770.855
        35.500          41.200    23667770.703    92877389.768 7  23667771.727
        45.100

 129452609.230 5                  24634006.672
        30.100


 21  7 19  0 14  0.0000000  0  8G23G18G08G10G32G27G24G21
 116984015.440 7  91156406.899 7  22261305.688    22261314.535
        45.500          45.500    22261314.383    87358247.715 8  22261317.770
        48.800

 121621220.034 6  94769898.804 6  23143760.852    23143771.844
        36.300          38.500    23143771.715    90821189.568 7  23143775.520
        44.500

 117375477.799 7  91461425.833 7  22335814.086    22335824.883
        45.000          46.700    22335824.750    87650527.443 8  22335823.324
        50.100

 109569309.418 8  85378718.136 8  20850336.313    20850345.539
        51.000          51.100    20850344.789    81821281.168 8  20850343.492
        53.700

 108572786.350 8  84602275.108 8  20660715.805    20660725.426
        52.700          51.100    20660725.160    81077205.094 9  20660724.215
        54.300

 113559040.788 8  88487590.569 8  21609568.344    21609578.766
        48.700          48.700    21609578.660    84800602.646 8  21609577.770
        52.500

 124397246.108 6  96932980.244 6  23672020.500    23672031.355
        38.900          41.300    23672031.508    92894105.280 7  23672030.320
        44.300

 129368471.526 5                  24618000.125
        33.400


 21  7 19  0 14 30.0000000  0  8G23G18G08G10G32G27G24G21
 117049491.815 7  91207427.425 7  22273766.148    22273773.957
        45.600          45.200    22273773.750    87407142.384 8  22273777.742
        49.300

 121708813.060 6  94838153.072 6  23160430.445    23160439.938
        36.500          37.700    23160439.020    90886599.870 7  23160444.352
        44.500

 117355410.348 7  91445788.833 7  22331995.992    22332005.738
        44.500          46.900    22332006.211    87635541.983 8  22332004.910
        50.600

 109589637.964 8  85394558.553 8  20854204.492    20854213.996
        50.700          50.700    20854213.555    81836461.569 8  20854211.652
        53.700

 108531134.049 8  84569818.787 8  20652790.016    20652799.234
        52.200          51.000    20652798.953    81046101.128 9  20652798.180
        54.400

 113601490.416 8  88520668.176 8  21617646.305    21617656.828
        48.500          48.000    21617656.512    84832302.000 8  21617655.781
        52.400

 124420196.603 6  96950863.753 6  23676387.438    23676398.391
        36.900          41.700    23676398.773    92911243.615 7  23676399.012
        44.900

 129284344.785 5                  24601986.477
        31.200


 21  7 19  0 15  0.0000000  0  8G23G18G08G10G32G27G24G21
 117115073.850 7  91258530.283 7  22286245.648    22286253.828
        44.700          45.100    22286253.277    87456115.938 8  22286256.785
        49.000

 121796643.206 6  94906592.059 6  23177145.383    23177154.063
        36.900          38.900    23177154.352    90952187.218 7  23177158.398
        43.600

 117335911.318 7  91430594.774 7  22328285.055    22328295.355
        45.400          47.100    22328295.344    87620981.017 8  22328294.402
        51.000

 109610169.159 8  85410556.878 8  20858111.383    20858121.074
        51.400          50.300    20858120.301    81851793.303 8  20858118.703
        53.800

 108489977.413 8  84537748.692 8  20644957.977    20644967.727
        53.400          51.300    20644967.375    81015367.293 9  20644966.566
        54.500

 113644473.572 8  88554161.511 8  21625825.703    21625836.133
        48.500          48.300    21625835.973    84864399.781 8  21625835.422
        52.800

 124443712.966 6  96969188.201 6  23680862.141    23680873.457
        37.900          40.900    23680873.133    92928804.539 7  23680874.082
        45.100

 129200230.454 5                  24585983.047
        33.500


 21  7 19  0 15 30.0000000  0  8G23G18G08G10G32G27G24G21
 117180761.068 7  91309715.115 7  22298745.891    22298753.539
        46.100          44.600    22298753.289    87505168.049 8  22298757.090
        48.200

 121884709.625 5  94975215.142 6  23193904.867    23193912.375
        35.700          37.500    23193910.875    91017951.028 6  23193916.012
        41.700

 117316981.041 7  91415843.896 7  22324682.656    22324693.129
        44.100          46.500    22324693.363    87606844.759 8  22324692.277
        50.900

 109630902.626 8  85426712.833 8  20862056.219    20862066.426
        51.800          49.700    20862066.039    81867276.085 8  20862064.078
        53.500

 108449317.256 8  84506065.471 8  20637220.094    20637230.242
        53.200          51.900    20637230.117    80985004.208 9  20637228.969
        54.100

 113687988.533 8  88588069.259 8  21634106.383    21634116.633
        48.800          48.800    21634116.695    84896894.702 8  21634115.863
        52.500

 124467794.967 6  96987953.399 7  23685444.297    23685456.641
        38.800          42.000    23685456.695    92946787.842 7  23685455.227
        43.900

 129116129.70715                  24569978.609
        31.200


 21  7 19  0 16  0.0000000  0  8G23G18G08G10G32G27G24G21
 117246553.126 7  91360981.610 7  22311266.484    22311274.047
        46.100          44.800    22311273.090    87554298.456 8  22311276.656
        49.000

 121973011.533 5  95044021.712 5  23210708.656    23210715.164
        34.000          35.700    23210713.871    91083890.675 6  23210719.637
        40.100

 117298620.428 7  91401536.904 7  22321188.875    22321199.285
        43.900          47.000    22321199.055    87593133.891 8  22321198.262
        50.900

 109651838.088 8  85443026.160 8  20866040.516    20866050.348
        51.600          50.800    20866049.730    81882909.703 8  20866048.070
        53.800

 108409154.349 8  84474769.706 8  20629577.266    20629587.469
        52.800          51.500    20629587.527    80955012.437 9  20629585.832
        54.100

 113732033.583 8  88622390.046 8  21642488.492    21642498.219
        48.700          48.400    21642497.684    84929785.454 8  21642497.707
        52.800

 124492442.480 6  97007159.248 6  23690134.242    23690146.145
        37.200          40.900    23690146.242    92965193.423 7  23690146.879
        44.600

 129032044.15715                  24553976.852
        30.100


 21  7 19  0 16 30.0000000  0  8G23G18G08G10G32G27G24G21
 117312449.818 7  91412329.633 7  22323806.391    22323813.500
        46.100          45.100    22323812.844    87603506.996 8  22323816.797
        48.700

 122061548.19414  95113011.290 5  23227548.453
        27.300          34.100    23227561.750    91150005.709 6  23227565.648
        39.500

 117280830.135 7  91387674.347 7  22317802.898    22317813.723
        43.200          46.800    22317814.105    87579848.953 8  22317813.184
        51.300

 109672975.307 8  85459496.725 8  20870062.852    20870072.563
        51.800          50.200    20870072.020    81898693.981 8  20870070.422
        53.700

 108369489.650 9  84443862.169 8  20622030.555    20622039.473
        54.100          51.100    20622039.313    80925392.722 8  20622037.973
        53.700

 113776607.113 8  88657122.635 7  21650970.672    21650980.344
        48.000          47.800    21650980.102    84963070.845 8  21650979.457
        52.600

 124517655.371 6  97026805.642 6  23694932.734    23694944.293
        38.000          40.500    23694943.754    92984021.242 7  23694944.258
        43.400

 128947975.24615                  24537977.383
        31.600


 21  7 19  0 17  0.0000000  0  8G23G18G08G10G32G27G24G21
 117378450.333 7  91463758.616 7  22336364.914    22336372.777
        45.400          45.700    22336372.293    87652793.080 8  22336375.949
        48.500

 122150318.54414  95182182.981 5  23244445.531
        27.300          32.100    23244453.090    91216295.176 6  23244457.816
        39.700

 117263610.608 7  91374256.518 7  22314526.000    22314537.164
        44.500          47.000    22314537.316    87566990.189 8  22314536.285
        51.300

 109694313.531 8  85476123.921 8  20874123.289    20874133.145
        51.300          50.500    20874132.637    81914628.374 8  20874130.973
        53.700

 108330323.532 8  84413343.141 8  20614575.773    20614586.461
        52.900          50.500    20614586.422    80896145.319 8  20614585.016
        53.700

 113821706.999 8  88692265.376 8  21659552.492    21659562.664
        48.100          48.200    21659562.465    84996749.291 8  21659561.910
        52.400

 124543433.015 6  97046892.092 6  23699837.375    23699849.063
        37.400          40.900    23699848.902    93003270.739 7  23699849.125
        43.300

 128863924.036 5                  24521985.031
        32.400


 21  7 19  0 17 30.0000000  0  7G23G08G10G32G27G24G21
 117444554.147 7  91515268.041 7  22348943.578    22348951.883
        45.600          45.000    22348952.063    87702156.297 8  22348955.363
        48.600

 117246961.521 7  91361283.192 7  22311358.508    22311369.004
        45.400          47.300    22311369.422    87554557.422 8  22311367.902
        51.300

 109715852.281 8  85492907.353 8  20878222.352    20878231.785
        53.000          50.200    20878231.117    81930712.496 8  20878229.582
        53.800

 108291656.539 8  84383213.040 8  20607218.516    20607228.402
        53.700          51.000    20607228.125    80867270.642 8  20607226.988
        53.700

 113867331.214 8  88727816.682 8  21668234.328    21668244.582
        48.500          48.000    21668244.293    85030819.305 8  21668243.609
        52.400

 124569774.923 6  97067418.269 6  23704850.336    23704862.660
        37.500          41.000    23704861.688    93022941.632 7  23704862.063
        43.800

 128779892.03415                  24505993.453
        33.600


 21  7 19  0 18  0.0000000  0  7G23G08G10G32G27G24G21
 117510760.664 7  91566857.515 7  22361542.992    22361550.531
        45.500          45.500    22361550.500    87751596.191 8  22361554.086
        48.800

 117230884.119 7  91348755.338 7  22308299.281    22308309.426
        44.800          47.300    22308309.578    87542551.550 8  22308308.633
        51.200

 109737591.070 8  85509846.653 8  20882358.539    20882368.484
        52.200          49.600    20882367.770    81946945.992 8  20882366.273
        53.700

 108253489.240 8  84353472.292 8  20599955.469    20599965.313
        51.900          50.800    20599965.211    80838769.103 8  20599963.836
        53.700

 113913477.750 8  88763775.006 7  21677016.609    21677025.664
        48.800          47.900    21677025.543    85065279.346 8  21677025.211
        52.500

 124596680.642 6  97088383.734 6  23709970.477    23709981.637
        38.100          40.100    23709981.383    93043033.546 7  23709982.488
        43.600

 128695880.50615 100282514.25452  24490004.406    24490014.605
        31.200          13.900


 21  7 19  0 18 30.0000000  0  7G23G08G10G32G27G24G21
 117577069.781 7  91618526.929 7  22374161.383    22374169.234
        45.700          46.000    22374169.070    87801112.698 8  22374171.930
        48.500

 117215378.421 7  91336672.967 7  22305348.344    22305358.465
        45.500          46.800    22305358.367    87530972.598 8  22305358.004
        51.200

 109759529.681 8  85526941.669 8  20886533.836    20886543.191
        50.800          50.100    20886542.523    81963328.704 8  20886541.023
        53.500

 108215822.485 8  84324121.590 8  20592787.133    20592797.539
        50.500          50.200    20592797.516    80810641.349 8  20592796.035
        53.400

 113960145.040 8  88800139.082 8  21685895.906    21685906.488
        48.100          48.400    21685906.113    85100128.252 8  21685905.848
        52.700

 124624149.981 6  97109788.399 6  23715197.102    23715209.711
        36.400          41.100    23715209.508    93063546.371 7  23715210.203
        43.500

 128611890.83115 100217067.76752  24474025.031    24474031.648
        32.300          15.600


 21  7 19  0 19  0.0000000  0  7G23G08G10G32G27G24G21
 117643480.149 7  91670275.244 7  22386798.508    22386806.867
        44.700          45.800    22386806.340    87850704.845 8  22386809.902
        48.800

 117200444.231 7  91325035.934 7  22302506.094    22302516.324
        45.100          46.600    22302515.977    87519820.440 8  22302516.297
        51.400

 109781666.892 8  85544191.441 8  20890746.125    20890755.695
        52.300          50.200    20890755.316    81979859.734 8  20890753.555
        53.500

 108178656.040 8  84295160.716 8  20585715.250    20585724.984
        52.100          50.700    20585724.852    80782887.190 8  20585723.379
        53.900

 114007330.243 8  88836906.763 7  21694875.938    21694885.395
        48.800          47.800    21694884.938    85135363.940 8  21694885.121
        52.500

 124652181.697 6  97131631.307 7  23720532.695    23720544.754
        37.100          42.100    23720544.727    93084479.112 7  23720543.523
        43.100

 128527923.825 5 100151638.99742  24458048.078    24458052.578
        33.900          15.600


 21  7 19  0 19 30.0000000  0  7G23G08G10G32G27G24G21
 117709991.227 7  91722102.044 7  22399455.375    22399463.344
        44.600          45.500    22399463.176    87900372.189 8  22399467.148
        49.500

 117186081.908 7  91313844.490 7  22299774.047    22299783.477
        45.800          47.300    22299783.871    87509095.317 8  22299783.211
        51.800

 109804002.152 8  85561595.545 8  20894996.430    20895006.039
        52.000          50.000    20895005.254    81996538.668 8  20895003.844
        53.400

 108141990.341 8  84266590.046 8  20578737.500    20578747.715
        51.900          50.900    20578747.430    80755506.969 8  20578746.402
        53.700

 114055031.275 8  88874076.366 8  21703953.047    21703962.688
        48.500          48.200    21703962.121    85170984.808 8  21703962.152
        52.300

 124680775.131 6  97153911.924 6  23725972.789    23725985.391
        36.500          40.900    23725984.668    93105831.349 7  23725986.273
        43.600

 128443980.504 6 100086228.63242  24442072.852    24442078.770
        36.100          17.400


 21  7 19  0 20  0.0000000  0  7G23G08G10G32G27G24G21
 117776603.015 7  91774007.310 7  22412130.617    22412138.910
        43.700          45.400    22412138.074    87950114.703 8  22412143.277
        50.200

 117172292.053 7  91303099.129 7  22297149.547    22297159.594
        45.600          46.600    22297159.895    87498797.674 8  22297158.992
        51.500

 109826535.510 8  85579153.986 8  20899284.742    20899294.008
        51.100          50.400    20899293.379    82013365.508 8  20899291.840
        53.500

 108105826.344 8  84238410.338 8  20571855.961    20571865.777
        51.000          50.700    20571865.836    80728501.406 8  20571864.531
        53.900

 114103246.533 8  88911646.677 8  21713128.047    21713137.762
        48.000          48.300    21713137.469    85206989.684 8  21713136.977
        52.200

 124709930.263 5  97176630.153 6  23731521.313    23731532.961
        35.700          40.900    23731533.215    93127603.069 7  23731532.777
        43.000

 128360062.998 5 100020838.40542  24426103.258    24426109.629
        35.600          17.400


 21  7 19  0 20 30.0000000  0  8G23G18G08G10G32G27G24G21
 117843315.595 7  91825991.115 7  22424826.031    22424835.012
        44.900          46.600    22424834.105    87999932.504 8  22424837.516
        49.300

 122778129.57115  95671413.57516  23363920.438
        31.900          39.600    23363932.367    91685141.00416  23363935.672
        39.100

 117159075.463 7  91292800.494 7  22294634.203    22294644.824
        45.000          46.600    22294645.051    87488928.143 8  22294643.918
        51.800

 109849267.055 8  85596866.885 8  20903609.930    20903619.996
        51.200          50.400    20903619.336    82030340.366 8  20903617.309
        53.400

 108070165.114 8  84210622.380 8  20565070.211    20565079.891
        51.500          50.700    20565079.750    80701871.284 8  20565078.480
        53.900

 114151974.611 7  88949616.580 8  21722400.383    21722410.254
        47.500          48.500    21722410.258    85243377.503 8  21722409.504
        52.100

 124739647.121 6  97199786.112 6  23737175.344    23737188.391
        36.500          41.300    23737189.113    93149794.167 7  23737186.941
        42.700

 128276172.941 6  99955469.60342  24410139.930    24410146.711
        36.600          17.800


 21  7 19  0 21  0.0000000  0  7G23G08G10G32G27G24G21
 117910127.958 7  91878052.674 7  22437540.766    22437548.246
        45.800          45.800    22437548.000    88049824.843 8  22437551.332
        48.400

 117146431.638 7  91282948.147 7  22292227.891    22292238.672
        45.300          46.400    22292238.566    87479486.329 8  22292237.730
        51.300

 109872195.864 8  85614733.477 8  20907973.047    20907982.777
        51.300          49.900    20907981.941    82047462.505 8  20907980.602
        53.400

 108035006.609 8  84183226.141 8  20558379.523    20558389.410
        52.100          51.400    20558389.555    80675616.573 8  20558388.047
        53.900

 114201212.898 7  88987984.058 8  21731770.164    21731779.664
        47.400          48.000    21731779.316    85280146.322 8  21731779.336
        52.100

 124769924.483 6  97223378.884 6  23742939.039    23742949.145
        36.500          38.400    23742947.832    93172403.891 7  23742949.180
        42.900

 128192311.497 6  99890123.10743  24394182.313    24394187.578
        37.300          19.300


 21  7 19  0 21 30.0000000  0  8G23G18G08G10G32G27G24G21
 117977038.812 7  91930190.988 7  22450272.094    22450280.824
        44.800          45.600    22450280.254    88099790.739 8  22450284.523
        49.000

 122959557.02215  95812786.350 6  23398444.461
        31.500          37.500    23398457.695    91820623.252 5  23398457.453
        35.900

 117134360.293 7  91273541.904 7  22289931.672    22289941.410
        46.300          46.800    22289941.480    87470471.998 8  22289940.586
        50.900

 109895320.617 8  85632752.767 8  20912374.102    20912383.191
        51.300          49.700    20912382.547    82064730.995 8  20912381.129
        53.400

 108000350.459 8  84156221.374 8  20551785.195    20551794.742
        51.900          51.000    20551794.242    80649736.990 9  20551793.203
        54.300

 114250958.466 7  89026746.804 8  21741236.336    21741246.691
        46.800          48.100    21741246.258    85317293.949 8  21741245.773
        52.400

 124800761.01815  97247407.291 6  23748805.391    23748816.375
        34.300          38.600    23748816.199    93195431.186 7  23748816.266
        42.600

 128108479.069 6  99824799.17443  24378228.797    24378235.438
        38.200          19.300


 21  7 19  0 22  0.0000000  0  8G23G18G08G10G32G27G24G21
 118044048.967 7  91982406.660 7  22463024.375    22463032.410
        44.500          46.000    22463031.695    88149830.733 8  22463036.500
        49.500

 123050606.44415  95883734.271 6  23415774.797    23415783.484
        31.300          37.500    23415784.461    91888614.956 6  23415785.828
        36.800

 117122862.608 7  91264582.642 7  22287743.141    22287753.699
        45.600          46.800    22287754.258    87461886.050 8  22287752.344
        50.600

 109918642.119 8  85650925.357 8  20916811.914    20916820.906
        51.100          49.900    20916820.504    82082146.395 8  20916819.020
        53.300

 107966198.270 8  84129609.276 8  20545286.438    20545295.664
        52.800          51.400    20545295.613    80624233.744 9  20545294.141
        54.300

 114301210.438 7  89065904.152 8  21750799.039    21750809.008
        46.600          48.500    21750808.434    85354819.743 8  21750808.609
        52.400

 124832157.183 5  97271871.854 6  23754780.438    23754792.762
        35.700          39.800    23754792.211    93218876.384 7  23754791.281
        43.000

 128024678.190 6  99759499.82043  24362280.711    24362287.797
        37.500          20.100


 21  7 19  0 22 30.0000000  0  8G23G18G08G10G32G27G24G21
 118111157.225 7  92034698.793 7  22475794.555    22475803.547
        44.700          46.400    22475802.789    88199944.029 8  22475805.879
        48.600

 123141878.37615  95954855.109 6  23433144.211    23433151.355
        33.300          37.300    23433151.535    91956772.438 6  23433153.906
        38.300

 117111938.482 7  91256070.363 7  22285664.711    22285674.695
        46.000          47.000    22285674.383    87453728.414 8  22285673.672
        50.600

 109942159.231 8  85669250.369 8  20921287.102    20921296.383
        51.200          49.900    20921296.047    82099707.866 8  20921294.352
        53.700

 107932549.765 8  84103389.671 8  20538882.563    20538892.496
        52.100          51.200    20538892.270    80599106.622 9  20538890.965
        54.400

 114351965.939 7  89105453.896 8  21760457.391    21760468.105
        46.400          48.200    21760467.660    85392721.557 8  21760467.137
        52.500

 124864111.630 5  97296771.444 6  23760863.063    23760871.664
        34.000          37.700    23760871.352    93242738.492 7  23760872.930
        43.900

 127940909.751 6  99694225.78643  24346341.422    24346347.148
        38.300          19.600


 21  7 19  0 23  0.0000000  0  8G23G18G08G10G32G27G24G21
 118178363.060 7  92087066.929 7  22488585.266    22488591.754
        45.400          45.600    22488591.176    88250130.177 8  22488594.957
        49.300

 123233371.16614  96026148.090 5  23450550.367    23450561.254
        29.100          35.500    23450561.207    92025094.859 6  23450563.613
        37.900

 117101587.045 7  91248004.271 7  22283694.734    22283705.082
        45.300          46.800    22283705.391    87445998.430 8  22283703.809
        50.700

 109965871.459 8  85687727.427 8  20925799.156    20925808.816
        51.500          50.400    20925808.184    82117415.034 8  20925806.543
        53.500

 107899405.278 8  84077562.826 8  20532576.336    20532585.270
        52.700          51.000    20532585.035    80574355.887 9  20532583.762
        54.300

 114403222.824 7  89145394.292 8  21770210.414    21770221.801
        46.800          49.000    21770221.891    85430997.756 8  21770221.117
        52.600

 124896623.736 5  97322105.492 6  23767046.953    23767058.594
        33.500          39.200    23767058.641    93267016.957 7  23767060.270
        43.800

 127857174.751 6  99628977.79242  24330405.094    24330412.945
        36.800          17.800


 21  7 19  0 23 30.0000000  0  8G23G18G08G10G32G27G24G21
 118245666.732 7  92139511.360 7  22501391.313    22501398.824
        45.000          45.400    22501398.641    88300389.400 8  22501402.129
        49.300

 123325084.46914  96097612.975 5  23468001.945    23468014.688
        28.300          35.700    23468013.699    92093581.998 6  23468016.676
        39.700

 117091809.762 7  91240385.621 7  22281834.063    22281844.488
        45.500          46.800    22281844.387    87438697.214 8  22281843.434
        51.400

 109989779.095 8  85706356.747 8  20930348.633    20930358.398
        51.400          50.400    20930357.738    82135268.143 8  20930356.098
        53.700

 107866765.854 8  84052129.523 8  20526364.227    20526374.078
        52.100          51.500    20526373.930    80549982.309 9  20526372.691
        54.500

 114454979.570 7  89185724.191 7  21780060.523    21780070.363
        47.200          47.600    21780069.914    85469647.244 8  21780070.277
        52.800

 124929693.294 5  97347874.009 6  23773340.516    23773353.074
        32.600          39.200    23773352.613    93291711.758 7  23773352.469
