$GPGGA,204919.44,3726.6463300,N,12213.9660440,W,1,0,0.0,10.8520,M,0.0000,M,0.0000,0
$GPRMC,204919.44,A,3726.6463300,N,12213.9660440,W,0.0010,30.2574,190721,,,,
$GPGGA,204920.44,3726.6463300,N,12213.9660440,W,1,0,0.0,10.8510,M,0.0000,M,0.0000,0
$GPRMC,204920.44,A,3726.6463300,N,12213.9660440,W,0.0010,30.2574,190721,,,,
$GPGGA,204921.44,3726.6463360,N,12213.9660440,W,1,0,0.0,10.8510,M,0.0000,M,0.0000,0
$GPRMC,204921.44,A,3726.6463360,N,12213.9660440,W,0.0014,30.2575,190721,,,,
$GPGGA,204922.44,3726.6463360,N,12213.9660440,W,1,0,0.0,10.8510,M,0.0000,M,0.0000,0
$GPRMC,204922.44,A,3726.6463360,N,12213.9660440,W,0.0014,30.2574,190721,,,,
$GPGGA,204923.44,3726.6463360,N,12213.9660440,W,1,0,0.0,10.8510,M,0.0000,M,0.0000,0
$GPRMC,204923.44,A,3726.6463360,N,12213.9660440,W,0.0014,30.2573,190721,,,,
$GPGGA,204924.44,3726.6463360,N,12213.9660440,W,1,0,0.0,10.8510,M,0.0000,M,0.0000,0
$GPRMC,204924.44,A,3726.6463360,N,12213.9660440,W,0.0019,30.2567,190721,,,,
$GPGGA,204925.44,3726.6463360,N,12213.9660440,W,1,0,0.0,10.8558,M,0.0000,M,0.0000,0
$GPRMC,204925.44,A,3726.6463360,N,12213.9660440,W,0.1199,30.3662,190721,,,,
$GPGGA,204926.44,3726.6461920,N,12213.9662480,W,1,0,0.0,10.8486,M,0.0000,M,0.0000,0
$GPRMC,204926.44,A,3726.6461920,N,12213.9662480,W,0.5846,26.7761,190721,,,,
$GPGGA,204927.44,3726.6458920,N,12213.9666740,W,1,0,0.0,10.8332,M,0.0000,M,0.0000,0
$GPRMC,204927.44,A,3726.6458920,N,12213.9666740,W,0.9121,16.9934,190721,,,,
$GPGGA,204928.44,3726.6454060,N,12213.9671300,W,1,0,0.0,10.8112,M,0.0000,M,0.0000,0
$GPRMC,204928.44,A,3726.6454060,N,12213.9671300,W,1.0624,3.9410,190721,,,,
$GPGGA,204929.44,3726.6449320,N,12213.9673940,W,1,0,0.0,10.7882,M,0.0000,M,0.0000,0
$GPRMC,204929.44,A,3726.6449320,N,12213.9673940,W,0.6131,352.9196,190721,,,,
$GPGGA,204930.44,3726.6447820,N,12213.9674420,W,1,0,0.0,10.7834,M,0.0000,M,0.0000,0
$GPRMC,204930.44,A,3726.6447820,N,12213.9674420,W,0.0366,349.7526,190721,,,,
$GPGGA,204931.44,3726.6448240,N,12213.9674660,W,1,0,0.0,10.7754,M,0.0000,M,0.0000,0
$GPRMC,204931.44,A,3726.6448240,N,12213.9674660,W,0.3653,349.2759,190721,,,,
$GPGGA,204932.44,3726.6452380,N,12213.9678320,W,1,0,0.0,10.7939,M,0.0000,M,0.0000,0
$GPRMC,204932.44,A,3726.6452380,N,12213.9678320,W,1.4441,340.1013,190721,,,,
$GPGGA,204933.44,3726.6458380,N,12213.9690080,W,1,0,0.0,10.8142,M,0.0000,M,0.0000,0
$GPRMC,204933.44,A,3726.6458380,N,12213.9690080,W,2.3196,315.4144,190721,,,,
$GPGGA,204934.44,3726.6460060,N,12213.9709820,W,1,0,0.0,10.7655,M,0.0000,M,0.0000,0
$GPRMC,204934.44,A,3726.6460060,N,12213.9709820,W,3.2404,283.4886,190721,,,,
$GPGGA,204935.44,3726.6453640,N,12213.9733700,W,1,0,0.0,10.7001,M,0.0000,M,0.0000,0
$GPRMC,204935.44,A,3726.6453640,N,12213.9733700,W,3.8784,252.9818,190721,,,,
$GPGGA,204936.44,3726.6438460,N,12213.9753260,W,1,0,0.0,10.5985,M,0.0000,M,0.0000,0
$GPRMC,204936.44,A,3726.6438460,N,12213.9753260,W,3.8548,226.3111,190721,,,,
$GPGGA,204937.44,3726.6423040,N,12213.9763700,W,1,0,0.0,10.5007,M,0.0000,M,0.0000,0
$GPRMC,204937.44,A,3726.6423040,N,12213.9763700,W,2.3081,211.0647,190721,,,,
$GPGGA,204938.44,3726.6413320,N,12213.9769880,W,1,0,0.0,10.4358,M,0.0000,M,0.0000,0
$GPRMC,204938.44,A,3726.6413320,N,12213.9769880,W,2.2096,208.4036,190721,,,,
$GPGGA,204939.44,3726.6401440,N,12213.9777500,W,1,0,0.0,10.3439,M,0.0000,M,0.0000,0
$GPRMC,204939.44,A,3726.6401440,N,12213.9777500,W,2.7507,207.6614,190721,,,,
$GPGGA,204940.44,3726.6385360,N,12213.9787760,W,1,0,0.0,10.3027,M,0.0000,M,0.0000,0
$GPRMC,204940.44,A,3726.6385360,N,12213.9787760,W,4.0093,206.8628,190721,,,,
$GPGGA,204941.44,3726.6364000,N,12213.9801500,W,1,0,0.0,10.2237,M,0.0000,M,0.0000,0
$GPRMC,204941.44,A,3726.6364000,N,12213.9801500,W,4.5622,207.1649,190721,,,,
$GPGGA,204942.44,3726.6343300,N,12213.9815960,W,1,0,0.0,10.1551,M,0.0000,M,0.0000,0
$GPRMC,204942.44,A,3726.6343300,N,12213.9815960,W,4.1612,209.4378,190721,,,,
$GPGGA,204943.44,3726.6326860,N,12213.9830960,W,1,0,0.0,10.0869,M,0.0000,M,0.0000,0
$GPRMC,204943.44,A,3726.6326860,N,12213.9830960,W,3.2122,215.6998,190721,,,,
$GPGGA,204944.44,3726.6316780,N,12213.9842600,W,1,0,0.0,9.9860,M,0.0000,M,0.0000,0
$GPRMC,204944.44,A,3726.6316780,N,12213.9842600,W,1.9745,221.3179,190721,,,,
$GPGGA,204945.44,3726.6310780,N,12213.9854480,W,1,0,0.0,9.8566,M,0.0000,M,0.0000,0
$GPRMC,204945.44,A,3726.6310780,N,12213.9854480,W,2.2232,232.5608,190721,,,,
$GPGGA,204946.44,3726.6308740,N,12213.9872120,W,1,0,0.0,9.7223,M,0.0000,M,0.0000,0
$GPRMC,204946.44,A,3726.6308740,N,12213.9872120,W,2.9534,255.2213,190721,,,,
$GPGGA,204947.44,3726.6312700,N,12213.9897080,W,1,0,0.0,9.6938,M,0.0000,M,0.0000,0
$GPRMC,204947.44,A,3726.6312700,N,12213.9897080,W,4.4763,279.1796,190721,,,,
$GPGGA,204948.44,3726.6325240,N,12213.9930860,W,1,0,0.0,9.5770,M,0.0000,M,0.0000,0
$GPRMC,204948.44,A,3726.6325240,N,12213.9930860,W,6.4970,295.2243,190721,,,,
$GPGGA,204949.44,3726.6344200,N,12213.9975560,W,1,0,0.0,9.3355,M,0.0000,M,0.0000,0
$GPRMC,204949.44,A,3726.6344200,N,12213.9975560,W,8.3864,298.8138,190721,,,,
$GPGGA,204950.44,3726.6368980,N,12214.0027400,W,1,0,0.0,9.1166,M,0.0000,M,0.0000,0
$GPRMC,204950.44,A,3726.6368980,N,12214.0027400,W,9.4351,301.3379,190721,,,,
$GPGGA,204951.44,3726.6397180,N,12214.0084880,W,1,0,0.0,8.8555,M,0.0000,M,0.0000,0
$GPRMC,204951.44,A,3726.6397180,N,12214.0084880,W,10.3470,301.5955,190721,,,,
$GPGGA,204952.44,3726.6427120,N,12214.0145180,W,1,0,0.0,8.5504,M,0.0000,M,0.0000,0
$GPRMC,204952.44,A,3726.6427120,N,12214.0145180,W,10.6608,302.1075,190721,,,,
$GPGGA,204953.44,3726.6458560,N,12214.0207220,W,1,0,0.0,8.2957,M,0.0000,M,0.0000,0
$GPRMC,204953.44,A,3726.6458560,N,12214.0207220,W,10.9405,302.5583,190721,,,,
$GPGGA,204954.44,3726.6490840,N,12214.0269740,W,1,0,0.0,8.0899,M,0.0000,M,0.0000,0
$GPRMC,204954.44,A,3726.6490840,N,12214.0269740,W,11.0158,303.2239,190721,,,,
$GPGGA,204955.44,3726.6523780,N,12214.0331780,W,1,0,0.0,7.8541,M,0.0000,M,0.0000,0
$GPRMC,204955.44,A,3726.6523780,N,12214.0331780,W,10.8786,303.6175,190721,,,,
$GPGGA,204956.44,3726.6554980,N,12214.0391060,W,1,0,0.0,7.6212,M,0.0000,M,0.0000,0
$GPRMC,204956.44,A,3726.6554980,N,12214.0391060,W,9.9363,303.2686,190721,,,,
$GPGGA,204957.44,3726.6582640,N,12214.0443620,W,1,0,0.0,7.4488,M,0.0000,M,0.0000,0
$GPRMC,204957.44,A,3726.6582640,N,12214.0443620,W,8.6476,303.4318,190721,,,,
$GPGGA,204958.44,3726.6605980,N,12214.0488560,W,1,0,0.0,7.2704,M,0.0000,M,0.0000,0
$GPRMC,204958.44,A,3726.6605980,N,12214.0488560,W,6.9708,302.2729,190721,,,,
$GPGGA,204959.44,3726.6621100,N,12214.0522580,W,1,0,0.0,7.1631,M,0.0000,M,0.0000,0
$GPRMC,204959.44,A,3726.6621100,N,12214.0522580,W,4.4711,298.6517,190721,,,,
$GPGGA,205000.44,3726.6630100,N,12214.0543220,W,1,0,0.0,7.0880,M,0.0000,M,0.0000,0
$GPRMC,205000.44,A,3726.6630100,N,12214.0543220,W,2.6934,298.3970,190721,,,,
$GPGGA,205001.44,3726.6635260,N,12214.0555220,W,1,0,0.0,7.0498,M,0.0000,M,0.0000,0
$GPRMC,205001.44,A,3726.6635260,N,12214.0555220,W,1.2908,298.4127,190721,,,,
$GPGGA,205002.44,3726.6636700,N,12214.0558580,W,1,0,0.0,7.0318,M,0.0000,M,0.0000,0
$GPRMC,205002.44,A,3726.6636700,N,12214.0558580,W,0.0441,298.4201,190721,,,,
$GPGGA,205003.44,3726.6636700,N,12214.0558580,W,1,0,0.0,7.0250,M,0.0000,M,0.0000,0
$GPRMC,205003.44,A,3726.6636700,N,12214.0558580,W,0.0026,298.4228,190721,,,,
$GPGGA,205004.44,3726.6636700,N,12214.0558580,W,1,0,0.0,7.0270,M,0.0000,M,0.0000,0
$GPRMC,205004.44,A,3726.6636700,N,12214.0558580,W,0.0037,298.4225,190721,,,,
$GPGGA,205005.44,3726.6636700,N,12214.0558580,W,1,0,0.0,7.0270,M,0.0000,M,0.0000,0
$GPRMC,205005.44,A,3726.6636700,N,12214.0558580,W,0.0021,298.4208,190721,,,,
$GPGGA,205006.44,3726.6636700,N,12214.0558520,W,1,0,0.0,7.0270,M,0.0000,M,0.0000,0
$GPRMC,205006.44,A,3726.6636700,N,12214.0558520,W,0.0019,298.4207,190721,,,,
$GPGGA,205007.44,3726.6636700,N,12214.0558520,W,1,0,0.0,7.0270,M,0.0000,M,0.0000,0
$GPRMC,205007.44,A,3726.6636700,N,12214.0558520,W,0.0009,298.4208,190721,,,,
$GPGGA,205008.44,3726.6636700,N,12214.0558520,W,1,0,0.0,7.0270,M,0.0000,M,0.0000,0
$GPRMC,205008.44,A,3726.6636700,N,12214.0558520,W,0.0012,298.4207,190721,,,,
$GPGGA,205009.44,3726.6636700,N,12214.0558520,W,1,0,0.0,7.0270,M,0.0000,M,0.0000,0
$GPRMC,205009.44,A,3726.6636700,N,12214.0558520,W,0.0009,298.4204,190721,,,,
$GPGGA,205010.44,3726.6636700,N,12214.0558520,W,1,0,0.0,7.0270,M,0.0000,M,0.0000,0
$GPRMC,205010.44,A,3726.6636700,N,12214.0558520,W,0.0013,298.4205,190721,,,,
$GPGGA,205011.44,3726.6636700,N,12214.0558520,W,1,0,0.0,7.0270,M,0.0000,M,0.0000,0
$GPRMC,205011.44,A,3726.6636700,N,12214.0558520,W,0.0019,298.4205,190721,,,,
$GPGGA,205012.44,3726.6636700,N,12214.0558520,W,1,0,0.0,7.0280,M,0.0000,M,0.0000,0
$GPRMC,205012.44,A,3726.6636700,N,12214.0558520,W,0.0014,298.4206,190721,,,,
$GPGGA,205013.44,3726.6636700,N,12214.0558520,W,1,0,0.0,7.0280,M,0.0000,M,0.0000,0
$GPRMC,205013.44,A,3726.6636700,N,12214.0558520,W,0.0018,298.4207,190721,,,,
$GPGGA,205014.44,3726.6637240,N,12214.0559600,W,1,0,0.0,7.0087,M,0.0000,M,0.0000,0
$GPRMC,205014.44,A,3726.6637240,N,12214.0559600,W,0.8567,298.4015,190721,,,,
$GPGGA,205015.44,3726.6642940,N,12214.0574180,W,1,0,0.0,6.9627,M,0.0000,M,0.0000,0
$GPRMC,205015.44,A,3726.6642940,N,12214.0574180,W,3.9010,296.7116,190721,,,,
$GPGGA,205016.44,3726.6652180,N,12214.0606100,W,1,0,0.0,6.9317,M,0.0000,M,0.0000,0
$GPRMC,205016.44,A,3726.6652180,N,12214.0606100,W,5.7747,288.4557,190721,,,,
$GPGGA,205017.44,3726.6656320,N,12214.0649300,W,1,0,0.0,7.0019,M,0.0000,M,0.0000,0
$GPRMC,205017.44,A,3726.6656320,N,12214.0649300,W,7.0699,273.8288,190721,,,,
$GPGGA,205018.44,3726.6648940,N,12214.0699100,W,1,0,0.0,7.1579,M,0.0000,M,0.0000,0
$GPRMC,205018.44,A,3726.6648940,N,12214.0699100,W,7.8776,254.0828,190721,,,,
$GPGGA,205019.44,3726.6625480,N,12214.0749020,W,1,0,0.0,7.2199,M,0.0000,M,0.0000,0
$GPRMC,205019.44,A,3726.6625480,N,12214.0749020,W,9.2451,233.6551,190721,,,,
$GPGGA,205020.44,3726.6586480,N,12214.0793360,W,1,0,0.0,7.3407,M,0.0000,M,0.0000,0
$GPRMC,205020.44,A,3726.6586480,N,12214.0793360,W,10.2894,217.8389,190721,,,,
$GPGGA,205021.44,3726.6536380,N,12214.0834640,W,1,0,0.0,7.5703,M,0.0000,M,0.0000,0
$GPRMC,205021.44,A,3726.6536380,N,12214.0834640,W,11.9474,212.2439,190721,,,,
$GPGGA,205022.44,3726.6477460,N,12214.0879040,W,1,0,0.0,7.8988,M,0.0000,M,0.0000,0
$GPRMC,205022.44,A,3726.6477460,N,12214.0879040,W,13.3450,209.8963,190721,,,,
$GPGGA,205023.44,3726.6411760,N,12214.0923800,W,1,0,0.0,8.2865,M,0.0000,M,0.0000,0
$GPRMC,205023.44,A,3726.6411760,N,12214.0923800,W,14.2822,207.8232,190721,,,,
$GPGGA,205024.44,3726.6340540,N,12214.0969820,W,1,0,0.0,8.8015,M,0.0000,M,0.0000,0
$GPRMC,205024.44,A,3726.6340540,N,12214.0969820,W,15.4563,207.0686,190721,,,,
$GPGGA,205025.44,3726.6263140,N,12214.1019500,W,1,0,0.0,9.1226,M,0.0000,M,0.0000,0
$GPRMC,205025.44,A,3726.6263140,N,12214.1019500,W,16.5603,206.9962,190721,,,,
$GPGGA,205026.44,3726.6181240,N,12214.1072480,W,1,0,0.0,9.3804,M,0.0000,M,0.0000,0
$GPRMC,205026.44,A,3726.6181240,N,12214.1072480,W,17.5931,207.3687,190721,,,,
$GPGGA,205027.44,3726.6094660,N,12214.1129660,W,1,0,0.0,9.5089,M,0.0000,M,0.0000,0
$GPRMC,205027.44,A,3726.6094660,N,12214.1129660,W,18.5495,207.7411,190721,,,,
$GPGGA,205028.44,3726.6004720,N,12214.1189600,W,1,0,0.0,9.6558,M,0.0000,M,0.0000,0
$GPRMC,205028.44,A,3726.6004720,N,12214.1189600,W,18.8817,208.0456,190721,,,,
$GPGGA,205029.44,3726.5915620,N,12214.1249780,W,1,0,0.0,9.8322,M,0.0000,M,0.0000,0
$GPRMC,205029.44,A,3726.5915620,N,12214.1249780,W,18.5284,208.2057,190721,,,,
$GPGGA,205030.44,3726.5828560,N,12214.1308580,W,1,0,0.0,10.0582,M,0.0000,M,0.0000,0
$GPRMC,205030.44,A,3726.5828560,N,12214.1308580,W,18.0596,208.0800,190721,,,,
$GPGGA,205031.44,3726.5742640,N,12214.1366060,W,1,0,0.0,10.3528,M,0.0000,M,0.0000,0
$GPRMC,205031.44,A,3726.5742640,N,12214.1366060,W,18.0265,207.9208,190721,,,,
$GPGGA,205032.44,3726.5656480,N,12214.1423420,W,1,0,0.0,10.8218,M,0.0000,M,0.0000,0
$GPRMC,205032.44,A,3726.5656480,N,12214.1423420,W,18.0195,207.6983,190721,,,,
$GPGGA,205033.44,3726.5570140,N,12214.1480120,W,1,0,0.0,11.4927,M,0.0000,M,0.0000,0
$GPRMC,205033.44,A,3726.5570140,N,12214.1480120,W,18.0843,207.3567,190721,,,,
$GPGGA,205034.44,3726.5483740,N,12214.1536340,W,1,0,0.0,12.3292,M,0.0000,M,0.0000,0
$GPRMC,205034.44,A,3726.5483740,N,12214.1536340,W,17.8084,207.3421,190721,,,,
$GPGGA,205035.44,3726.5399920,N,12214.1591120,W,1,0,0.0,13.3917,M,0.0000,M,0.0000,0
$GPRMC,205035.44,A,3726.5399920,N,12214.1591120,W,17.1400,207.5596,190721,,,,
$GPGGA,205036.44,3726.5319760,N,12214.1644220,W,1,0,0.0,14.4043,M,0.0000,M,0.0000,0
$GPRMC,205036.44,A,3726.5319760,N,12214.1644220,W,16.4044,208.0254,190721,,,,
$GPGGA,205037.44,3726.5242960,N,12214.1696360,W,1,0,0.0,15.2448,M,0.0000,M,0.0000,0
$GPRMC,205037.44,A,3726.5242960,N,12214.1696360,W,15.9739,208.5775,190721,,,,
$GPGGA,205038.44,3726.5167240,N,12214.1748800,W,1,0,0.0,16.0166,M,0.0000,M,0.0000,0
$GPRMC,205038.44,A,3726.5167240,N,12214.1748800,W,16.0058,208.8808,190721,,,,
$GPGGA,205039.44,3726.5091760,N,12214.1801720,W,1,0,0.0,16.7592,M,0.0000,M,0.0000,0
$GPRMC,205039.44,A,3726.5091760,N,12214.1801720,W,15.9732,209.2127,190721,,,,
$GPGGA,205040.44,3726.5015860,N,12214.1855720,W,1,0,0.0,17.4307,M,0.0000,M,0.0000,0
$GPRMC,205040.44,A,3726.5015860,N,12214.1855720,W,16.4273,209.0946,190721,,,,
$GPGGA,205041.44,3726.4936660,N,12214.1911700,W,1,0,0.0,18.1262,M,0.0000,M,0.0000,0
$GPRMC,205041.44,A,3726.4936660,N,12214.1911700,W,17.3371,209.4419,190721,,,,
$GPGGA,205042.44,3726.4855480,N,12214.1974100,W,1,0,0.0,18.9574,M,0.0000,M,0.0000,0
$GPRMC,205042.44,A,3726.4855480,N,12214.1974100,W,17.8731,213.2685,190721,,,,
$GPGGA,205043.44,3726.4775620,N,12214.2047240,W,1,0,0.0,19.8830,M,0.0000,M,0.0000,0
$GPRMC,205043.44,A,3726.4775620,N,12214.2047240,W,18.7080,217.9310,190721,,,,
$GPGGA,205044.44,3726.4696240,N,12214.2130460,W,1,0,0.0,20.8379,M,0.0000,M,0.0000,0
$GPRMC,205044.44,A,3726.4696240,N,12214.2130460,W,19.5880,221.3778,190721,,,,
$GPGGA,205045.44,3726.4617940,N,12214.2223940,W,1,0,0.0,21.9486,M,0.0000,M,0.0000,0
$GPRMC,205045.44,A,3726.4617940,N,12214.2223940,W,20.4043,225.0885,190721,,,,
$GPGGA,205046.44,3726.4542340,N,12214.2327680,W,1,0,0.0,23.1293,M,0.0000,M,0.0000,0
$GPRMC,205046.44,A,3726.4542340,N,12214.2327680,W,20.8706,229.5807,190721,,,,
$GPGGA,205047.44,3726.4473640,N,12214.2440000,W,1,0,0.0,24.3391,M,0.0000,M,0.0000,0
$GPRMC,205047.44,A,3726.4473640,N,12214.2440000,W,20.9212,234.4458,190721,,,,
$GPGGA,205048.44,3726.4409620,N,12214.2557600,W,1,0,0.0,25.5988,M,0.0000,M,0.0000,0
$GPRMC,205048.44,A,3726.4409620,N,12214.2557600,W,21.0772,236.2206,190721,,,,
$GPGGA,205049.44,3726.4347100,N,12214.2677180,W,1,0,0.0,26.8225,M,0.0000,M,0.0000,0
$GPRMC,205049.44,A,3726.4347100,N,12214.2677180,W,21.0460,236.6484,190721,,,,
$GPGGA,205050.44,3726.4283080,N,12214.2794600,W,1,0,0.0,28.1198,M,0.0000,M,0.0000,0
$GPRMC,205050.44,A,3726.4283080,N,12214.2794600,W,20.9103,234.3787,190721,,,,
$GPGGA,205051.44,3726.4214800,N,12214.2907400,W,1,0,0.0,29.4012,M,0.0000,M,0.0000,0
$GPRMC,205051.44,A,3726.4214800,N,12214.2907400,W,20.8824,231.7521,190721,,,,
$GPGGA,205052.44,3726.4143940,N,12214.3017800,W,1,0,0.0,30.5185,M,0.0000,M,0.0000,0
$GPRMC,205052.44,A,3726.4143940,N,12214.3017800,W,20.9341,230.6455,190721,,,,
$GPGGA,205053.44,3726.4070860,N,12214.3126760,W,1,0,0.0,31.5679,M,0.0000,M,0.0000,0
$GPRMC,205053.44,A,3726.4070860,N,12214.3126760,W,21.0694,229.2312,190721,,,,
$GPGGA,205054.44,3726.3994720,N,12214.3234280,W,1,0,0.0,32.6412,M,0.0000,M,0.0000,0
$GPRMC,205054.44,A,3726.3994720,N,12214.3234280,W,21.3792,227.5503,190721,,,,
$GPGGA,205055.44,3726.3914740,N,12214.3338920,W,1,0,0.0,33.7434,M,0.0000,M,0.0000,0
$GPRMC,205055.44,A,3726.3914740,N,12214.3338920,W,21.3443,225.1121,190721,,,,
$GPGGA,205056.44,3726.3832360,N,12214.3439780,W,1,0,0.0,34.6584,M,0.0000,M,0.0000,0
$GPRMC,205056.44,A,3726.3832360,N,12214.3439780,W,21.2287,223.3576,190721,,,,
$GPGGA,205057.44,3726.3748120,N,12214.3536560,W,1,0,0.0,35.7208,M,0.0000,M,0.0000,0
$GPRMC,205057.44,A,3726.3748120,N,12214.3536560,W,20.8701,221.3177,190721,,,,
$GPGGA,205058.44,3726.3662980,N,12214.3625240,W,1,0,0.0,36.9076,M,0.0000,M,0.0000,0
$GPRMC,205058.44,A,3726.3662980,N,12214.3625240,W,20.1796,218.5108,190721,,,,
$GPGGA,205059.44,3726.3577960,N,12214.3709540,W,1,0,0.0,38.0272,M,0.0000,M,0.0000,0
$GPRMC,205059.44,A,3726.3577960,N,12214.3709540,W,19.8765,217.8653,190721,,,,
$GPGGA,205100.44,3726.3492580,N,12214.3789580,W,1,0,0.0,39.0339,M,0.0000,M,0.0000,0
$GPRMC,205100.44,A,3726.3492580,N,12214.3789580,W,19.6055,215.8870,190721,,,,
$GPGGA,205101.44,3726.3405940,N,12214.3865300,W,1,0,0.0,39.9118,M,0.0000,M,0.0000,0
$GPRMC,205101.44,A,3726.3405940,N,12214.3865300,W,19.4567,214.0155,190721,,,,
$GPGGA,205102.44,3726.3318220,N,12214.3936940,W,1,0,0.0,40.7990,M,0.0000,M,0.0000,0
$GPRMC,205102.44,A,3726.3318220,N,12214.3936940,W,19.2856,212.2300,190721,,,,
$GPGGA,205103.44,3726.3229360,N,12214.4005160,W,1,0,0.0,41.5138,M,0.0000,M,0.0000,0
$GPRMC,205103.44,A,3726.3229360,N,12214.4005160,W,19.3364,210.7491,190721,,,,
$GPGGA,205104.44,3726.3137920,N,12214.4070800,W,1,0,0.0,42.0279,M,0.0000,M,0.0000,0
$GPRMC,205104.44,A,3726.3137920,N,12214.4070800,W,19.6237,208.9033,190721,,,,
$GPGGA,205105.44,3726.3043300,N,12214.4132960,W,1,0,0.0,42.4895,M,0.0000,M,0.0000,0
$GPRMC,205105.44,A,3726.3043300,N,12214.4132960,W,19.8662,206.5828,190721,,,,
$GPGGA,205106.44,3726.2945800,N,12214.4191220,W,1,0,0.0,42.8375,M,0.0000,M,0.0000,0
$GPRMC,205106.44,A,3726.2945800,N,12214.4191220,W,20.0914,204.5267,190721,,,,
$GPGGA,205107.44,3726.2845600,N,12214.4246120,W,1,0,0.0,43.0674,M,0.0000,M,0.0000,0
$GPRMC,205107.44,A,3726.2845600,N,12214.4246120,W,20.3675,202.8781,190721,,,,
$GPGGA,205108.44,3726.2743060,N,12214.4298140,W,1,0,0.0,43.2281,M,0.0000,M,0.0000,0
$GPRMC,205108.44,A,3726.2743060,N,12214.4298140,W,20.5132,201.3917,190721,,,,
$GPGGA,205109.44,3726.2639620,N,12214.4347460,W,1,0,0.0,43.3941,M,0.0000,M,0.0000,0
$GPRMC,205109.44,A,3726.2639620,N,12214.4347460,W,20.4642,200.1298,190721,,,,
$GPGGA,205110.44,3726.2535640,N,12214.4395820,W,1,0,0.0,43.4329,M,0.0000,M,0.0000,0
$GPRMC,205110.44,A,3726.2535640,N,12214.4395820,W,20.5512,200.4414,190721,,,,
$GPGGA,205111.44,3726.2431840,N,12214.4446160,W,1,0,0.0,43.6981,M,0.0000,M,0.0000,0
$GPRMC,205111.44,A,3726.2431840,N,12214.4446160,W,20.6180,201.6773,190721,,,,
$GPGGA,205112.44,3726.2328820,N,12214.4499980,W,1,0,0.0,44.0549,M,0.0000,M,0.0000,0
$GPRMC,205112.44,A,3726.2328820,N,12214.4499980,W,20.6453,203.0483,190721,,,,
$GPGGA,205113.44,3726.2228020,N,12214.4556980,W,1,0,0.0,44.5159,M,0.0000,M,0.0000,0
$GPRMC,205113.44,A,3726.2228020,N,12214.4556980,W,20.2256,205.2005,190721,,,,
$GPGGA,205114.44,3726.2131780,N,12214.4618960,W,1,0,0.0,45.0682,M,0.0000,M,0.0000,0
$GPRMC,205114.44,A,3726.2131780,N,12214.4618960,W,19.8085,208.6809,190721,,,,
$GPGGA,205115.44,3726.2041540,N,12214.4688680,W,1,0,0.0,45.7498,M,0.0000,M,0.0000,0
$GPRMC,205115.44,A,3726.2041540,N,12214.4688680,W,19.3717,214.3527,190721,,,,
$GPGGA,205116.44,3726.1960480,N,12214.4768180,W,1,0,0.0,46.5413,M,0.0000,M,0.0000,0
$GPRMC,205116.44,A,3726.1960480,N,12214.4768180,W,18.6983,220.9936,190721,,,,
$GPGGA,205117.44,3726.1889440,N,12214.4855300,W,1,0,0.0,47.1915,M,0.0000,M,0.0000,0
$GPRMC,205117.44,A,3726.1889440,N,12214.4855300,W,18.0671,226.1841,190721,,,,
$GPGGA,205118.44,3726.1825360,N,12214.4944820,W,1,0,0.0,47.7557,M,0.0000,M,0.0000,0
$GPRMC,205118.44,A,3726.1825360,N,12214.4944820,W,17.4205,229.1455,190721,,,,
$GPGGA,205119.44,3726.1766440,N,12214.5033620,W,1,0,0.0,48.4436,M,0.0000,M,0.0000,0
$GPRMC,205119.44,A,3726.1766440,N,12214.5033620,W,16.6134,230.8521,190721,,,,
$GPGGA,205120.44,3726.1713700,N,12214.5120320,W,1,0,0.0,49.1452,M,0.0000,M,0.0000,0
$GPRMC,205120.44,A,3726.1713700,N,12214.5120320,W,15.5419,233.3862,190721,,,,
$GPGGA,205121.44,3726.1667080,N,12214.5202640,W,1,0,0.0,49.7536,M,0.0000,M,0.0000,0
$GPRMC,205121.44,A,3726.1667080,N,12214.5202640,W,14.0425,235.6809,190721,,,,
$GPGGA,205122.44,3726.1630480,N,12214.5277580,W,1,0,0.0,50.3507,M,0.0000,M,0.0000,0
$GPRMC,205122.44,A,3726.1630480,N,12214.5277580,W,11.7421,240.2996,190721,,,,
$GPGGA,205123.44,3726.1606360,N,12214.5340160,W,1,0,0.0,50.7260,M,0.0000,M,0.0000,0
$GPRMC,205123.44,A,3726.1606360,N,12214.5340160,W,8.8322,246.4947,190721,,,,
$GPGGA,205124.44,3726.1593700,N,12214.5387800,W,1,0,0.0,51.0119,M,0.0000,M,0.0000,0
$GPRMC,205124.44,A,3726.1593700,N,12214.5387800,W,6.0791,253.3675,190721,,,,
$GPGGA,205125.44,3726.1588360,N,12214.5419720,W,1,0,0.0,51.1950,M,0.0000,M,0.0000,0
$GPRMC,205125.44,A,3726.1588360,N,12214.5419720,W,3.5774,258.5536,190721,,,,
$GPGGA,205126.44,3726.1586500,N,12214.5437060,W,1,0,0.0,51.2794,M,0.0000,M,0.0000,0
$GPRMC,205126.44,A,3726.1586500,N,12214.5437060,W,1.9440,261.2777,190721,,,,
$GPGGA,205127.44,3726.1585360,N,12214.5450680,W,1,0,0.0,51.3276,M,0.0000,M,0.0000,0
$GPRMC,205127.44,A,3726.1585360,N,12214.5450680,W,2.3202,263.2644,190721,,,,
$GPGGA,205128.44,3726.1584340,N,12214.5474200,W,1,0,0.0,51.4087,M,0.0000,M,0.0000,0
$GPRMC,205128.44,A,3726.1584340,N,12214.5474200,W,4.7780,266.5687,190721,,,,
$GPGGA,205129.44,3726.1585000,N,12214.5514340,W,1,0,0.0,51.5745,M,0.0000,M,0.0000,0
$GPRMC,205129.44,A,3726.1585000,N,12214.5514340,W,6.9328,272.0273,190721,,,,
$GPGGA,205130.44,3726.1590400,N,12214.5565040,W,1,0,0.0,51.8895,M,0.0000,M,0.0000,0
$GPRMC,205130.44,A,3726.1590400,N,12214.5565040,W,8.0441,279.2560,190721,,,,
$GPGGA,205131.44,3726.1601800,N,12214.5620780,W,1,0,0.0,52.3051,M,0.0000,M,0.0000,0
$GPRMC,205131.44,A,3726.1601800,N,12214.5620780,W,9.0387,285.8092,190721,,,,
$GPGGA,205132.44,3726.1618300,N,12214.5682520,W,1,0,0.0,52.6825,M,0.0000,M,0.0000,0
$GPRMC,205132.44,A,3726.1618300,N,12214.5682520,W,10.1015,289.0567,190721,,,,
$GPGGA,205133.44,3726.1638460,N,12214.5749660,W,1,0,0.0,53.2088,M,0.0000,M,0.0000,0
$GPRMC,205133.44,A,3726.1638460,N,12214.5749660,W,11.0388,291.4423,190721,,,,
$GPGGA,205134.44,3726.1662340,N,12214.5820520,W,1,0,0.0,53.7833,M,0.0000,M,0.0000,0
$GPRMC,205134.44,A,3726.1662340,N,12214.5820520,W,11.6251,293.4653,190721,,,,
$GPGGA,205135.44,3726.1688980,N,12214.5893420,W,1,0,0.0,54.4196,M,0.0000,M,0.0000,0
$GPRMC,205135.44,A,3726.1688980,N,12214.5893420,W,11.9616,295.1207,190721,,,,
$GPGGA,205136.44,3726.1716880,N,12214.5965360,W,1,0,0.0,55.1224,M,0.0000,M,0.0000,0
$GPRMC,205136.44,A,3726.1716880,N,12214.5965360,W,11.5535,296.0218,190721,,,,
$GPGGA,205137.44,3726.1743760,N,12214.6033460,W,1,0,0.0,55.7668,M,0.0000,M,0.0000,0
$GPRMC,205137.44,A,3726.1743760,N,12214.6033460,W,10.9492,296.2701,190721,,,,
$GPGGA,205138.44,3726.1770100,N,12214.6099700,W,1,0,0.0,56.3921,M,0.0000,M,0.0000,0
$GPRMC,205138.44,A,3726.1770100,N,12214.6099700,W,10.9442,296.5441,190721,,,,
$GPGGA,205139.44,3726.1797400,N,12214.6166540,W,1,0,0.0,56.9979,M,0.0000,M,0.0000,0
$GPRMC,205139.44,A,3726.1797400,N,12214.6166540,W,11.2881,297.2061,190721,,,,
$GPGGA,205140.44,3726.1827040,N,12214.6236080,W,1,0,0.0,57.6912,M,0.0000,M,0.0000,0
$GPRMC,205140.44,A,3726.1827040,N,12214.6236080,W,11.9490,298.4836,190721,,,,
$GPGGA,205141.44,3726.1859200,N,12214.6307180,W,1,0,0.0,58.4074,M,0.0000,M,0.0000,0
$GPRMC,205141.44,A,3726.1859200,N,12214.6307180,W,12.1639,300.0356,190721,,,,
$GPGGA,205142.44,3726.1894000,N,12214.6378040,W,1,0,0.0,59.1467,M,0.0000,M,0.0000,0
$GPRMC,205142.44,A,3726.1894000,N,12214.6378040,W,12.4092,302.4673,190721,,,,
$GPGGA,205143.44,3726.1932400,N,12214.6448240,W,1,0,0.0,59.8596,M,0.0000,M,0.0000,0
$GPRMC,205143.44,A,3726.1932400,N,12214.6448240,W,12.7005,305.4117,190721,,,,
$GPGGA,205144.44,3726.1974160,N,12214.6517900,W,1,0,0.0,60.6162,M,0.0000,M,0.0000,0
$GPRMC,205144.44,A,3726.1974160,N,12214.6517900,W,12.9999,307.4760,190721,,,,
$GPGGA,205145.44,3726.2018800,N,12214.6587200,W,1,0,0.0,61.4123,M,0.0000,M,0.0000,0
$GPRMC,205145.44,A,3726.2018800,N,12214.6587200,W,13.2817,309.7394,190721,,,,
$GPGGA,205146.44,3726.2066500,N,12214.6655600,W,1,0,0.0,62.2490,M,0.0000,M,0.0000,0
$GPRMC,205146.44,A,3726.2066500,N,12214.6655600,W,13.5424,311.7494,190721,,,,
$GPGGA,205147.44,3726.2116360,N,12214.6724240,W,1,0,0.0,63.0945,M,0.0000,M,0.0000,0
$GPRMC,205147.44,A,3726.2116360,N,12214.6724240,W,13.8204,312.4662,190721,,,,
$GPGGA,205148.44,3726.2167420,N,12214.6793540,W,1,0,0.0,63.9472,M,0.0000,M,0.0000,0
$GPRMC,205148.44,A,3726.2167420,N,12214.6793540,W,14.0074,312.6273,190721,,,,
$GPGGA,205149.44,3726.2219200,N,12214.6864340,W,1,0,0.0,64.7257,M,0.0000,M,0.0000,0
$GPRMC,205149.44,A,3726.2219200,N,12214.6864340,W,14.3414,312.2492,190721,,,,
$GPGGA,205150.44,3726.2272000,N,12214.6937360,W,1,0,0.0,65.4709,M,0.0000,M,0.0000,0
$GPRMC,205150.44,A,3726.2272000,N,12214.6937360,W,14.7666,312.1512,190721,,,,
$GPGGA,205151.44,3726.2326660,N,12214.7012540,W,1,0,0.0,66.1567,M,0.0000,M,0.0000,0
$GPRMC,205151.44,A,3726.2326660,N,12214.7012540,W,15.2373,312.4207,190721,,,,
$GPGGA,205152.44,3726.2383540,N,12214.7089820,W,1,0,0.0,66.8336,M,0.0000,M,0.0000,0
$GPRMC,205152.44,A,3726.2383540,N,12214.7089820,W,15.8285,312.7838,190721,,,,
$GPGGA,205153.44,3726.2442940,N,12214.7170160,W,1,0,0.0,67.5158,M,0.0000,M,0.0000,0
$GPRMC,205153.44,A,3726.2442940,N,12214.7170160,W,16.4781,312.7130,190721,,,,
$GPGGA,205154.44,3726.2504920,N,12214.7253560,W,1,0,0.0,68.2004,M,0.0000,M,0.0000,0
$GPRMC,205154.44,A,3726.2504920,N,12214.7253560,W,17.1341,313.2071,190721,,,,
$GPGGA,205155.44,3726.2569720,N,12214.7339000,W,1,0,0.0,68.9122,M,0.0000,M,0.0000,0
$GPRMC,205155.44,A,3726.2569720,N,12214.7339000,W,17.5330,313.6690,190721,,,,
$GPGGA,205156.44,3726.2635780,N,12214.7424380,W,1,0,0.0,69.6318,M,0.0000,M,0.0000,0
$GPRMC,205156.44,A,3726.2635780,N,12214.7424380,W,17.5518,314.2255,190721,,,,
$GPGGA,205157.44,3726.2702140,N,12214.7509220,W,1,0,0.0,70.3877,M,0.0000,M,0.0000,0
$GPRMC,205157.44,A,3726.2702140,N,12214.7509220,W,17.4946,314.1887,190721,,,,
$GPGGA,205158.44,3726.2767120,N,12214.7595200,W,1,0,0.0,71.1703,M,0.0000,M,0.0000,0
$GPRMC,205158.44,A,3726.2767120,N,12214.7595200,W,17.5581,312.7086,190721,,,,
$GPGGA,205159.44,3726.2831800,N,12214.7684360,W,1,0,0.0,71.8915,M,0.0000,M,0.0000,0
$GPRMC,205159.44,A,3726.2831800,N,12214.7684360,W,17.9685,312.0445,190721,,,,
$GPGGA,205200.44,3726.2898820,N,12214.7776340,W,1,0,0.0,72.6792,M,0.0000,M,0.0000,0
$GPRMC,205200.44,A,3726.2898820,N,12214.7776340,W,18.7837,312.7142,190721,,,,
$GPGGA,205201.44,3726.2969440,N,12214.7869580,W,1,0,0.0,73.4642,M,0.0000,M,0.0000,0
$GPRMC,205201.44,A,3726.2969440,N,12214.7869580,W,19.1853,313.9063,190721,,,,
$GPGGA,205202.44,3726.3043300,N,12214.7963720,W,1,0,0.0,74.3038,M,0.0000,M,0.0000,0
$GPRMC,205202.44,A,3726.3043300,N,12214.7963720,W,19.6006,314.8687,190721,,,,
$GPGGA,205203.44,3726.3118480,N,12214.8056480,W,1,0,0.0,75.1077,M,0.0000,M,0.0000,0
$GPRMC,205203.44,A,3726.3118480,N,12214.8056480,W,19.4233,315.6707,190721,,,,
$GPGGA,205204.44,3726.3193840,N,12214.8148040,W,1,0,0.0,75.8429,M,0.0000,M,0.0000,0
$GPRMC,205204.44,A,3726.3193840,N,12214.8148040,W,19.3830,315.8941,190721,,,,
$GPGGA,205205.44,3726.3268540,N,12214.8238880,W,1,0,0.0,76.6219,M,0.0000,M,0.0000,0
$GPRMC,205205.44,A,3726.3268540,N,12214.8238880,W,19.0662,315.6835,190721,,,,
$GPGGA,205206.44,3726.3341860,N,12214.8329300,W,1,0,0.0,77.3821,M,0.0000,M,0.0000,0
$GPRMC,205206.44,A,3726.3341860,N,12214.8329300,W,19.0438,315.1325,190721,,,,
$GPGGA,205207.44,3726.3414880,N,12214.8420860,W,1,0,0.0,78.1475,M,0.0000,M,0.0000,0
$GPRMC,205207.44,A,3726.3414880,N,12214.8420860,W,19.1962,314.8319,190721,,,,
$GPGGA,205208.44,3726.3488800,N,12214.8513980,W,1,0,0.0,78.9214,M,0.0000,M,0.0000,0
$GPRMC,205208.44,A,3726.3488800,N,12214.8513980,W,19.5898,314.6708,190721,,,,
$GPGGA,205209.44,3726.3564220,N,12214.8609620,W,1,0,0.0,79.7146,M,0.0000,M,0.0000,0
$GPRMC,205209.44,A,3726.3564220,N,12214.8609620,W,20.0751,314.5758,190721,,,,
$GPGGA,205210.44,3726.3640900,N,12214.8707120,W,1,0,0.0,80.5228,M,0.0000,M,0.0000,0
$GPRMC,205210.44,A,3726.3640900,N,12214.8707120,W,20.3593,314.4767,190721,,,,
$GPGGA,205211.44,3726.3718660,N,12214.8806060,W,1,0,0.0,81.3402,M,0.0000,M,0.0000,0
$GPRMC,205211.44,A,3726.3718660,N,12214.8806060,W,20.5643,314.5073,190721,,,,
$GPGGA,205212.44,3726.3796840,N,12214.8905360,W,1,0,0.0,82.1598,M,0.0000,M,0.0000,0
$GPRMC,205212.44,A,3726.3796840,N,12214.8905360,W,20.5901,314.6011,190721,,,,
$GPGGA,205213.44,3726.3875260,N,12214.9004780,W,1,0,0.0,82.9750,M,0.0000,M,0.0000,0
$GPRMC,205213.44,A,3726.3875260,N,12214.9004780,W,20.6850,314.4987,190721,,,,
$GPGGA,205214.44,3726.3953680,N,12214.9105520,W,1,0,0.0,83.7992,M,0.0000,M,0.0000,0
$GPRMC,205214.44,A,3726.3953680,N,12214.9105520,W,20.8342,314.0536,190721,,,,
$GPGGA,205215.44,3726.4032220,N,12214.9207160,W,1,0,0.0,84.6628,M,0.0000,M,0.0000,0
$GPRMC,205215.44,A,3726.4032220,N,12214.9207160,W,20.9081,313.9482,190721,,,,
$GPGGA,205216.44,3726.4110760,N,12214.9309340,W,1,0,0.0,85.5212,M,0.0000,M,0.0000,0
$GPRMC,205216.44,A,3726.4110760,N,12214.9309340,W,21.0012,313.7807,190721,,,,
$GPGGA,205217.44,3726.4189600,N,12214.9412720,W,1,0,0.0,86.3969,M,0.0000,M,0.0000,0
$GPRMC,205217.44,A,3726.4189600,N,12214.9412720,W,21.1589,313.5323,190721,,,,
$GPGGA,205218.44,3726.4268560,N,12214.9516640,W,1,0,0.0,87.2366,M,0.0000,M,0.0000,0
$GPRMC,205218.44,A,3726.4268560,N,12214.9516640,W,21.1642,313.5536,190721,,,,
$GPGGA,205219.44,3726.4347520,N,12214.9620260,W,1,0,0.0,88.1014,M,0.0000,M,0.0000,0
$GPRMC,205219.44,A,3726.4347520,N,12214.9620260,W,21.1236,313.7195,190721,,,,
$GPGGA,205220.44,3726.4426600,N,12214.9723580,W,1,0,0.0,88.9352,M,0.0000,M,0.0000,0
$GPRMC,205220.44,A,3726.4426600,N,12214.9723580,W,21.1255,313.7934,190721,,,,
$GPGGA,205221.44,3726.4505980,N,12214.9826960,W,1,0,0.0,89.7601,M,0.0000,M,0.0000,0
$GPRMC,205221.44,A,3726.4505980,N,12214.9826960,W,21.2456,313.8737,190721,,,,
$GPGGA,205222.44,3726.4586260,N,12214.9931000,W,1,0,0.0,90.6084,M,0.0000,M,0.0000,0
$GPRMC,205222.44,A,3726.4586260,N,12214.9931000,W,21.4621,314.0578,190721,,,,
$GPGGA,205223.44,3726.4667440,N,12215.0036000,W,1,0,0.0,91.4606,M,0.0000,M,0.0000,0
$GPRMC,205223.44,A,3726.4667440,N,12215.0036000,W,21.6936,313.9301,190721,,,,
$GPGGA,205224.44,3726.4749400,N,12215.0142440,W,1,0,0.0,92.3143,M,0.0000,M,0.0000,0
$GPRMC,205224.44,A,3726.4749400,N,12215.0142440,W,21.9424,313.9558,190721,,,,
$GPGGA,205225.44,3726.4832320,N,12215.0250020,W,1,0,0.0,93.2157,M,0.0000,M,0.0000,0
$GPRMC,205225.44,A,3726.4832320,N,12215.0250020,W,22.1727,313.8844,190721,,,,
$GPGGA,205226.44,3726.4915720,N,12215.0358800,W,1,0,0.0,94.2090,M,0.0000,M,0.0000,0
$GPRMC,205226.44,A,3726.4915720,N,12215.0358800,W,22.3660,313.7897,190721,,,,
$GPGGA,205227.44,3726.4999840,N,12215.0468660,W,1,0,0.0,95.2288,M,0.0000,M,0.0000,0
$GPRMC,205227.44,A,3726.4999840,N,12215.0468660,W,22.5483,313.7374,190721,,,,
$GPGGA,205228.44,3726.5084500,N,12215.0579600,W,1,0,0.0,96.2581,M,0.0000,M,0.0000,0
$GPRMC,205228.44,A,3726.5084500,N,12215.0579600,W,22.7354,313.7618,190721,,,,
$GPGGA,205229.44,3726.5169760,N,12215.0691080,W,1,0,0.0,97.3189,M,0.0000,M,0.0000,0
$GPRMC,205229.44,A,3726.5169760,N,12215.0691080,W,22.8173,313.7464,190721,,,,
$GPGGA,205230.44,3726.5254600,N,12215.0803100,W,1,0,0.0,98.3286,M,0.0000,M,0.0000,0
$GPRMC,205230.44,A,3726.5254600,N,12215.0803100,W,22.7247,313.2237,190721,,,,
$GPGGA,205231.44,3726.5337580,N,12215.0916380,W,1,0,0.0,99.3080,M,0.0000,M,0.0000,0
$GPRMC,205231.44,A,3726.5337580,N,12215.0916380,W,22.6506,311.8860,190721,,,,
$GPGGA,205232.44,3726.5417980,N,12215.1032000,W,1,0,0.0,100.2035,M,0.0000,M,0.0000,0
$GPRMC,205232.44,A,3726.5417980,N,12215.1032000,W,22.6149,310.3163,190721,,,,
$GPGGA,205233.44,3726.5495800,N,12215.1150080,W,1,0,0.0,101.1179,M,0.0000,M,0.0000,0
$GPRMC,205233.44,A,3726.5495800,N,12215.1150080,W,22.5762,308.9968,190721,,,,
$GPGGA,205234.44,3726.5571160,N,12215.1270140,W,1,0,0.0,102.0109,M,0.0000,M,0.0000,0
$GPRMC,205234.44,A,3726.5571160,N,12215.1270140,W,22.4961,307.4114,190721,,,,
$GPGGA,205235.44,3726.5643580,N,12215.1392420,W,1,0,0.0,102.8962,M,0.0000,M,0.0000,0
$GPRMC,205235.44,A,3726.5643580,N,12215.1392420,W,22.4471,305.8535,190721,,,,
$GPGGA,205236.44,3726.5713180,N,12215.1516860,W,1,0,0.0,103.7792,M,0.0000,M,0.0000,0
$GPRMC,205236.44,A,3726.5713180,N,12215.1516860,W,22.3913,304.3162,190721,,,,
$GPGGA,205237.44,3726.5780080,N,12215.1643220,W,1,0,0.0,104.6507,M,0.0000,M,0.0000,0
$GPRMC,205237.44,A,3726.5780080,N,12215.1643220,W,22.3490,302.8805,190721,,,,
$GPGGA,205238.44,3726.5844280,N,12215.1771380,W,1,0,0.0,105.5208,M,0.0000,M,0.0000,0
$GPRMC,205238.44,A,3726.5844280,N,12215.1771380,W,22.3001,301.4779,190721,,,,
$GPGGA,205239.44,3726.5905900,N,12215.1901160,W,1,0,0.0,106.4002,M,0.0000,M,0.0000,0
$GPRMC,205239.44,A,3726.5905900,N,12215.1901160,W,22.2559,300.1422,190721,,,,
$GPGGA,205240.44,3726.5965360,N,12215.2032320,W,1,0,0.0,107.2652,M,0.0000,M,0.0000,0
$GPRMC,205240.44,A,3726.5965360,N,12215.2032320,W,22.2590,299.0630,190721,,,,
$GPGGA,205241.44,3726.6022540,N,12215.2165160,W,1,0,0.0,108.1334,M,0.0000,M,0.0000,0
$GPRMC,205241.44,A,3726.6022540,N,12215.2165160,W,22.2673,297.7686,190721,,,,
$GPGGA,205242.44,3726.6077320,N,12215.2299620,W,1,0,0.0,109.0188,M,0.0000,M,0.0000,0
$GPRMC,205242.44,A,3726.6077320,N,12215.2299620,W,22.2738,296.3487,190721,,,,
$GPGGA,205243.44,3726.6129280,N,12215.2435760,W,1,0,0.0,109.9142,M,0.0000,M,0.0000,0
$GPRMC,205243.44,A,3726.6129280,N,12215.2435760,W,22.2356,294.9223,190721,,,,
$GPGGA,205244.44,3726.6178480,N,12215.2572860,W,1,0,0.0,110.7946,M,0.0000,M,0.0000,0
$GPRMC,205244.44,A,3726.6178480,N,12215.2572860,W,22.1216,293.5593,190721,,,,
$GPGGA,205245.44,3726.6224740,N,12215.2710800,W,1,0,0.0,111.6570,M,0.0000,M,0.0000,0
$GPRMC,205245.44,A,3726.6224740,N,12215.2710800,W,22.0168,292.0969,190721,,,,
$GPGGA,205246.44,3726.6267940,N,12215.2849760,W,1,0,0.0,112.5168,M,0.0000,M,0.0000,0
$GPRMC,205246.44,A,3726.6267940,N,12215.2849760,W,22.0426,290.6479,190721,,,,
$GPGGA,205247.44,3726.6308380,N,12215.2989800,W,1,0,0.0,113.3746,M,0.0000,M,0.0000,0
$GPRMC,205247.44,A,3726.6308380,N,12215.2989800,W,21.7678,289.3161,190721,,,,
$GPGGA,205248.44,3726.6345940,N,12215.3128460,W,1,0,0.0,114.2228,M,0.0000,M,0.0000,0
$GPRMC,205248.44,A,3726.6345940,N,12215.3128460,W,21.5315,288.2047,190721,,,,
$GPGGA,205249.44,3726.6381100,N,12215.3267720,W,1,0,0.0,115.0998,M,0.0000,M,0.0000,0
$GPRMC,205249.44,A,3726.6381100,N,12215.3267720,W,21.5455,287.0356,190721,,,,
$GPGGA,205250.44,3726.6413860,N,12215.3407700,W,1,0,0.0,115.9256,M,0.0000,M,0.0000,0
$GPRMC,205250.44,A,3726.6413860,N,12215.3407700,W,21.4677,285.7109,190721,,,,
$GPGGA,205251.44,3726.6443800,N,12215.3548040,W,1,0,0.0,116.7688,M,0.0000,M,0.0000,0
$GPRMC,205251.44,A,3726.6443800,N,12215.3548040,W,21.3735,284.3016,190721,,,,
$GPGGA,205252.44,3726.6470860,N,12215.3688620,W,1,0,0.0,117.6011,M,0.0000,M,0.0000,0
$GPRMC,205252.44,A,3726.6470860,N,12215.3688620,W,21.2882,282.9143,190721,,,,
$GPGGA,205253.44,3726.6495040,N,12215.3829380,W,1,0,0.0,118.4081,M,0.0000,M,0.0000,0
$GPRMC,205253.44,A,3726.6495040,N,12215.3829380,W,21.2056,281.5205,190721,,,,
$GPGGA,205254.44,3726.6516520,N,12215.3970380,W,1,0,0.0,119.1613,M,0.0000,M,0.0000,0
$GPRMC,205254.44,A,3726.6516520,N,12215.3970380,W,21.1309,280.2928,190721,,,,
$GPGGA,205255.44,3726.6535660,N,12215.4111440,W,1,0,0.0,119.8726,M,0.0000,M,0.0000,0
$GPRMC,205255.44,A,3726.6535660,N,12215.4111440,W,21.0750,279.1603,190721,,,,
$GPGGA,205256.44,3726.6552640,N,12215.4252680,W,1,0,0.0,120.5472,M,0.0000,M,0.0000,0
$GPRMC,205256.44,A,3726.6552640,N,12215.4252680,W,21.0778,278.0202,190721,,,,
$GPGGA,205257.44,3726.6567100,N,12215.4394460,W,1,0,0.0,121.1956,M,0.0000,M,0.0000,0
$GPRMC,205257.44,A,3726.6567100,N,12215.4394460,W,21.0798,276.6046,190721,,,,
$GPGGA,205258.44,3726.6578680,N,12215.4536600,W,1,0,0.0,121.8257,M,0.0000,M,0.0000,0
$GPRMC,205258.44,A,3726.6578680,N,12215.4536600,W,21.0733,275.2136,190721,,,,
$GPGGA,205259.44,3726.6587440,N,12215.4679100,W,1,0,0.0,122.4247,M,0.0000,M,0.0000,0
$GPRMC,205259.44,A,3726.6587440,N,12215.4679100,W,21.0943,273.7587,190721,,,,
$GPGGA,205300.44,3726.6593440,N,12215.4822140,W,1,0,0.0,122.9534,M,0.0000,M,0.0000,0
$GPRMC,205300.44,A,3726.6593440,N,12215.4822140,W,21.1525,272.3949,190721,,,,
$GPGGA,205301.44,3726.6596860,N,12215.4965660,W,1,0,0.0,123.4672,M,0.0000,M,0.0000,0
$GPRMC,205301.44,A,3726.6596860,N,12215.4965660,W,21.2189,271.1431,190721,,,,
$GPGGA,205302.44,3726.6597760,N,12215.5109780,W,1,0,0.0,123.9529,M,0.0000,M,0.0000,0
$GPRMC,205302.44,A,3726.6597760,N,12215.5109780,W,21.3002,269.7913,190721,,,,
$GPGGA,205303.44,3726.6595780,N,12215.5254680,W,1,0,0.0,124.3989,M,0.0000,M,0.0000,0
$GPRMC,205303.44,A,3726.6595780,N,12215.5254680,W,21.4566,268.3205,190721,,,,
$GPGGA,205304.44,3726.6591040,N,12215.5400660,W,1,0,0.0,124.7720,M,0.0000,M,0.0000,0
$GPRMC,205304.44,A,3726.6591040,N,12215.5400660,W,21.6364,267.1064,190721,,,,
$GPGGA,205305.44,3726.6583900,N,12215.5547900,W,1,0,0.0,125.0849,M,0.0000,M,0.0000,0
$GPRMC,205305.44,A,3726.6583900,N,12215.5547900,W,21.8694,265.9935,190721,,,,
$GPGGA,205306.44,3726.6574540,N,12215.5696520,W,1,0,0.0,125.3367,M,0.0000,M,0.0000,0
$GPRMC,205306.44,A,3726.6574540,N,12215.5696520,W,22.1303,264.9746,190721,,,,
$GPGGA,205307.44,3726.6563140,N,12215.5847420,W,1,0,0.0,125.5582,M,0.0000,M,0.0000,0
$GPRMC,205307.44,A,3726.6563140,N,12215.5847420,W,22.5851,264.2151,190721,,,,
$GPGGA,205308.44,3726.6550960,N,12215.6000780,W,1,0,0.0,125.7372,M,0.0000,M,0.0000,0
$GPRMC,205308.44,A,3726.6550960,N,12215.6000780,W,22.8581,264.3293,190721,,,,
$GPGGA,205309.44,3726.6538840,N,12215.6155760,W,1,0,0.0,125.8771,M,0.0000,M,0.0000,0
$GPRMC,205309.44,A,3726.6538840,N,12215.6155760,W,23.0867,264.3394,190721,,,,
$GPGGA,205310.44,3726.6526600,N,12215.6312480,W,1,0,0.0,125.9699,M,0.0000,M,0.0000,0
$GPRMC,205310.44,A,3726.6526600,N,12215.6312480,W,23.4111,264.2821,190721,,,,
$GPGGA,205311.44,3726.6513820,N,12215.6472020,W,1,0,0.0,126.0697,M,0.0000,M,0.0000,0
$GPRMC,205311.44,A,3726.6513820,N,12215.6472020,W,23.7796,264.0868,190721,,,,
$GPGGA,205312.44,3726.6500860,N,12215.6631620,W,1,0,0.0,126.2012,M,0.0000,M,0.0000,0
$GPRMC,205312.44,A,3726.6500860,N,12215.6631620,W,23.5256,264.0743,190721,,,,
$GPGGA,205313.44,3726.6487900,N,12215.6789120,W,1,0,0.0,126.3740,M,0.0000,M,0.0000,0
$GPRMC,205313.44,A,3726.6487900,N,12215.6789120,W,23.1647,263.9469,190721,,,,
$GPGGA,205314.44,3726.6474820,N,12215.6944040,W,1,0,0.0,126.5492,M,0.0000,M,0.0000,0
$GPRMC,205314.44,A,3726.6474820,N,12215.6944040,W,22.7916,263.8704,190721,,,,
$GPGGA,205315.44,3726.6462100,N,12215.7096500,W,1,0,0.0,126.6933,M,0.0000,M,0.0000,0
$GPRMC,205315.44,A,3726.6462100,N,12215.7096500,W,22.4265,264.0446,190721,,,,
$GPGGA,205316.44,3726.6450100,N,12215.7246560,W,1,0,0.0,126.8242,M,0.0000,M,0.0000,0
$GPRMC,205316.44,A,3726.6450100,N,12215.7246560,W,22.0676,264.2966,190721,,,,
$GPGGA,205317.44,3726.6438520,N,12215.7394280,W,1,0,0.0,126.9531,M,0.0000,M,0.0000,0
$GPRMC,205317.44,A,3726.6438520,N,12215.7394280,W,21.7129,264.2697,190721,,,,
$GPGGA,205318.44,3726.6427120,N,12215.7539660,W,1,0,0.0,127.0757,M,0.0000,M,0.0000,0
$GPRMC,205318.44,A,3726.6427120,N,12215.7539660,W,21.3700,264.3818,190721,,,,
$GPGGA,205319.44,3726.6416320,N,12215.7682760,W,1,0,0.0,127.1397,M,0.0000,M,0.0000,0
$GPRMC,205319.44,A,3726.6416320,N,12215.7682760,W,21.0430,264.6002,190721,,,,
$GPGGA,205320.44,3726.6406120,N,12215.7823760,W,1,0,0.0,127.2092,M,0.0000,M,0.0000,0
$GPRMC,205320.44,A,3726.6406120,N,12215.7823760,W,20.7215,264.7234,190721,,,,
$GPGGA,205321.44,3726.6396040,N,12215.7962600,W,1,0,0.0,127.3279,M,0.0000,M,0.0000,0
$GPRMC,205321.44,A,3726.6396040,N,12215.7962600,W,20.3921,264.6740,190721,,,,
$GPGGA,205322.44,3726.6385780,N,12215.8099220,W,1,0,0.0,127.4045,M,0.0000,M,0.0000,0
$GPRMC,205322.44,A,3726.6385780,N,12215.8099220,W,20.1120,264.4080,190721,,,,
$GPGGA,205323.44,3726.6375220,N,12215.8233980,W,1,0,0.0,127.4760,M,0.0000,M,0.0000,0
$GPRMC,205323.44,A,3726.6375220,N,12215.8233980,W,19.7896,264.3452,190721,,,,
$GPGGA,205324.44,3726.6365380,N,12215.8367420,W,1,0,0.0,127.5192,M,0.0000,M,0.0000,0
$GPRMC,205324.44,A,3726.6365380,N,12215.8367420,W,19.8346,264.8095,190721,,,,
$GPGGA,205325.44,3726.6356800,N,12215.8503020,W,1,0,0.0,127.5556,M,0.0000,M,0.0000,0
$GPRMC,205325.44,A,3726.6356800,N,12215.8503020,W,20.2771,265.8655,190721,,,,
$GPGGA,205326.44,3726.6350620,N,12215.8641740,W,1,0,0.0,127.5458,M,0.0000,M,0.0000,0
$GPRMC,205326.44,A,3726.6350620,N,12215.8641740,W,20.7236,267.4990,190721,,,,
$GPGGA,205327.44,3726.6347680,N,12215.8783520,W,1,0,0.0,127.5176,M,0.0000,M,0.0000,0
$GPRMC,205327.44,A,3726.6347680,N,12215.8783520,W,21.0983,268.9281,190721,,,,
$GPGGA,205328.44,3726.6346960,N,12215.8926680,W,1,0,0.0,127.4693,M,0.0000,M,0.0000,0
$GPRMC,205328.44,A,3726.6346960,N,12215.8926680,W,21.1605,270.0885,190721,,,,
$GPGGA,205329.44,3726.6348700,N,12215.9071400,W,1,0,0.0,127.4041,M,0.0000,M,0.0000,0
$GPRMC,205329.44,A,3726.6348700,N,12215.9071400,W,21.5539,271.1935,190721,,,,
$GPGGA,205330.44,3726.6352540,N,12215.9218940,W,1,0,0.0,127.3070,M,0.0000,M,0.0000,0
$GPRMC,205330.44,A,3726.6352540,N,12215.9218940,W,21.9932,272.3057,190721,,,,
$GPGGA,205331.44,3726.6359020,N,12215.9369300,W,1,0,0.0,127.1816,M,0.0000,M,0.0000,0
$GPRMC,205331.44,A,3726.6359020,N,12215.9369300,W,22.4129,273.5744,190721,,,,
$GPGGA,205332.44,3726.6368560,N,12215.9522180,W,1,0,0.0,127.0214,M,0.0000,M,0.0000,0
$GPRMC,205332.44,A,3726.6368560,N,12215.9522180,W,22.8284,275.0518,190721,,,,
$GPGGA,205333.44,3726.6381340,N,12215.9677520,W,1,0,0.0,126.8055,M,0.0000,M,0.0000,0
$GPRMC,205333.44,A,3726.6381340,N,12215.9677520,W,23.2647,276.4102,190721,,,,
$GPGGA,205334.44,3726.6397420,N,12215.9835620,W,1,0,0.0,126.5582,M,0.0000,M,0.0000,0
$GPRMC,205334.44,A,3726.6397420,N,12215.9835620,W,23.7249,277.7980,190721,,,,
$GPGGA,205335.44,3726.6416620,N,12215.9996660,W,1,0,0.0,126.2606,M,0.0000,M,0.0000,0
$GPRMC,205335.44,A,3726.6416620,N,12215.9996660,W,24.3500,278.8994,190721,,,,
$GPGGA,205336.44,3726.6438820,N,12216.0161300,W,1,0,0.0,125.9286,M,0.0000,M,0.0000,0
$GPRMC,205336.44,A,3726.6438820,N,12216.0161300,W,24.8955,280.0612,190721,,,,
$GPGGA,205337.44,3726.6464380,N,12216.0328580,W,1,0,0.0,125.5944,M,0.0000,M,0.0000,0
$GPRMC,205337.44,A,3726.6464380,N,12216.0328580,W,25.3518,281.4233,190721,,,,
$GPGGA,205338.44,3726.6493960,N,12216.0497840,W,1,0,0.0,125.2225,M,0.0000,M,0.0000,0
$GPRMC,205338.44,A,3726.6493960,N,12216.0497840,W,25.7246,283.0724,190721,,,,
$GPGGA,205339.44,3726.6528040,N,12216.0667400,W,1,0,0.0,124.8642,M,0.0000,M,0.0000,0
$GPRMC,205339.44,A,3726.6528040,N,12216.0667400,W,25.7812,284.9282,190721,,,,
$GPGGA,205340.44,3726.6565900,N,12216.0835100,W,1,0,0.0,124.5057,M,0.0000,M,0.0000,0
$GPRMC,205340.44,A,3726.6565900,N,12216.0835100,W,25.6101,286.4716,190721,,,,
$GPGGA,205341.44,3726.6607060,N,12216.1000280,W,1,0,0.0,124.1166,M,0.0000,M,0.0000,0
$GPRMC,205341.44,A,3726.6607060,N,12216.1000280,W,25.4268,287.9725,190721,,,,
$GPGGA,205342.44,3726.6651400,N,12216.1162700,W,1,0,0.0,123.7528,M,0.0000,M,0.0000,0
$GPRMC,205342.44,A,3726.6651400,N,12216.1162700,W,25.2386,289.5044,190721,,,,
$GPGGA,205343.44,3726.6698560,N,12216.1322540,W,1,0,0.0,123.3892,M,0.0000,M,0.0000,0
$GPRMC,205343.44,A,3726.6698560,N,12216.1322540,W,25.0470,290.9355,190721,,,,
$GPGGA,205344.44,3726.6748780,N,12216.1479920,W,1,0,0.0,123.0112,M,0.0000,M,0.0000,0
$GPRMC,205344.44,A,3726.6748780,N,12216.1479920,W,25.0198,292.4318,190721,,,,
$GPGGA,205345.44,3726.6802420,N,12216.1636700,W,1,0,0.0,122.5707,M,0.0000,M,0.0000,0
$GPRMC,205345.44,A,3726.6802420,N,12216.1636700,W,25.3180,293.7210,190721,,,,
$GPGGA,205346.44,3726.6859120,N,12216.1793960,W,1,0,0.0,122.1950,M,0.0000,M,0.0000,0
$GPRMC,205346.44,A,3726.6859120,N,12216.1793960,W,25.5399,294.7302,190721,,,,
$GPGGA,205347.44,3726.6918700,N,12216.1950560,W,1,0,0.0,121.8374,M,0.0000,M,0.0000,0
$GPRMC,205347.44,A,3726.6918700,N,12216.1950560,W,25.6802,295.9658,190721,,,,
$GPGGA,205348.44,3726.6981640,N,12216.2106620,W,1,0,0.0,121.5264,M,0.0000,M,0.0000,0
$GPRMC,205348.44,A,3726.6981640,N,12216.2106620,W,25.8754,297.3561,190721,,,,
$GPGGA,205349.44,3726.7047940,N,12216.2261900,W,1,0,0.0,121.1982,M,0.0000,M,0.0000,0
$GPRMC,205349.44,A,3726.7047940,N,12216.2261900,W,26.0838,298.7680,190721,,,,
$GPGGA,205350.44,3726.7118200,N,12216.2415920,W,1,0,0.0,120.9092,M,0.0000,M,0.0000,0
$GPRMC,205350.44,A,3726.7118200,N,12216.2415920,W,26.2394,300.6423,190721,,,,
$GPGGA,205351.44,3726.7192540,N,12216.2568020,W,1,0,0.0,120.6948,M,0.0000,M,0.0000,0
$GPRMC,205351.44,A,3726.7192540,N,12216.2568020,W,26.3821,302.0820,190721,,,,
$GPGGA,205352.44,3726.7270540,N,12216.2718500,W,1,0,0.0,120.5603,M,0.0000,M,0.0000,0
$GPRMC,205352.44,A,3726.7270540,N,12216.2718500,W,26.5335,303.7637,190721,,,,
$GPGGA,205353.44,3726.7352440,N,12216.2866760,W,1,0,0.0,120.4393,M,0.0000,M,0.0000,0
$GPRMC,205353.44,A,3726.7352440,N,12216.2866760,W,26.6673,305.4003,190721,,,,
$GPGGA,205354.44,3726.7438060,N,12216.3012680,W,1,0,0.0,120.4228,M,0.0000,M,0.0000,0
$GPRMC,205354.44,A,3726.7438060,N,12216.3012680,W,26.7652,307.0638,190721,,,,
$GPGGA,205355.44,3726.7526860,N,12216.3156200,W,1,0,0.0,120.4790,M,0.0000,M,0.0000,0
$GPRMC,205355.44,A,3726.7526860,N,12216.3156200,W,26.8346,308.2970,190721,,,,
$GPGGA,205356.44,3726.7618360,N,12216.3297500,W,1,0,0.0,120.6721,M,0.0000,M,0.0000,0
$GPRMC,205356.44,A,3726.7618360,N,12216.3297500,W,26.8496,309.5918,190721,,,,
$GPGGA,205357.44,3726.7712140,N,12216.3436340,W,1,0,0.0,120.9101,M,0.0000,M,0.0000,0
$GPRMC,205357.44,A,3726.7712140,N,12216.3436340,W,26.7997,310.6156,190721,,,,
$GPGGA,205358.44,3726.7807240,N,12216.3573020,W,1,0,0.0,121.2094,M,0.0000,M,0.0000,0
$GPRMC,205358.44,A,3726.7807240,N,12216.3573020,W,26.7349,311.1308,190721,,,,
$GPGGA,205359.44,3726.7902160,N,12216.3709340,W,1,0,0.0,121.5760,M,0.0000,M,0.0000,0
$GPRMC,205359.44,A,3726.7902160,N,12216.3709340,W,26.6669,311.0719,190721,,,,
$GPGGA,205400.44,3726.7996960,N,12216.3845240,W,1,0,0.0,121.9421,M,0.0000,M,0.0000,0
$GPRMC,205400.44,A,3726.7996960,N,12216.3845240,W,26.5937,311.1392,190721,,,,
$GPGGA,205401.44,3726.8091580,N,12216.3980600,W,1,0,0.0,122.3592,M,0.0000,M,0.0000,0
$GPRMC,205401.44,A,3726.8091580,N,12216.3980600,W,26.5120,311.1837,190721,,,,
$GPGGA,205402.44,3726.8186140,N,12216.4115360,W,1,0,0.0,122.8472,M,0.0000,M,0.0000,0
$GPRMC,205402.44,A,3726.8186140,N,12216.4115360,W,26.4008,311.2649,190721,,,,
$GPGGA,205403.44,3726.8279980,N,12216.4249640,W,1,0,0.0,123.3704,M,0.0000,M,0.0000,0
$GPRMC,205403.44,A,3726.8279980,N,12216.4249640,W,26.2686,311.0230,190721,,,,
$GPGGA,205404.44,3726.8372980,N,12216.4383560,W,1,0,0.0,123.9582,M,0.0000,M,0.0000,0
$GPRMC,205404.44,A,3726.8372980,N,12216.4383560,W,26.1315,310.9575,190721,,,,
$GPGGA,205405.44,3726.8465680,N,12216.4516640,W,1,0,0.0,124.6176,M,0.0000,M,0.0000,0
$GPRMC,205405.44,A,3726.8465680,N,12216.4516640,W,25.9936,311.0967,190721,,,,
$GPGGA,205406.44,3726.8557960,N,12216.4648820,W,1,0,0.0,125.3257,M,0.0000,M,0.0000,0
$GPRMC,205406.44,A,3726.8557960,N,12216.4648820,W,25.8507,311.1434,190721,,,,
$GPGGA,205407.44,3726.8649820,N,12216.4780280,W,1,0,0.0,126.0556,M,0.0000,M,0.0000,0
$GPRMC,205407.44,A,3726.8649820,N,12216.4780280,W,25.7162,311.1696,190721,,,,
$GPGGA,205408.44,3726.8741320,N,12216.4911020,W,1,0,0.0,126.7705,M,0.0000,M,0.0000,0
$GPRMC,205408.44,A,3726.8741320,N,12216.4911020,W,25.5926,311.1735,190721,,,,
$GPGGA,205409.44,3726.8832400,N,12216.5041040,W,1,0,0.0,127.5135,M,0.0000,M,0.0000,0
$GPRMC,205409.44,A,3726.8832400,N,12216.5041040,W,25.4315,311.2470,190721,,,,
$GPGGA,205410.44,3726.8923300,N,12216.5170460,W,1,0,0.0,128.2381,M,0.0000,M,0.0000,0
$GPRMC,205410.44,A,3726.8923300,N,12216.5170460,W,25.4472,311.2951,190721,,,,
$GPGGA,205411.44,3726.9014380,N,12216.5299940,W,1,0,0.0,128.9943,M,0.0000,M,0.0000,0
$GPRMC,205411.44,A,3726.9014380,N,12216.5299940,W,25.5131,311.4565,190721,,,,
$GPGGA,205412.44,3726.9106600,N,12216.5429540,W,1,0,0.0,129.7128,M,0.0000,M,0.0000,0
$GPRMC,205412.44,A,3726.9106600,N,12216.5429540,W,25.7365,311.7675,190721,,,,
$GPGGA,205413.44,3726.9199900,N,12216.5559980,W,1,0,0.0,130.4373,M,0.0000,M,0.0000,0
$GPRMC,205413.44,A,3726.9199900,N,12216.5559980,W,25.9187,311.7428,190721,,,,
$GPGGA,205414.44,3726.9293500,N,12216.5691140,W,1,0,0.0,131.1719,M,0.0000,M,0.0000,0
$GPRMC,205414.44,A,3726.9293500,N,12216.5691140,W,25.9636,311.5992,190721,,,,
$GPGGA,205415.44,3726.9385720,N,12216.5823200,W,1,0,0.0,131.9207,M,0.0000,M,0.0000,0
$GPRMC,205415.44,A,3726.9385720,N,12216.5823200,W,25.8514,310.7439,190721,,,,
$GPGGA,205416.44,3726.9476500,N,12216.5956340,W,1,0,0.0,132.6418,M,0.0000,M,0.0000,0
$GPRMC,205416.44,A,3726.9476500,N,12216.5956340,W,25.8209,310.1084,190721,,,,
$GPGGA,205417.44,3726.9566440,N,12216.6090620,W,1,0,0.0,133.3475,M,0.0000,M,0.0000,0
$GPRMC,205417.44,A,3726.9566440,N,12216.6090620,W,25.9326,309.8602,190721,,,,
$GPGGA,205418.44,3726.9656740,N,12216.6225560,W,1,0,0.0,134.0034,M,0.0000,M,0.0000,0
$GPRMC,205418.44,A,3726.9656740,N,12216.6225560,W,25.9995,309.9034,190721,,,,
$GPGGA,205419.44,3726.9746500,N,12216.6359780,W,1,0,0.0,134.6309,M,0.0000,M,0.0000,0
$GPRMC,205419.44,A,3726.9746500,N,12216.6359780,W,25.6109,309.8208,190721,,,,
$GPGGA,205420.44,3726.9834220,N,12216.6492380,W,1,0,0.0,135.1429,M,0.0000,M,0.0000,0
$GPRMC,205420.44,A,3726.9834220,N,12216.6492380,W,25.2056,309.3910,190721,,,,
$GPGGA,205421.44,3726.9920140,N,12216.6623360,W,1,0,0.0,135.5846,M,0.0000,M,0.0000,0
$GPRMC,205421.44,A,3726.9920140,N,12216.6623360,W,24.8311,309.3392,190721,,,,
$GPGGA,205422.44,3727.0004980,N,12216.6752720,W,1,0,0.0,136.0173,M,0.0000,M,0.0000,0
$GPRMC,205422.44,A,3727.0004980,N,12216.6752720,W,24.6349,309.3679,190721,,,,
$GPGGA,205423.44,3727.0089640,N,12216.6881900,W,1,0,0.0,136.4033,M,0.0000,M,0.0000,0
$GPRMC,205423.44,A,3727.0089640,N,12216.6881900,W,24.6961,309.2909,190721,,,,
$GPGGA,205424.44,3727.0174540,N,12216.7011380,W,1,0,0.0,136.7998,M,0.0000,M,0.0000,0
$GPRMC,205424.44,A,3727.0174540,N,12216.7011380,W,24.7165,309.4845,190721,,,,
$GPGGA,205425.44,3727.0259620,N,12216.7140020,W,1,0,0.0,137.2129,M,0.0000,M,0.0000,0
$GPRMC,205425.44,A,3727.0259620,N,12216.7140020,W,24.6020,309.7583,190721,,,,
$GPGGA,205426.44,3727.0344640,N,12216.7267820,W,1,0,0.0,137.4967,M,0.0000,M,0.0000,0
$GPRMC,205426.44,A,3727.0344640,N,12216.7267820,W,24.5195,309.6558,190721,,,,
$GPGGA,205427.44,3727.0429780,N,12216.7395860,W,1,0,0.0,137.7157,M,0.0000,M,0.0000,0
$GPRMC,205427.44,A,3727.0429780,N,12216.7395860,W,24.6662,309.7353,190721,,,,
$GPGGA,205428.44,3727.0515160,N,12216.7525100,W,1,0,0.0,137.8704,M,0.0000,M,0.0000,0
$GPRMC,205428.44,A,3727.0515160,N,12216.7525100,W,24.8382,309.4064,190721,,,,
$GPGGA,205429.44,3727.0600960,N,12216.7655420,W,1,0,0.0,137.9667,M,0.0000,M,0.0000,0
$GPRMC,205429.44,A,3727.0600960,N,12216.7655420,W,25.0112,309.4986,190721,,,,
$GPGGA,205430.44,3727.0687720,N,12216.7786220,W,1,0,0.0,137.9916,M,0.0000,M,0.0000,0
$GPRMC,205430.44,A,3727.0687720,N,12216.7786220,W,25.1669,309.7289,190721,,,,
$GPGGA,205431.44,3727.0775020,N,12216.7917560,W,1,0,0.0,138.0212,M,0.0000,M,0.0000,0
$GPRMC,205431.44,A,3727.0775020,N,12216.7917560,W,25.2646,309.5650,190721,,,,
$GPGGA,205432.44,3727.0862200,N,12216.8049860,W,1,0,0.0,138.0356,M,0.0000,M,0.0000,0
$GPRMC,205432.44,A,3727.0862200,N,12216.8049860,W,25.3529,309.4111,190721,,,,
$GPGGA,205433.44,3727.0949440,N,12216.8182760,W,1,0,0.0,138.0111,M,0.0000,M,0.0000,0
$GPRMC,205433.44,A,3727.0949440,N,12216.8182760,W,25.4440,309.2458,190721,,,,
$GPGGA,205434.44,3727.1036380,N,12216.8316860,W,1,0,0.0,137.9613,M,0.0000,M,0.0000,0
$GPRMC,205434.44,A,3727.1036380,N,12216.8316860,W,25.4868,308.7185,190721,,,,
$GPGGA,205435.44,3727.1122540,N,12216.8451320,W,1,0,0.0,137.8407,M,0.0000,M,0.0000,0
$GPRMC,205435.44,A,3727.1122540,N,12216.8451320,W,25.4398,308.7799,190721,,,,
$GPGGA,205436.44,3727.1209240,N,12216.8585420,W,1,0,0.0,137.7016,M,0.0000,M,0.0000,0
$GPRMC,205436.44,A,3727.1209240,N,12216.8585420,W,25.4783,309.1861,190721,,,,
$GPGGA,205437.44,3727.1296840,N,12216.8718920,W,1,0,0.0,137.4847,M,0.0000,M,0.0000,0
$GPRMC,205437.44,A,3727.1296840,N,12216.8718920,W,25.5446,309.5424,190721,,,,
$GPGGA,205438.44,3727.1385460,N,12216.8852480,W,1,0,0.0,137.2223,M,0.0000,M,0.0000,0
$GPRMC,205438.44,A,3727.1385460,N,12216.8852480,W,25.7157,309.7416,190721,,,,
$GPGGA,205439.44,3727.1474680,N,12216.8987180,W,1,0,0.0,136.8976,M,0.0000,M,0.0000,0
$GPRMC,205439.44,A,3727.1474680,N,12216.8987180,W,25.9585,309.4598,190721,,,,
$GPGGA,205440.44,3727.1564200,N,12216.9123860,W,1,0,0.0,136.5410,M,0.0000,M,0.0000,0
$GPRMC,205440.44,A,3727.1564200,N,12216.9123860,W,26.2358,309.2293,190721,,,,
$GPGGA,205441.44,3727.1654560,N,12216.9262340,W,1,0,0.0,136.1527,M,0.0000,M,0.0000,0
$GPRMC,205441.44,A,3727.1654560,N,12216.9262340,W,26.5568,309.1664,190721,,,,
$GPGGA,205442.44,3727.1746300,N,12216.9402620,W,1,0,0.0,135.7049,M,0.0000,M,0.0000,0
$GPRMC,205442.44,A,3727.1746300,N,12216.9402620,W,26.9552,309.3273,190721,,,,
$GPGGA,205443.44,3727.1839720,N,12216.9544760,W,1,0,0.0,135.2062,M,0.0000,M,0.0000,0
$GPRMC,205443.44,A,3727.1839720,N,12216.9544760,W,27.3864,309.4962,190721,,,,
$GPGGA,205444.44,3727.1935000,N,12216.9689000,W,1,0,0.0,134.6489,M,0.0000,M,0.0000,0
$GPRMC,205444.44,A,3727.1935000,N,12216.9689000,W,27.8690,309.5739,190721,,,,
$GPGGA,205445.44,3727.2032200,N,12216.9835580,W,1,0,0.0,134.0164,M,0.0000,M,0.0000,0
$GPRMC,205445.44,A,3727.2032200,N,12216.9835580,W,28.3536,309.6285,190721,,,,
$GPGGA,205446.44,3727.2130900,N,12216.9984560,W,1,0,0.0,133.3933,M,0.0000,M,0.0000,0
$GPRMC,205446.44,A,3727.2130900,N,12216.9984560,W,28.7764,309.5235,190721,,,,
$GPGGA,205447.44,3727.2230440,N,12217.0136540,W,1,0,0.0,132.7479,M,0.0000,M,0.0000,0
$GPRMC,205447.44,A,3727.2230440,N,12217.0136540,W,29.2264,309.1768,190721,,,,
$GPGGA,205448.44,3727.2331180,N,12217.0290860,W,1,0,0.0,132.1232,M,0.0000,M,0.0000,0
$GPRMC,205448.44,A,3727.2331180,N,12217.0290860,W,29.5386,309.2952,190721,,,,
$GPGGA,205449.44,3727.2432220,N,12217.0445540,W,1,0,0.0,131.4988,M,0.0000,M,0.0000,0
$GPRMC,205449.44,A,3727.2432220,N,12217.0445540,W,29.4080,309.2387,190721,,,,
$GPGGA,205450.44,3727.2532960,N,12217.0599200,W,1,0,0.0,130.8226,M,0.0000,M,0.0000,0
$GPRMC,205450.44,A,3727.2532960,N,12217.0599200,W,29.2948,309.5503,190721,,,,
$GPGGA,205451.44,3727.2634180,N,12217.0751840,W,1,0,0.0,130.1912,M,0.0000,M,0.0000,0
$GPRMC,205451.44,A,3727.2634180,N,12217.0751840,W,29.2777,309.6899,190721,,,,
$GPGGA,205452.44,3727.2735520,N,12217.0904480,W,1,0,0.0,129.5428,M,0.0000,M,0.0000,0
$GPRMC,205452.44,A,3727.2735520,N,12217.0904480,W,29.2991,309.6751,190721,,,,
$GPGGA,205453.44,3727.2836740,N,12217.1057240,W,1,0,0.0,128.8873,M,0.0000,M,0.0000,0
$GPRMC,205453.44,A,3727.2836740,N,12217.1057240,W,29.3064,309.5528,190721,,,,
$GPGGA,205454.44,3727.2937540,N,12217.1210600,W,1,0,0.0,128.2497,M,0.0000,M,0.0000,0
$GPRMC,205454.44,A,3727.2937540,N,12217.1210600,W,29.3337,309.2781,190721,,,,
$GPGGA,205455.44,3727.3038100,N,12217.1364620,W,1,0,0.0,127.5931,M,0.0000,M,0.0000,0
$GPRMC,205455.44,A,3727.3038100,N,12217.1364620,W,29.3768,309.1786,190721,,,,
$GPGGA,205456.44,3727.3138900,N,12217.1518880,W,1,0,0.0,126.9109,M,0.0000,M,0.0000,0
$GPRMC,205456.44,A,3727.3138900,N,12217.1518880,W,29.4405,309.3183,190721,,,,
$GPGGA,205457.44,3727.3240300,N,12217.1672960,W,1,0,0.0,126.2455,M,0.0000,M,0.0000,0
$GPRMC,205457.44,A,3727.3240300,N,12217.1672960,W,29.4760,309.4034,190721,,,,
$GPGGA,205458.44,3727.3341580,N,12217.1827400,W,1,0,0.0,125.5448,M,0.0000,M,0.0000,0
$GPRMC,205458.44,A,3727.3341580,N,12217.1827400,W,29.5136,309.1683,190721,,,,
$GPGGA,205459.44,3727.3442980,N,12217.1982380,W,1,0,0.0,124.7823,M,0.0000,M,0.0000,0
$GPRMC,205459.44,A,3727.3442980,N,12217.1982380,W,29.6301,309.3645,190721,,,,
$GPGGA,205500.44,3727.3545880,N,12217.2137000,W,1,0,0.0,124.0279,M,0.0000,M,0.0000,0
$GPRMC,205500.44,A,3727.3545880,N,12217.2137000,W,29.7652,310.1304,190721,,,,
$GPGGA,205501.44,3727.3651120,N,12217.2290240,W,1,0,0.0,123.3550,M,0.0000,M,0.0000,0
$GPRMC,205501.44,A,3727.3651120,N,12217.2290240,W,29.8653,311.1931,190721,,,,
$GPGGA,205502.44,3727.3759420,N,12217.2440480,W,1,0,0.0,122.8940,M,0.0000,M,0.0000,0
$GPRMC,205502.44,A,3727.3759420,N,12217.2440480,W,29.8832,313.0063,190721,,,,
$GPGGA,205503.44,3727.3871980,N,12217.2586220,W,1,0,0.0,122.5246,M,0.0000,M,0.0000,0
$GPRMC,205503.44,A,3727.3871980,N,12217.2586220,W,29.9740,315.1878,190721,,,,
$GPGGA,205504.44,3727.3989400,N,12217.2726800,W,1,0,0.0,122.3068,M,0.0000,M,0.0000,0
$GPRMC,205504.44,A,3727.3989400,N,12217.2726800,W,30.0989,317.2570,190721,,,,
$GPGGA,205505.44,3727.4111440,N,12217.2862400,W,1,0,0.0,122.1874,M,0.0000,M,0.0000,0
$GPRMC,205505.44,A,3727.4111440,N,12217.2862400,W,30.2174,319.2593,190721,,,,
$GPGGA,205506.44,3727.4237020,N,12217.2993860,W,1,0,0.0,122.1979,M,0.0000,M,0.0000,0
$GPRMC,205506.44,A,3727.4237020,N,12217.2993860,W,30.3183,320.9661,190721,,,,
$GPGGA,205507.44,3727.4365960,N,12217.3120400,W,1,0,0.0,122.3605,M,0.0000,M,0.0000,0
$GPRMC,205507.44,A,3727.4365960,N,12217.3120400,W,30.1434,322.8852,190721,,,,
$GPGGA,205508.44,3727.4497420,N,12217.3240100,W,1,0,0.0,122.6588,M,0.0000,M,0.0000,0
$GPRMC,205508.44,A,3727.4497420,N,12217.3240100,W,29.9793,324.8616,190721,,,,
$GPGGA,205509.44,3727.4631340,N,12217.3353800,W,1,0,0.0,123.0932,M,0.0000,M,0.0000,0
$GPRMC,205509.44,A,3727.4631340,N,12217.3353800,W,29.8578,326.7770,190721,,,,
$GPGGA,205510.44,3727.4767780,N,12217.3461320,W,1,0,0.0,123.6141,M,0.0000,M,0.0000,0
$GPRMC,205510.44,A,3727.4767780,N,12217.3461320,W,29.7554,328.7818,190721,,,,
$GPGGA,205511.44,3727.4906320,N,12217.3562840,W,1,0,0.0,124.2123,M,0.0000,M,0.0000,0
$GPRMC,205511.44,A,3727.4906320,N,12217.3562840,W,29.6138,330.4356,190721,,,,
$GPGGA,205512.44,3727.5046540,N,12217.3658780,W,1,0,0.0,124.7937,M,0.0000,M,0.0000,0
$GPRMC,205512.44,A,3727.5046540,N,12217.3658780,W,29.4659,332.2874,190721,,,,
$GPGGA,205513.44,3727.5188560,N,12217.3747940,W,1,0,0.0,125.4181,M,0.0000,M,0.0000,0
$GPRMC,205513.44,A,3727.5188560,N,12217.3747940,W,29.3007,334.3873,190721,,,,
$GPGGA,205514.44,3727.5332260,N,12217.3830080,W,1,0,0.0,126.0521,M,0.0000,M,0.0000,0
$GPRMC,205514.44,A,3727.5332260,N,12217.3830080,W,29.1331,336.4689,190721,,,,
$GPGGA,205515.44,3727.5477280,N,12217.3905980,W,1,0,0.0,126.6430,M,0.0000,M,0.0000,0
$GPRMC,205515.44,A,3727.5477280,N,12217.3905980,W,29.0067,338.1598,190721,,,,
$GPGGA,205516.44,3727.5623560,N,12217.3975820,W,1,0,0.0,127.2112,M,0.0000,M,0.0000,0
$GPRMC,205516.44,A,3727.5623560,N,12217.3975820,W,28.9124,340.0626,190721,,,,
$GPGGA,205517.44,3727.5771280,N,12217.4039300,W,1,0,0.0,127.7360,M,0.0000,M,0.0000,0
$GPRMC,205517.44,A,3727.5771280,N,12217.4039300,W,28.8457,341.9242,190721,,,,
$GPGGA,205518.44,3727.5919960,N,12217.4097140,W,1,0,0.0,128.3211,M,0.0000,M,0.0000,0
$GPRMC,205518.44,A,3727.5919960,N,12217.4097140,W,28.7463,343.4638,190721,,,,
$GPGGA,205519.44,3727.6069180,N,12217.4149820,W,1,0,0.0,128.9396,M,0.0000,M,0.0000,0
$GPRMC,205519.44,A,3727.6069180,N,12217.4149820,W,28.6222,345.0868,190721,,,,
$GPGGA,205520.44,3727.6219300,N,12217.4196140,W,1,0,0.0,129.5591,M,0.0000,M,0.0000,0
$GPRMC,205520.44,A,3727.6219300,N,12217.4196140,W,28.6005,347.1114,190721,,,,
$GPGGA,205521.44,3727.6370980,N,12217.4235620,W,1,0,0.0,130.1914,M,0.0000,M,0.0000,0
$GPRMC,205521.44,A,3727.6370980,N,12217.4235620,W,28.7053,349.2621,190721,,,,
$GPGGA,205522.44,3727.6524340,N,12217.4268620,W,1,0,0.0,130.7634,M,0.0000,M,0.0000,0
$GPRMC,205522.44,A,3727.6524340,N,12217.4268620,W,28.8848,351.1254,190721,,,,
$GPGGA,205523.44,3727.6679440,N,12217.4295920,W,1,0,0.0,131.3442,M,0.0000,M,0.0000,0
$GPRMC,205523.44,A,3727.6679440,N,12217.4295920,W,29.0766,352.8207,190721,,,,
$GPGGA,205524.44,3727.6836280,N,12217.4316380,W,1,0,0.0,131.9495,M,0.0000,M,0.0000,0
$GPRMC,205524.44,A,3727.6836280,N,12217.4316380,W,29.2415,355.1208,190721,,,,
$GPGGA,205525.44,3727.6994140,N,12217.4329640,W,1,0,0.0,132.5815,M,0.0000,M,0.0000,0
$GPRMC,205525.44,A,3727.6994140,N,12217.4329640,W,29.2674,356.9938,190721,,,,
$GPGGA,205526.44,3727.7152120,N,12217.4338520,W,1,0,0.0,133.3669,M,0.0000,M,0.0000,0
$GPRMC,205526.44,A,3727.7152120,N,12217.4338520,W,29.2491,357.6910,190721,,,,
$GPGGA,205527.44,3727.7310100,N,12217.4345660,W,1,0,0.0,134.0739,M,0.0000,M,0.0000,0
$GPRMC,205527.44,A,3727.7310100,N,12217.4345660,W,29.2555,358.0680,190721,,,,
$GPGGA,205528.44,3727.7468260,N,12217.4351540,W,1,0,0.0,134.6781,M,0.0000,M,0.0000,0
$GPRMC,205528.44,A,3727.7468260,N,12217.4351540,W,29.2980,358.3266,190721,,,,
