$GPGGA,204922.00,3726.6462520,N,12213.9658820,W,1,0,0.0,10.8510,M,0.0000,M,0.0000,0
$GPRMC,204922.00,A,3726.6462520,N,12213.9658820,W,0.0010,30.2573,190721,,,,
$GPGGA,204923.00,3726.6462520,N,12213.9658820,W,1,0,0.0,10.8510,M,0.0000,M,0.0000,0
$GPRMC,204923.00,A,3726.6462520,N,12213.9658820,W,0.0014,30.2575,190721,,,,
$GPGGA,204924.00,3726.6462520,N,12213.9658820,W,1,0,0.0,10.8510,M,0.0000,M,0.0000,0
$GPRMC,204924.00,A,3726.6462520,N,12213.9658820,W,0.0022,30.2571,190721,,,,
$GPGGA,204925.00,3726.6462520,N,12213.9658820,W,1,0,0.0,10.8520,M,0.0000,M,0.0000,0
$GPRMC,204925.00,A,3726.6462520,N,12213.9658820,W,0.0108,30.3465,190721,,,,
$GPGGA,204926.00,3726.6461860,N,12213.9659600,W,1,0,0.0,10.8530,M,0.0000,M,0.0000,0
$GPRMC,204926.00,A,3726.6461860,N,12213.9659600,W,0.3801,29.2900,190721,,,,
$GPGGA,204927.00,3726.6459880,N,12213.9662960,W,1,0,0.0,10.8410,M,0.0000,M,0.0000,0
$GPRMC,204927.00,A,3726.6459880,N,12213.9662960,W,0.7811,21.8098,190721,,,,
$GPGGA,204928.00,3726.6456040,N,12213.9667520,W,1,0,0.0,10.8220,M,0.0000,M,0.0000,0
$GPRMC,204928.00,A,3726.6456040,N,12213.9667520,W,1.0411,9.8877,190721,,,,
$GPGGA,204929.00,3726.6451060,N,12213.9671180,W,1,0,0.0,10.7950,M,0.0000,M,0.0000,0
$GPRMC,204929.00,A,3726.6451060,N,12213.9671180,W,0.8657,356.9344,190721,,,,
$GPGGA,204930.00,3726.6448120,N,12213.9672440,W,1,0,0.0,10.7830,M,0.0000,M,0.0000,0
$GPRMC,204930.00,A,3726.6448120,N,12213.9672440,W,0.2140,350.1646,190721,,,,
$GPGGA,204931.00,3726.6448000,N,12213.9672560,W,1,0,0.0,10.7810,M,0.0000,M,0.0000,0
$GPRMC,204931.00,A,3726.6448000,N,12213.9672560,W,0.0212,349.5703,190721,,,,
$GPGGA,204932.00,3726.6450280,N,12213.9673940,W,1,0,0.0,10.7800,M,0.0000,M,0.0000,0
$GPRMC,204932.00,A,3726.6450280,N,12213.9673940,W,0.9598,346.4370,190721,,,,
$GPGGA,204933.00,3726.6456700,N,12213.9682100,W,1,0,0.0,10.8130,M,0.0000,M,0.0000,0
$GPRMC,204933.00,A,3726.6456700,N,12213.9682100,W,1.9444,327.5923,190721,,,,
$GPGGA,204934.00,3726.6461440,N,12213.9699260,W,1,0,0.0,10.7960,M,0.0000,M,0.0000,0
$GPRMC,204934.00,A,3726.6461440,N,12213.9699260,W,2.7642,297.4521,190721,,,,
$GPGGA,204935.00,3726.6459280,N,12213.9723260,W,1,0,0.0,10.7430,M,0.0000,M,0.0000,0
$GPRMC,204935.00,A,3726.6459280,N,12213.9723260,W,3.6757,266.2191,190721,,,,
$GPGGA,204936.00,3726.6447160,N,12213.9746600,W,1,0,0.0,10.6470,M,0.0000,M,0.0000,0
$GPRMC,204936.00,A,3726.6447160,N,12213.9746600,W,3.9928,237.0732,190721,,,,
$GPGGA,204937.00,3726.6429940,N,12213.9761720,W,1,0,0.0,10.5370,M,0.0000,M,0.0000,0
$GPRMC,204937.00,A,3726.6429940,N,12213.9761720,W,3.1575,215.7132,190721,,,,
$GPGGA,204938.00,3726.6418600,N,12213.9768620,W,1,0,0.0,10.4560,M,0.0000,M,0.0000,0
$GPRMC,204938.00,A,3726.6418600,N,12213.9768620,W,2.0090,209.0285,190721,,,,
$GPGGA,204939.00,3726.6407740,N,12213.9775640,W,1,0,0.0,10.4110,M,0.0000,M,0.0000,0
$GPRMC,204939.00,A,3726.6407740,N,12213.9775640,W,2.4612,207.9016,190721,,,,
$GPGGA,204940.00,3726.6394060,N,12213.9784460,W,1,0,0.0,10.3260,M,0.0000,M,0.0000,0
$GPRMC,204940.00,A,3726.6394060,N,12213.9784460,W,3.4020,207.1855,190721,,,,
$GPGGA,204941.00,3726.6374440,N,12213.9796940,W,1,0,0.0,10.2520,M,0.0000,M,0.0000,0
$GPRMC,204941.00,A,3726.6374440,N,12213.9796940,W,4.5415,206.9549,190721,,,,
$GPGGA,204942.00,3726.6352840,N,12213.9811220,W,1,0,0.0,10.1770,M,0.0000,M,0.0000,0
$GPRMC,204942.00,A,3726.6352840,N,12213.9811220,W,4.3694,207.9369,190721,,,,
$GPGGA,204943.00,3726.6334300,N,12213.9826100,W,1,0,0.0,10.1110,M,0.0000,M,0.0000,0
$GPRMC,204943.00,A,3726.6334300,N,12213.9826100,W,3.7402,213.0333,190721,,,,
$GPGGA,204944.00,3726.6321460,N,12213.9839420,W,1,0,0.0,10.0420,M,0.0000,M,0.0000,0
$GPRMC,204944.00,A,3726.6321460,N,12213.9839420,W,2.4015,218.7439,190721,,,,
$GPGGA,204945.00,3726.6314380,N,12213.9849920,W,1,0,0.0,9.9160,M,0.0000,M,0.0000,0
$GPRMC,204945.00,A,3726.6314380,N,12213.9849920,W,2.0818,226.3565,190721,,,,
$GPGGA,204946.00,3726.6310300,N,12213.9864260,W,1,0,0.0,9.7660,M,0.0000,M,0.0000,0
$GPRMC,204946.00,A,3726.6310300,N,12213.9864260,W,2.5767,244.3557,190721,,,,
$GPGGA,204947.00,3726.6311620,N,12213.9885080,W,1,0,0.0,9.7230,M,0.0000,M,0.0000,0
$GPRMC,204947.00,A,3726.6311620,N,12213.9885080,W,3.7439,269.3187,190721,,,,
$GPGGA,204948.00,3726.6320080,N,12213.9913940,W,1,0,0.0,9.6370,M,0.0000,M,0.0000,0
$GPRMC,204948.00,A,3726.6320080,N,12213.9913940,W,5.5745,290.6240,190721,,,,
$GPGGA,204949.00,3726.6336280,N,12213.9953600,W,1,0,0.0,9.4440,M,0.0000,M,0.0000,0
$GPRMC,204949.00,A,3726.6336280,N,12213.9953600,W,7.6104,297.2589,190721,,,,
$GPGGA,204950.00,3726.6358780,N,12214.0002980,W,1,0,0.0,9.2040,M,0.0000,M,0.0000,0
$GPRMC,204950.00,A,3726.6358780,N,12214.0002980,W,8.9829,300.6823,190721,,,,
$GPGGA,204951.00,3726.6385660,N,12214.0057940,W,1,0,0.0,8.9820,M,0.0000,M,0.0000,0
$GPRMC,204951.00,A,3726.6385660,N,12214.0057940,W,10.0386,301.5607,190721,,,,
$GPGGA,204952.00,3726.6415060,N,12214.0117400,W,1,0,0.0,8.6980,M,0.0000,M,0.0000,0
$GPRMC,204952.00,A,3726.6415060,N,12214.0117400,W,10.4852,301.8423,190721,,,,
$GPGGA,204953.00,3726.6445840,N,12214.0178720,W,1,0,0.0,8.3940,M,0.0000,M,0.0000,0
$GPRMC,204953.00,A,3726.6445840,N,12214.0178720,W,10.8840,302.3794,190721,,,,
$GPGGA,204954.00,3726.6477760,N,12214.0241180,W,1,0,0.0,8.1820,M,0.0000,M,0.0000,0
$GPRMC,204954.00,A,3726.6477760,N,12214.0241180,W,10.9996,302.7741,190721,,,,
$GPGGA,204955.00,3726.6510520,N,12214.0303520,W,1,0,0.0,7.9550,M,0.0000,M,0.0000,0
$GPRMC,204955.00,A,3726.6510520,N,12214.0303520,W,10.9983,303.5476,190721,,,,
$GPGGA,204956.00,3726.6542860,N,12214.0364540,W,1,0,0.0,7.7280,M,0.0000,M,0.0000,0
$GPRMC,204956.00,A,3726.6542860,N,12214.0364540,W,10.4649,303.3412,190721,,,,
$GPGGA,204957.00,3726.6572200,N,12214.0420340,W,1,0,0.0,7.5350,M,0.0000,M,0.0000,0
$GPRMC,204957.00,A,3726.6572200,N,12214.0420340,W,9.2114,303.2887,190721,,,,
$GPGGA,204958.00,3726.6597700,N,12214.0468640,W,1,0,0.0,7.3500,M,0.0000,M,0.0000,0
$GPRMC,204958.00,A,3726.6597700,N,12214.0468640,W,7.8786,303.4188,190721,,,,
$GPGGA,204959.00,3726.6616780,N,12214.0508240,W,1,0,0.0,7.2110,M,0.0000,M,0.0000,0
$GPRMC,204959.00,A,3726.6616780,N,12214.0508240,W,5.6040,299.7294,190721,,,,
$GPGGA,205000.00,3726.6628000,N,12214.0534340,W,1,0,0.0,7.1100,M,0.0000,M,0.0000,0
$GPRMC,205000.00,A,3726.6628000,N,12214.0534340,W,3.3374,298.4916,190721,,,,
$GPGGA,205001.00,3726.6634780,N,12214.0549940,W,1,0,0.0,7.0590,M,0.0000,M,0.0000,0
$GPRMC,205001.00,A,3726.6634780,N,12214.0549940,W,1.9360,298.4146,190721,,,,
$GPGGA,205002.00,3726.6637840,N,12214.0557140,W,1,0,0.0,7.0380,M,0.0000,M,0.0000,0
$GPRMC,205002.00,A,3726.6637840,N,12214.0557140,W,0.4497,298.4216,190721,,,,
$GPGGA,205003.00,3726.6638020,N,12214.0557560,W,1,0,0.0,7.0260,M,0.0000,M,0.0000,0
$GPRMC,205003.00,A,3726.6638020,N,12214.0557560,W,0.0030,298.4227,190721,,,,
$GPGGA,205004.00,3726.6638020,N,12214.0557560,W,1,0,0.0,7.0260,M,0.0000,M,0.0000,0
$GPRMC,205004.00,A,3726.6638020,N,12214.0557560,W,0.0032,298.4234,190721,,,,
$GPGGA,205005.00,3726.6638020,N,12214.0557560,W,1,0,0.0,7.0270,M,0.0000,M,0.0000,0
$GPRMC,205005.00,A,3726.6638020,N,12214.0557560,W,0.0014,298.4231,190721,,,,
$GPGGA,205006.00,3726.6638020,N,12214.0557500,W,1,0,0.0,7.0270,M,0.0000,M,0.0000,0
$GPRMC,205006.00,A,3726.6638020,N,12214.0557500,W,0.0014,298.4204,190721,,,,
$GPGGA,205007.00,3726.6638020,N,12214.0557500,W,1,0,0.0,7.0270,M,0.0000,M,0.0000,0
$GPRMC,205007.00,A,3726.6638020,N,12214.0557500,W,0.0010,298.4204,190721,,,,
$GPGGA,205008.00,3726.6638020,N,12214.0557500,W,1,0,0.0,7.0270,M,0.0000,M,0.0000,0
$GPRMC,205008.00,A,3726.6638020,N,12214.0557500,W,0.0020,298.4205,190721,,,,
$GPGGA,205009.00,3726.6638020,N,12214.0557500,W,1,0,0.0,7.0270,M,0.0000,M,0.0000,0
$GPRMC,205009.00,A,3726.6638020,N,12214.0557500,W,0.0022,298.4200,190721,,,,
$GPGGA,205010.00,3726.6638020,N,12214.0557500,W,1,0,0.0,7.0270,M,0.0000,M,0.0000,0
$GPRMC,205010.00,A,3726.6638020,N,12214.0557500,W,0.0022,298.4203,190721,,,,
$GPGGA,205011.00,3726.6638020,N,12214.0557500,W,1,0,0.0,7.0270,M,0.0000,M,0.0000,0
$GPRMC,205011.00,A,3726.6638020,N,12214.0557500,W,0.0010,298.4205,190721,,,,
$GPGGA,205012.00,3726.6638020,N,12214.0557500,W,1,0,0.0,7.0280,M,0.0000,M,0.0000,0
$GPRMC,205012.00,A,3726.6638020,N,12214.0557500,W,0.0014,298.4203,190721,,,,
$GPGGA,205013.00,3726.6638020,N,12214.0557500,W,1,0,0.0,7.0280,M,0.0000,M,0.0000,0
$GPRMC,205013.00,A,3726.6638020,N,12214.0557500,W,0.0014,298.4205,190721,,,,
$GPGGA,205014.00,3726.6638080,N,12214.0557560,W,1,0,0.0,7.0270,M,0.0000,M,0.0000,0
$GPRMC,205014.00,A,3726.6638080,N,12214.0557560,W,0.0786,298.4216,190721,,,,
$GPGGA,205015.00,3726.6640840,N,12214.0564400,W,1,0,0.0,6.9880,M,0.0000,M,0.0000,0
$GPRMC,205015.00,A,3726.6640840,N,12214.0564400,W,2.6081,297.9313,190721,,,,
$GPGGA,205016.00,3726.6649600,N,12214.0589540,W,1,0,0.0,6.8900,M,0.0000,M,0.0000,0
$GPRMC,205016.00,A,3726.6649600,N,12214.0589540,W,5.2119,293.0518,190721,,,,
$GPGGA,205017.00,3726.6656980,N,12214.0628540,W,1,0,0.0,6.9690,M,0.0000,M,0.0000,0
$GPRMC,205017.00,A,3726.6656980,N,12214.0628540,W,6.5167,280.7842,190721,,,,
$GPGGA,205018.00,3726.6655540,N,12214.0677200,W,1,0,0.0,7.0850,M,0.0000,M,0.0000,0
$GPRMC,205018.00,A,3726.6655540,N,12214.0677200,W,7.5444,262.9319,190721,,,,
$GPGGA,205019.00,3726.6639400,N,12214.0728140,W,1,0,0.0,7.2100,M,0.0000,M,0.0000,0
$GPRMC,205019.00,A,3726.6639400,N,12214.0728140,W,8.6780,242.5717,190721,,,,
$GPGGA,205020.00,3726.6606280,N,12214.0776200,W,1,0,0.0,7.2830,M,0.0000,M,0.0000,0
$GPRMC,205020.00,A,3726.6606280,N,12214.0776200,W,9.8105,223.7623,190721,,,,
$GPGGA,205021.00,3726.6560500,N,12214.0817780,W,1,0,0.0,7.4570,M,0.0000,M,0.0000,0
$GPRMC,205021.00,A,3726.6560500,N,12214.0817780,W,11.1825,213.4287,190721,,,,
$GPGGA,205022.00,3726.6505120,N,12214.0860860,W,1,0,0.0,7.7380,M,0.0000,M,0.0000,0
$GPRMC,205022.00,A,3726.6505120,N,12214.0860860,W,12.8668,211.1282,190721,,,,
$GPGGA,205023.00,3726.6442120,N,12214.0905680,W,1,0,0.0,8.1109,M,0.0000,M,0.0000,0
$GPRMC,205023.00,A,3726.6442120,N,12214.0905680,W,13.8805,208.4532,190721,,,,
$GPGGA,205024.00,3726.6373300,N,12214.0950860,W,1,0,0.0,8.5789,M,0.0000,M,0.0000,0
$GPRMC,205024.00,A,3726.6373300,N,12214.0950860,W,14.8718,207.0315,190721,,,,
$GPGGA,205025.00,3726.6298540,N,12214.0998920,W,1,0,0.0,9.0090,M,0.0000,M,0.0000,0
$GPRMC,205025.00,A,3726.6298540,N,12214.0998920,W,16.2058,207.0264,190721,,,,
$GPGGA,205026.00,3726.6218620,N,12214.1050460,W,1,0,0.0,9.3080,M,0.0000,M,0.0000,0
$GPRMC,205026.00,A,3726.6218620,N,12214.1050460,W,17.1088,207.1815,190721,,,,
$GPGGA,205027.00,3726.6134020,N,12214.1105780,W,1,0,0.0,9.4640,M,0.0000,M,0.0000,0
$GPRMC,205027.00,A,3726.6134020,N,12214.1105780,W,18.1754,207.6300,190721,,,,
$GPGGA,205028.00,3726.6045100,N,12214.1164760,W,1,0,0.0,9.5740,M,0.0000,M,0.0000,0
$GPRMC,205028.00,A,3726.6045100,N,12214.1164760,W,18.9341,207.8730,190721,,,,
$GPGGA,205029.00,3726.5955340,N,12214.1225120,W,1,0,0.0,9.7630,M,0.0000,M,0.0000,0
$GPRMC,205029.00,A,3726.5955340,N,12214.1225120,W,18.6940,208.2220,190721,,,,
$GPGGA,205030.00,3726.5867320,N,12214.1284640,W,1,0,0.0,9.9480,M,0.0000,M,0.0000,0
$GPRMC,205030.00,A,3726.5867320,N,12214.1284640,W,18.2673,208.1306,190721,,,,
$GPGGA,205031.00,3726.5781160,N,12214.1342540,W,1,0,0.0,10.2209,M,0.0000,M,0.0000,0
$GPRMC,205031.00,A,3726.5781160,N,12214.1342540,W,18.0011,208.0145,190721,,,,
$GPGGA,205032.00,3726.5695120,N,12214.1399960,W,1,0,0.0,10.5729,M,0.0000,M,0.0000,0
$GPRMC,205032.00,A,3726.5695120,N,12214.1399960,W,18.0309,207.8517,190721,,,,
$GPGGA,205033.00,3726.5608900,N,12214.1456960,W,1,0,0.0,11.1929,M,0.0000,M,0.0000,0
$GPRMC,205033.00,A,3726.5608900,N,12214.1456960,W,18.0326,207.4957,190721,,,,
$GPGGA,205034.00,3726.5522260,N,12214.1513420,W,1,0,0.0,11.9209,M,0.0000,M,0.0000,0
$GPRMC,205034.00,A,3726.5522260,N,12214.1513420,W,18.0145,207.2972,190721,,,,
$GPGGA,205035.00,3726.5437060,N,12214.1568920,W,1,0,0.0,12.9218,M,0.0000,M,0.0000,0
$GPRMC,205035.00,A,3726.5437060,N,12214.1568920,W,17.4440,207.4930,190721,,,,
$GPGGA,205036.00,3726.5355220,N,12214.1622740,W,1,0,0.0,13.9758,M,0.0000,M,0.0000,0
$GPRMC,205036.00,A,3726.5355220,N,12214.1622740,W,16.7252,207.6869,190721,,,,
$GPGGA,205037.00,3726.5277160,N,12214.1675180,W,1,0,0.0,14.8928,M,0.0000,M,0.0000,0
$GPRMC,205037.00,A,3726.5277160,N,12214.1675180,W,16.1311,208.3310,190721,,,,
$GPGGA,205038.00,3726.5201260,N,12214.1727320,W,1,0,0.0,15.6809,M,0.0000,M,0.0000,0
$GPRMC,205038.00,A,3726.5201260,N,12214.1727320,W,15.9956,208.7563,190721,,,,
$GPGGA,205039.00,3726.5125660,N,12214.1780060,W,1,0,0.0,16.4359,M,0.0000,M,0.0000,0
$GPRMC,205039.00,A,3726.5125660,N,12214.1780060,W,15.9887,209.0723,190721,,,,
$GPGGA,205040.00,3726.5050360,N,12214.1833400,W,1,0,0.0,17.1469,M,0.0000,M,0.0000,0
$GPRMC,205040.00,A,3726.5050360,N,12214.1833400,W,16.1352,209.4852,190721,,,,
$GPGGA,205041.00,3726.4972780,N,12214.1888180,W,1,0,0.0,17.7999,M,0.0000,M,0.0000,0
$GPRMC,205041.00,A,3726.4972780,N,12214.1888180,W,16.8612,209.1021,190721,,,,
$GPGGA,205042.00,3726.4891780,N,12214.1947160,W,1,0,0.0,18.5689,M,0.0000,M,0.0000,0
$GPRMC,205042.00,A,3726.4891780,N,12214.1947160,W,17.6442,211.2229,190721,,,,
$GPGGA,205043.00,3726.4811560,N,12214.2015200,W,1,0,0.0,19.4608,M,0.0000,M,0.0000,0
$GPRMC,205043.00,A,3726.4811560,N,12214.2015200,W,18.3528,216.0165,190721,,,,
$GPGGA,205044.00,3726.4732120,N,12214.2094100,W,1,0,0.0,20.4368,M,0.0000,M,0.0000,0
$GPRMC,205044.00,A,3726.4732120,N,12214.2094100,W,19.1988,219.5308,190721,,,,
$GPGGA,205045.00,3726.4653220,N,12214.2182960,W,1,0,0.0,21.4358,M,0.0000,M,0.0000,0
$GPRMC,205045.00,A,3726.4653220,N,12214.2182960,W,20.0675,223.4259,190721,,,,
$GPGGA,205046.00,3726.4576120,N,12214.2282200,W,1,0,0.0,22.6248,M,0.0000,M,0.0000,0
$GPRMC,205046.00,A,3726.4576120,N,12214.2282200,W,20.8082,227.4820,190721,,,,
$GPGGA,205047.00,3726.4504180,N,12214.2390800,W,1,0,0.0,23.8368,M,0.0000,M,0.0000,0
$GPRMC,205047.00,A,3726.4504180,N,12214.2390800,W,20.8896,232.5602,190721,,,,
$GPGGA,205048.00,3726.4438720,N,12214.2506540,W,1,0,0.0,25.0278,M,0.0000,M,0.0000,0
$GPRMC,205048.00,A,3726.4438720,N,12214.2506540,W,21.0318,235.5431,190721,,,,
$GPGGA,205049.00,3726.4375780,N,12214.2625640,W,1,0,0.0,26.3008,M,0.0000,M,0.0000,0
$GPRMC,205049.00,A,3726.4375780,N,12214.2625640,W,21.0885,236.7716,190721,,,,
$GPGGA,205050.00,3726.4313020,N,12214.2744560,W,1,0,0.0,27.5218,M,0.0000,M,0.0000,0
$GPRMC,205050.00,A,3726.4313020,N,12214.2744560,W,20.9678,235.5909,190721,,,,
$GPGGA,205051.00,3726.4246540,N,12214.2859460,W,1,0,0.0,28.8648,M,0.0000,M,0.0000,0
$GPRMC,205051.00,A,3726.4246540,N,12214.2859460,W,20.9069,232.6794,190721,,,,
$GPGGA,205052.00,3726.4176520,N,12214.2970700,W,1,0,0.0,30.0248,M,0.0000,M,0.0000,0
$GPRMC,205052.00,A,3726.4176520,N,12214.2970700,W,20.9116,231.0455,190721,,,,
$GPGGA,205053.00,3726.4104460,N,12214.3080260,W,1,0,0.0,31.1078,M,0.0000,M,0.0000,0
$GPRMC,205053.00,A,3726.4104460,N,12214.3080260,W,21.0010,229.8744,190721,,,,
$GPGGA,205054.00,3726.4029760,N,12214.3188380,W,1,0,0.0,32.1428,M,0.0000,M,0.0000,0
$GPRMC,205054.00,A,3726.4029760,N,12214.3188380,W,21.2376,228.3632,190721,,,,
$GPGGA,205055.00,3726.3951400,N,12214.3294820,W,1,0,0.0,33.2608,M,0.0000,M,0.0000,0
$GPRMC,205055.00,A,3726.3951400,N,12214.3294820,W,21.3753,226.1229,190721,,,,
$GPGGA,205056.00,3726.3869920,N,12214.3397300,W,1,0,0.0,34.2768,M,0.0000,M,0.0000,0
$GPRMC,205056.00,A,3726.3869920,N,12214.3397300,W,21.2863,224.1583,190721,,,,
$GPGGA,205057.00,3726.3786460,N,12214.3496180,W,1,0,0.0,35.1809,M,0.0000,M,0.0000,0
$GPRMC,205057.00,A,3726.3786460,N,12214.3496180,W,21.1449,222.3780,190721,,,,
$GPGGA,205058.00,3726.3701440,N,12214.3588700,W,1,0,0.0,36.3858,M,0.0000,M,0.0000,0
$GPRMC,205058.00,A,3726.3701440,N,12214.3588700,W,20.4408,219.4164,190721,,,,
$GPGGA,205059.00,3726.3616240,N,12214.3674260,W,1,0,0.0,37.5748,M,0.0000,M,0.0000,0
$GPRMC,205059.00,A,3726.3616240,N,12214.3674260,W,20.0393,218.4969,190721,,,,
$GPGGA,205100.00,3726.3531220,N,12214.3756580,W,1,0,0.0,38.5858,M,0.0000,M,0.0000,0
$GPRMC,205100.00,A,3726.3531220,N,12214.3756580,W,19.6922,216.7245,190721,,,,
$GPGGA,205101.00,3726.3445120,N,12214.3834100,W,1,0,0.0,39.5439,M,0.0000,M,0.0000,0
$GPRMC,205101.00,A,3726.3445120,N,12214.3834100,W,19.5395,214.8139,190721,,,,
$GPGGA,205102.00,3726.3357760,N,12214.3907600,W,1,0,0.0,40.4198,M,0.0000,M,0.0000,0
$GPRMC,205102.00,A,3726.3357760,N,12214.3907600,W,19.3582,212.9823,190721,,,,
$GPGGA,205103.00,3726.3269440,N,12214.3977200,W,1,0,0.0,41.2549,M,0.0000,M,0.0000,0
$GPRMC,205103.00,A,3726.3269440,N,12214.3977200,W,19.2701,211.4536,190721,,,,
$GPGGA,205104.00,3726.3179260,N,12214.4043980,W,1,0,0.0,41.8189,M,0.0000,M,0.0000,0
$GPRMC,205104.00,A,3726.3179260,N,12214.4043980,W,19.5099,209.8273,190721,,,,
$GPGGA,205105.00,3726.3086020,N,12214.4107820,W,1,0,0.0,42.3069,M,0.0000,M,0.0000,0
$GPRMC,205105.00,A,3726.3086020,N,12214.4107820,W,19.7696,207.6255,190721,,,,
$GPGGA,205106.00,3726.2989720,N,12214.4167820,W,1,0,0.0,42.7009,M,0.0000,M,0.0000,0
$GPRMC,205106.00,A,3726.2989720,N,12214.4167820,W,19.9889,205.3696,190721,,,,
$GPGGA,205107.00,3726.2890600,N,12214.4223980,W,1,0,0.0,43.0130,M,0.0000,M,0.0000,0
$GPRMC,205107.00,A,3726.2890600,N,12214.4223980,W,20.2438,203.5476,190721,,,,
$GPGGA,205108.00,3726.2788960,N,12214.4277380,W,1,0,0.0,43.1950,M,0.0000,M,0.0000,0
$GPRMC,205108.00,A,3726.2788960,N,12214.4277380,W,20.4957,201.8973,190721,,,,
$GPGGA,205109.00,3726.2685700,N,12214.4327960,W,1,0,0.0,43.3250,M,0.0000,M,0.0000,0
$GPRMC,205109.00,A,3726.2685700,N,12214.4327960,W,20.4737,200.6450,190721,,,,
$GPGGA,205110.00,3726.2581900,N,12214.4376260,W,1,0,0.0,43.4490,M,0.0000,M,0.0000,0
$GPRMC,205110.00,A,3726.2581900,N,12214.4376260,W,20.5094,200.1769,190721,,,,
$GPGGA,205111.00,3726.2477980,N,12214.4425460,W,1,0,0.0,43.5950,M,0.0000,M,0.0000,0
$GPRMC,205111.00,A,3726.2477980,N,12214.4425460,W,20.5952,201.0630,190721,,,,
$GPGGA,205112.00,3726.2374600,N,12214.4477660,W,1,0,0.0,43.8750,M,0.0000,M,0.0000,0
$GPRMC,205112.00,A,3726.2374600,N,12214.4477660,W,20.6494,202.5494,190721,,,,
$GPGGA,205113.00,3726.2272480,N,12214.4533160,W,1,0,0.0,44.3099,M,0.0000,M,0.0000,0
$GPRMC,205113.00,A,3726.2272480,N,12214.4533160,W,20.4273,204.1113,190721,,,,
$GPGGA,205114.00,3726.2174140,N,12214.4592620,W,1,0,0.0,44.8359,M,0.0000,M,0.0000,0
$GPRMC,205114.00,A,3726.2174140,N,12214.4592620,W,19.9859,207.0472,190721,,,,
$GPGGA,205115.00,3726.2081020,N,12214.4658320,W,1,0,0.0,45.4249,M,0.0000,M,0.0000,0
$GPRMC,205115.00,A,3726.2081020,N,12214.4658320,W,19.6172,211.4341,190721,,,,
$GPGGA,205116.00,3726.1995760,N,12214.4733560,W,1,0,0.0,46.1759,M,0.0000,M,0.0000,0
$GPRMC,205116.00,A,3726.1995760,N,12214.4733560,W,19.0041,217.9869,190721,,,,
$GPGGA,205117.00,3726.1920700,N,12214.4817680,W,1,0,0.0,46.9299,M,0.0000,M,0.0000,0
$GPRMC,205117.00,A,3726.1920700,N,12214.4817680,W,18.3396,224.3165,190721,,,,
$GPGGA,205118.00,3726.1853980,N,12214.4906600,W,1,0,0.0,47.5039,M,0.0000,M,0.0000,0
$GPRMC,205118.00,A,3726.1853980,N,12214.4906600,W,17.7127,227.9383,190721,,,,
$GPGGA,205119.00,3726.1792960,N,12214.4996000,W,1,0,0.0,48.1409,M,0.0000,M,0.0000,0
$GPRMC,205119.00,A,3726.1792960,N,12214.4996000,W,17.0046,230.0300,190721,,,,
$GPGGA,205120.00,3726.1737340,N,12214.5083660,W,1,0,0.0,48.8549,M,0.0000,M,0.0000,0
$GPRMC,205120.00,A,3726.1737340,N,12214.5083660,W,16.0204,232.5316,190721,,,,
$GPGGA,205121.00,3726.1687900,N,12214.5168200,W,1,0,0.0,49.4809,M,0.0000,M,0.0000,0
$GPRMC,205121.00,A,3726.1687900,N,12214.5168200,W,14.8582,234.3405,190721,,,,
$GPGGA,205122.00,3726.1646560,N,12214.5246740,W,1,0,0.0,50.0979,M,0.0000,M,0.0000,0
$GPRMC,205122.00,A,3726.1646560,N,12214.5246740,W,12.8516,238.1558,190721,,,,
$GPGGA,205123.00,3726.1616740,N,12214.5315200,W,1,0,0.0,50.5779,M,0.0000,M,0.0000,0
$GPRMC,205123.00,A,3726.1616740,N,12214.5315200,W,10.0725,243.4971,190721,,,,
$GPGGA,205124.00,3726.1599580,N,12214.5369380,W,1,0,0.0,50.9059,M,0.0000,M,0.0000,0
$GPRMC,205124.00,A,3726.1599580,N,12214.5369380,W,7.2147,250.3885,190721,,,,
$GPGGA,205125.00,3726.1591600,N,12214.5408080,W,1,0,0.0,51.1270,M,0.0000,M,0.0000,0
$GPRMC,205125.00,A,3726.1591600,N,12214.5408080,W,4.6133,256.5820,190721,,,,
$GPGGA,205126.00,3726.1588540,N,12214.5431060,W,1,0,0.0,51.2610,M,0.0000,M,0.0000,0
$GPRMC,205126.00,A,3726.1588540,N,12214.5431060,W,2.4007,260.3298,190721,,,,
$GPGGA,205127.00,3726.1587400,N,12214.5444560,W,1,0,0.0,51.3090,M,0.0000,M,0.0000,0
$GPRMC,205127.00,A,3726.1587400,N,12214.5444560,W,1.9844,262.3821,190721,,,,
$GPGGA,205128.00,3726.1586320,N,12214.5461720,W,1,0,0.0,51.3590,M,0.0000,M,0.0000,0
$GPRMC,205128.00,A,3726.1586320,N,12214.5461720,W,3.6118,264.8588,190721,,,,
$GPGGA,205129.00,3726.1585840,N,12214.5494780,W,1,0,0.0,51.4870,M,0.0000,M,0.0000,0
$GPRMC,205129.00,A,3726.1585840,N,12214.5494780,W,6.0956,269.3638,190721,,,,
$GPGGA,205130.00,3726.1588780,N,12214.5541640,W,1,0,0.0,51.7280,M,0.0000,M,0.0000,0
$GPRMC,205130.00,A,3726.1588780,N,12214.5541640,W,7.6422,275.9415,190721,,,,
$GPGGA,205131.00,3726.1597540,N,12214.5595160,W,1,0,0.0,52.1369,M,0.0000,M,0.0000,0
$GPRMC,205131.00,A,3726.1597540,N,12214.5595160,W,8.5272,283.3863,190721,,,,
$GPGGA,205132.00,3726.1612000,N,12214.5653960,W,1,0,0.0,52.5069,M,0.0000,M,0.0000,0
$GPRMC,205132.00,A,3726.1612000,N,12214.5653960,W,9.6848,288.0938,190721,,,,
$GPGGA,205133.00,3726.1630480,N,12214.5718820,W,1,0,0.0,52.9739,M,0.0000,M,0.0000,0
$GPRMC,205133.00,A,3726.1630480,N,12214.5718820,W,10.6552,290.3217,190721,,,,
$GPGGA,205134.00,3726.1652860,N,12214.5788300,W,1,0,0.0,53.5229,M,0.0000,M,0.0000,0
$GPRMC,205134.00,A,3726.1652860,N,12214.5788300,W,11.3896,292.6022,190721,,,,
$GPGGA,205135.00,3726.1678360,N,12214.5860360,W,1,0,0.0,54.1349,M,0.0000,M,0.0000,0
$GPRMC,205135.00,A,3726.1678360,N,12214.5860360,W,11.8514,294.4659,190721,,,,
$GPGGA,205136.00,3726.1706020,N,12214.5933200,W,1,0,0.0,54.8209,M,0.0000,M,0.0000,0
$GPRMC,205136.00,A,3726.1706020,N,12214.5933200,W,11.7902,295.7077,190721,,,,
$GPGGA,205137.00,3726.1733500,N,12214.6003040,W,1,0,0.0,55.4919,M,0.0000,M,0.0000,0
$GPRMC,205137.00,A,3726.1733500,N,12214.6003040,W,11.1568,296.2900,190721,,,,
$GPGGA,205138.00,3726.1759840,N,12214.6069640,W,1,0,0.0,56.1299,M,0.0000,M,0.0000,0
$GPRMC,205138.00,A,3726.1759840,N,12214.6069640,W,10.9062,296.3805,190721,,,,
$GPGGA,205139.00,3726.1786540,N,12214.6136000,W,1,0,0.0,56.7309,M,0.0000,M,0.0000,0
$GPRMC,205139.00,A,3726.1786540,N,12214.6136000,W,11.0911,296.8189,190721,,,,
$GPGGA,205140.00,3726.1814920,N,12214.6204160,W,1,0,0.0,57.3799,M,0.0000,M,0.0000,0
$GPRMC,205140.00,A,3726.1814920,N,12214.6204160,W,11.6723,297.9020,190721,,,,
$GPGGA,205141.00,3726.1846120,N,12214.6274960,W,1,0,0.0,58.0899,M,0.0000,M,0.0000,0
$GPRMC,205141.00,A,3726.1846120,N,12214.6274960,W,12.0838,299.3147,190721,,,,
$GPGGA,205142.00,3726.1879600,N,12214.6345880,W,1,0,0.0,58.8219,M,0.0000,M,0.0000,0
$GPRMC,205142.00,A,3726.1879600,N,12214.6345880,W,12.2823,301.2156,190721,,,,
$GPGGA,205143.00,3726.1916320,N,12214.6416320,W,1,0,0.0,59.5519,M,0.0000,M,0.0000,0
$GPRMC,205143.00,A,3726.1916320,N,12214.6416320,W,12.5722,304.2058,190721,,,,
$GPGGA,205144.00,3726.1956580,N,12214.6486100,W,1,0,0.0,60.2719,M,0.0000,M,0.0000,0
$GPRMC,205144.00,A,3726.1956580,N,12214.6486100,W,12.8728,306.6894,190721,,,,
$GPGGA,205145.00,3726.1999960,N,12214.6555520,W,1,0,0.0,61.0658,M,0.0000,M,0.0000,0
$GPRMC,205145.00,A,3726.1999960,N,12214.6555520,W,13.1618,308.7476,190721,,,,
$GPGGA,205146.00,3726.2046340,N,12214.6624340,W,1,0,0.0,61.8718,M,0.0000,M,0.0000,0
$GPRMC,205146.00,A,3726.2046340,N,12214.6624340,W,13.4258,310.9978,190721,,,,
$GPGGA,205147.00,3726.2095360,N,12214.6692620,W,1,0,0.0,62.7248,M,0.0000,M,0.0000,0
$GPRMC,205147.00,A,3726.2095360,N,12214.6692620,W,13.7007,312.2062,190721,,,,
$GPGGA,205148.00,3726.2146000,N,12214.6761620,W,1,0,0.0,63.5798,M,0.0000,M,0.0000,0
$GPRMC,205148.00,A,3726.2146000,N,12214.6761620,W,13.9423,312.6798,190721,,,,
$GPGGA,205149.00,3726.2197420,N,12214.6831640,W,1,0,0.0,64.3878,M,0.0000,M,0.0000,0
$GPRMC,205149.00,A,3726.2197420,N,12214.6831640,W,14.1757,312.3824,190721,,,,
$GPGGA,205150.00,3726.2249680,N,12214.6903640,W,1,0,0.0,65.1619,M,0.0000,M,0.0000,0
$GPRMC,205150.00,A,3726.2249680,N,12214.6903640,W,14.5612,312.0870,190721,,,,
$GPGGA,205151.00,3726.2303500,N,12214.6977920,W,1,0,0.0,65.8449,M,0.0000,M,0.0000,0
$GPRMC,205151.00,A,3726.2303500,N,12214.6977920,W,15.0339,312.3157,190721,,,,
$GPGGA,205152.00,3726.2359300,N,12214.7054240,W,1,0,0.0,66.5399,M,0.0000,M,0.0000,0
$GPRMC,205152.00,A,3726.2359300,N,12214.7054240,W,15.5434,312.6205,190721,,,,
$GPGGA,205153.00,3726.2417680,N,12214.7133080,W,1,0,0.0,67.2009,M,0.0000,M,0.0000,0
$GPRMC,205153.00,A,3726.2417680,N,12214.7133080,W,16.1952,312.7951,190721,,,,
$GPGGA,205154.00,3726.2478400,N,12214.7215220,W,1,0,0.0,67.8849,M,0.0000,M,0.0000,0
$GPRMC,205154.00,A,3726.2478400,N,12214.7215220,W,16.8560,312.8382,190721,,,,
$GPGGA,205155.00,3726.2542120,N,12214.7299820,W,1,0,0.0,68.5939,M,0.0000,M,0.0000,0
$GPRMC,205155.00,A,3726.2542120,N,12214.7299820,W,17.4630,313.4349,190721,,,,
$GPGGA,205156.00,3726.2607700,N,12214.7385560,W,1,0,0.0,69.3159,M,0.0000,M,0.0000,0
$GPRMC,205156.00,A,3726.2607700,N,12214.7385560,W,17.5471,313.9914,190721,,,,
$GPGGA,205157.00,3726.2674000,N,12214.7470580,W,1,0,0.0,70.0578,M,0.0000,M,0.0000,0
$GPRMC,205157.00,A,3726.2674000,N,12214.7470580,W,17.5261,314.4760,190721,,,,
$GPGGA,205158.00,3726.2739880,N,12214.7555660,W,1,0,0.0,70.8258,M,0.0000,M,0.0000,0
$GPRMC,205158.00,A,3726.2739880,N,12214.7555660,W,17.4579,313.4695,190721,,,,
$GPGGA,205159.00,3726.2804380,N,12214.7643500,W,1,0,0.0,71.5749,M,0.0000,M,0.0000,0
$GPRMC,205159.00,A,3726.2804380,N,12214.7643500,W,17.8147,312.0763,190721,,,,
$GPGGA,205200.00,3726.2869900,N,12214.7734160,W,1,0,0.0,72.3288,M,0.0000,M,0.0000,0
$GPRMC,205200.00,A,3726.2869900,N,12214.7734160,W,18.4111,312.2775,190721,,,,
$GPGGA,205201.00,3726.2939140,N,12214.7827280,W,1,0,0.0,73.1258,M,0.0000,M,0.0000,0
$GPRMC,205201.00,A,3726.2939140,N,12214.7827280,W,18.9865,313.4259,190721,,,,
$GPGGA,205202.00,3726.3011500,N,12214.7920940,W,1,0,0.0,73.9318,M,0.0000,M,0.0000,0
$GPRMC,205202.00,A,3726.3011500,N,12214.7920940,W,19.5680,314.5067,190721,,,,
$GPGGA,205203.00,3726.3086440,N,12214.8014600,W,1,0,0.0,74.7658,M,0.0000,M,0.0000,0
$GPRMC,205203.00,A,3726.3086440,N,12214.8014600,W,19.4886,315.4377,190721,,,,
$GPGGA,205204.00,3726.3161680,N,12214.8106460,W,1,0,0.0,75.5249,M,0.0000,M,0.0000,0
$GPRMC,205204.00,A,3726.3161680,N,12214.8106460,W,19.4040,315.8317,190721,,,,
$GPGGA,205205.00,3726.3236980,N,12214.8197720,W,1,0,0.0,76.2878,M,0.0000,M,0.0000,0
$GPRMC,205205.00,A,3726.3236980,N,12214.8197720,W,19.2578,315.8260,190721,,,,
$GPGGA,205206.00,3726.3310840,N,12214.8288080,W,1,0,0.0,77.0488,M,0.0000,M,0.0000,0
$GPRMC,205206.00,A,3726.3310840,N,12214.8288080,W,19.0087,315.4008,190721,,,,
$GPGGA,205207.00,3726.3383860,N,12214.8379100,W,1,0,0.0,77.8059,M,0.0000,M,0.0000,0
$GPRMC,205207.00,A,3726.3383860,N,12214.8379100,W,19.1053,314.8991,190721,,,,
$GPGGA,205208.00,3726.3457240,N,12214.8471380,W,1,0,0.0,78.5728,M,0.0000,M,0.0000,0
$GPRMC,205208.00,A,3726.3457240,N,12214.8471380,W,19.3846,314.7419,190721,,,,
$GPGGA,205209.00,3726.3531940,N,12214.8565880,W,1,0,0.0,79.3598,M,0.0000,M,0.0000,0
$GPRMC,205209.00,A,3726.3531940,N,12214.8565880,W,19.8771,314.5559,190721,,,,
$GPGGA,205210.00,3726.3608140,N,12214.8662720,W,1,0,0.0,80.1688,M,0.0000,M,0.0000,0
$GPRMC,205210.00,A,3726.3608140,N,12214.8662720,W,20.2137,314.5237,190721,,,,
$GPGGA,205211.00,3726.3685420,N,12214.8761060,W,1,0,0.0,80.9778,M,0.0000,M,0.0000,0
$GPRMC,205211.00,A,3726.3685420,N,12214.8761060,W,20.5180,314.4839,190721,,,,
$GPGGA,205212.00,3726.3763540,N,12214.8860360,W,1,0,0.0,81.7948,M,0.0000,M,0.0000,0
$GPRMC,205212.00,A,3726.3763540,N,12214.8860360,W,20.5836,314.5760,190721,,,,
$GPGGA,205213.00,3726.3841840,N,12214.8959660,W,1,0,0.0,82.6198,M,0.0000,M,0.0000,0
$GPRMC,205213.00,A,3726.3841840,N,12214.8959660,W,20.6245,314.5798,190721,,,,
$GPGGA,205214.00,3726.3920320,N,12214.9059680,W,1,0,0.0,83.4388,M,0.0000,M,0.0000,0
$GPRMC,205214.00,A,3726.3920320,N,12214.9059680,W,20.7733,314.2395,190721,,,,
$GPGGA,205215.00,3726.3998740,N,12214.9161080,W,1,0,0.0,84.2768,M,0.0000,M,0.0000,0
$GPRMC,205215.00,A,3726.3998740,N,12214.9161080,W,20.8872,313.9867,190721,,,,
$GPGGA,205216.00,3726.4077340,N,12214.9263020,W,1,0,0.0,85.1458,M,0.0000,M,0.0000,0
$GPRMC,205216.00,A,3726.4077340,N,12214.9263020,W,20.9260,313.8799,190721,,,,
$GPGGA,205217.00,3726.4156000,N,12214.9365800,W,1,0,0.0,86.0148,M,0.0000,M,0.0000,0
$GPRMC,205217.00,A,3726.4156000,N,12214.9365800,W,21.1207,313.6091,190721,,,,
$GPGGA,205218.00,3726.4234960,N,12214.9469600,W,1,0,0.0,86.8688,M,0.0000,M,0.0000,0
$GPRMC,205218.00,A,3726.4234960,N,12214.9469600,W,21.1744,313.5052,190721,,,,
$GPGGA,205219.00,3726.4313860,N,12214.9573460,W,1,0,0.0,87.7188,M,0.0000,M,0.0000,0
$GPRMC,205219.00,A,3726.4313860,N,12214.9573460,W,21.1389,313.6562,190721,,,,
$GPGGA,205220.00,3726.4392940,N,12214.9676840,W,1,0,0.0,88.5658,M,0.0000,M,0.0000,0
$GPRMC,205220.00,A,3726.4392940,N,12214.9676840,W,21.1227,313.7801,190721,,,,
$GPGGA,205221.00,3726.4472140,N,12214.9780100,W,1,0,0.0,89.3988,M,0.0000,M,0.0000,0
$GPRMC,205221.00,A,3726.4472140,N,12214.9780100,W,21.1527,313.7927,190721,,,,
$GPGGA,205222.00,3726.4551940,N,12214.9883780,W,1,0,0.0,90.2308,M,0.0000,M,0.0000,0
$GPRMC,205222.00,A,3726.4551940,N,12214.9883780,W,21.3817,313.9818,190721,,,,
$GPGGA,205223.00,3726.4632760,N,12214.9988300,W,1,0,0.0,91.0828,M,0.0000,M,0.0000,0
$GPRMC,205223.00,A,3726.4632760,N,12214.9988300,W,21.5800,314.0118,190721,,,,
$GPGGA,205224.00,3726.4714360,N,12215.0094200,W,1,0,0.0,91.9378,M,0.0000,M,0.0000,0
$GPRMC,205224.00,A,3726.4714360,N,12215.0094200,W,21.8417,313.8891,190721,,,,
$GPGGA,205225.00,3726.4796860,N,12215.0201180,W,1,0,0.0,92.8088,M,0.0000,M,0.0000,0
$GPRMC,205225.00,A,3726.4796860,N,12215.0201180,W,22.0746,313.9645,190721,,,,
$GPGGA,205226.00,3726.4880140,N,12215.0309480,W,1,0,0.0,93.7568,M,0.0000,M,0.0000,0
$GPRMC,205226.00,A,3726.4880140,N,12215.0309480,W,22.2843,313.8036,190721,,,,
$GPGGA,205227.00,3726.4963900,N,12215.0418920,W,1,0,0.0,94.7648,M,0.0000,M,0.0000,0
$GPRMC,205227.00,A,3726.4963900,N,12215.0418920,W,22.4723,313.7771,190721,,,,
$GPGGA,205228.00,3726.5048260,N,12215.0529380,W,1,0,0.0,95.7988,M,0.0000,M,0.0000,0
$GPRMC,205228.00,A,3726.5048260,N,12215.0529380,W,22.6577,313.7149,190721,,,,
$GPGGA,205229.00,3726.5133400,N,12215.0640680,W,1,0,0.0,96.8418,M,0.0000,M,0.0000,0
$GPRMC,205229.00,A,3726.5133400,N,12215.0640680,W,22.8133,313.8326,190721,,,,
$GPGGA,205230.00,3726.5218600,N,12215.0752460,W,1,0,0.0,97.8968,M,0.0000,M,0.0000,0
$GPRMC,205230.00,A,3726.5218600,N,12215.0752460,W,22.7730,313.5455,190721,,,,
$GPGGA,205231.00,3726.5302540,N,12215.0864960,W,1,0,0.0,98.8768,M,0.0000,M,0.0000,0
$GPRMC,205231.00,A,3726.5302540,N,12215.0864960,W,22.6807,312.5197,190721,,,,
$GPGGA,205232.00,3726.5384080,N,12215.0979560,W,1,0,0.0,99.8188,M,0.0000,M,0.0000,0
$GPRMC,205232.00,A,3726.5384080,N,12215.0979560,W,22.6221,311.0417,190721,,,,
$GPGGA,205233.00,3726.5463040,N,12215.1096680,W,1,0,0.0,100.7158,M,0.0000,M,0.0000,0
$GPRMC,205233.00,A,3726.5463040,N,12215.1096680,W,22.5929,309.5537,190721,,,,
$GPGGA,205234.00,3726.5539600,N,12215.1215840,W,1,0,0.0,101.6288,M,0.0000,M,0.0000,0
$GPRMC,205234.00,A,3726.5539600,N,12215.1215840,W,22.5390,308.2370,190721,,,,
$GPGGA,205235.00,3726.5613340,N,12215.1337220,W,1,0,0.0,102.5138,M,0.0000,M,0.0000,0
$GPRMC,205235.00,A,3726.5613340,N,12215.1337220,W,22.4683,306.5270,190721,,,,
$GPGGA,205236.00,3726.5684200,N,12215.1460820,W,1,0,0.0,103.4008,M,0.0000,M,0.0000,0
$GPRMC,205236.00,A,3726.5684200,N,12215.1460820,W,22.4155,304.9446,190721,,,,
$GPGGA,205237.00,3726.5752300,N,12215.1586400,W,1,0,0.0,104.2578,M,0.0000,M,0.0000,0
$GPRMC,205237.00,A,3726.5752300,N,12215.1586400,W,22.3680,303.5275,190721,,,,
$GPGGA,205238.00,3726.5817640,N,12215.1713780,W,1,0,0.0,105.1478,M,0.0000,M,0.0000,0
$GPRMC,205238.00,A,3726.5817640,N,12215.1713780,W,22.3209,302.1078,190721,,,,
$GPGGA,205239.00,3726.5880400,N,12215.1842960,W,1,0,0.0,106.0178,M,0.0000,M,0.0000,0
$GPRMC,205239.00,A,3726.5880400,N,12215.1842960,W,22.2733,300.6954,190721,,,,
$GPGGA,205240.00,3726.5940760,N,12215.1973520,W,1,0,0.0,106.8898,M,0.0000,M,0.0000,0
$GPRMC,205240.00,A,3726.5940760,N,12215.1973520,W,22.2604,299.5508,190721,,,,
$GPGGA,205241.00,3726.5999020,N,12215.2105640,W,1,0,0.0,107.7518,M,0.0000,M,0.0000,0
$GPRMC,205241.00,A,3726.5999020,N,12215.2105640,W,22.2628,298.3641,190721,,,,
$GPGGA,205242.00,3726.6054940,N,12215.2239380,W,1,0,0.0,108.6318,M,0.0000,M,0.0000,0
$GPRMC,205242.00,A,3726.6054940,N,12215.2239380,W,22.2674,296.9860,190721,,,,
$GPGGA,205243.00,3726.6108160,N,12215.2374860,W,1,0,0.0,109.5198,M,0.0000,M,0.0000,0
$GPRMC,205243.00,A,3726.6108160,N,12215.2374860,W,22.2640,295.5491,190721,,,,
$GPGGA,205244.00,3726.6158620,N,12215.2511720,W,1,0,0.0,110.4028,M,0.0000,M,0.0000,0
$GPRMC,205244.00,A,3726.6158620,N,12215.2511720,W,22.1692,294.1895,190721,,,,
$GPGGA,205245.00,3726.6206200,N,12215.2649360,W,1,0,0.0,111.2768,M,0.0000,M,0.0000,0
$GPRMC,205245.00,A,3726.6206200,N,12215.2649360,W,22.0640,292.7200,190721,,,,
$GPGGA,205246.00,3726.6250720,N,12215.2787720,W,1,0,0.0,112.1368,M,0.0000,M,0.0000,0
$GPRMC,205246.00,A,3726.6250720,N,12215.2787720,W,21.9878,291.2472,190721,,,,
$GPGGA,205247.00,3726.6292420,N,12215.2927580,W,1,0,0.0,112.9988,M,0.0000,M,0.0000,0
$GPRMC,205247.00,A,3726.6292420,N,12215.2927580,W,21.9780,289.8371,190721,,,,
$GPGGA,205248.00,3726.6331180,N,12215.3066900,W,1,0,0.0,113.8428,M,0.0000,M,0.0000,0
$GPRMC,205248.00,A,3726.6331180,N,12215.3066900,W,21.5513,288.6962,190721,,,,
$GPGGA,205249.00,3726.6367360,N,12215.3205740,W,1,0,0.0,114.7088,M,0.0000,M,0.0000,0
$GPRMC,205249.00,A,3726.6367360,N,12215.3205740,W,21.5599,287.5707,190721,,,,
$GPGGA,205250.00,3726.6401260,N,12215.3345540,W,1,0,0.0,115.5468,M,0.0000,M,0.0000,0
$GPRMC,205250.00,A,3726.6401260,N,12215.3345540,W,21.5113,286.3129,190721,,,,
$GPGGA,205251.00,3726.6432460,N,12215.3485760,W,1,0,0.0,116.4008,M,0.0000,M,0.0000,0
$GPRMC,205251.00,A,3726.6432460,N,12215.3485760,W,21.4183,284.9145,190721,,,,
$GPGGA,205252.00,3726.6460720,N,12215.3626220,W,1,0,0.0,117.2438,M,0.0000,M,0.0000,0
$GPRMC,205252.00,A,3726.6460720,N,12215.3626220,W,21.3205,283.5084,190721,,,,
$GPGGA,205253.00,3726.6486220,N,12215.3767040,W,1,0,0.0,118.0508,M,0.0000,M,0.0000,0
$GPRMC,205253.00,A,3726.6486220,N,12215.3767040,W,21.2374,282.1156,190721,,,,
$GPGGA,205254.00,3726.6508900,N,12215.3907980,W,1,0,0.0,118.8418,M,0.0000,M,0.0000,0
$GPRMC,205254.00,A,3726.6508900,N,12215.3907980,W,21.1633,280.8311,190721,,,,
$GPGGA,205255.00,3726.6529000,N,12215.4049040,W,1,0,0.0,119.5668,M,0.0000,M,0.0000,0
$GPRMC,205255.00,A,3726.6529000,N,12215.4049040,W,21.0961,279.6389,190721,,,,
$GPGGA,205256.00,3726.6547000,N,12215.4190160,W,1,0,0.0,120.2508,M,0.0000,M,0.0000,0
$GPRMC,205256.00,A,3726.6547000,N,12215.4190160,W,21.0674,278.5417,190721,,,,
$GPGGA,205257.00,3726.6562600,N,12215.4331760,W,1,0,0.0,120.9149,M,0.0000,M,0.0000,0
$GPRMC,205257.00,A,3726.6562600,N,12215.4331760,W,21.0880,277.2631,190721,,,,
$GPGGA,205258.00,3726.6575440,N,12215.4473780,W,1,0,0.0,121.5499,M,0.0000,M,0.0000,0
$GPRMC,205258.00,A,3726.6575440,N,12215.4473780,W,21.0710,275.8132,190721,,,,
$GPGGA,205259.00,3726.6585460,N,12215.4616160,W,1,0,0.0,122.1679,M,0.0000,M,0.0000,0
$GPRMC,205259.00,A,3726.6585460,N,12215.4616160,W,21.0751,274.3552,190721,,,,
$GPGGA,205300.00,3726.6592660,N,12215.4758960,W,1,0,0.0,122.7229,M,0.0000,M,0.0000,0
$GPRMC,205300.00,A,3726.6592660,N,12215.4758960,W,21.1282,272.9841,190721,,,,
$GPGGA,205301.00,3726.6597160,N,12215.4902360,W,1,0,0.0,123.2419,M,0.0000,M,0.0000,0
$GPRMC,205301.00,A,3726.6597160,N,12215.4902360,W,21.1881,271.6588,190721,,,,
$GPGGA,205302.00,3726.6599260,N,12215.5046300,W,1,0,0.0,123.7399,M,0.0000,M,0.0000,0
$GPRMC,205302.00,A,3726.6599260,N,12215.5046300,W,21.2599,270.4040,190721,,,,
$GPGGA,205303.00,3726.6598540,N,12215.5190840,W,1,0,0.0,124.2079,M,0.0000,M,0.0000,0
$GPRMC,205303.00,A,3726.6598540,N,12215.5190840,W,21.3834,268.9834,190721,,,,
$GPGGA,205304.00,3726.6594940,N,12215.5336340,W,1,0,0.0,124.6109,M,0.0000,M,0.0000,0
$GPRMC,205304.00,A,3726.6594940,N,12215.5336340,W,21.5521,267.5920,190721,,,,
$GPGGA,205305.00,3726.6588820,N,12215.5483040,W,1,0,0.0,124.9599,M,0.0000,M,0.0000,0
$GPRMC,205305.00,A,3726.6588820,N,12215.5483040,W,21.7603,266.4447,190721,,,,
$GPGGA,205306.00,3726.6580420,N,12215.5631060,W,1,0,0.0,125.2329,M,0.0000,M,0.0000,0
$GPRMC,205306.00,A,3726.6580420,N,12215.5631060,W,22.0137,265.4145,190721,,,,
$GPGGA,205307.00,3726.6569860,N,12215.5780820,W,1,0,0.0,125.4679,M,0.0000,M,0.0000,0
$GPRMC,205307.00,A,3726.6569860,N,12215.5780820,W,22.3642,264.4868,190721,,,,
$GPGGA,205308.00,3726.6557800,N,12215.5933220,W,1,0,0.0,125.6680,M,0.0000,M,0.0000,0
$GPRMC,205308.00,A,3726.6557800,N,12215.5933220,W,22.7538,264.2524,190721,,,,
$GPGGA,205309.00,3726.6545740,N,12215.6087540,W,1,0,0.0,125.8210,M,0.0000,M,0.0000,0
$GPRMC,205309.00,A,3726.6545740,N,12215.6087540,W,22.9817,264.3625,190721,,,,
$GPGGA,205310.00,3726.6533620,N,12215.6243420,W,1,0,0.0,125.9400,M,0.0000,M,0.0000,0
$GPRMC,205310.00,A,3726.6533620,N,12215.6243420,W,23.2289,264.3036,190721,,,,
$GPGGA,205311.00,3726.6521080,N,12215.6401640,W,1,0,0.0,126.0230,M,0.0000,M,0.0000,0
$GPRMC,205311.00,A,3726.6521080,N,12215.6401640,W,23.6898,264.1468,190721,,,,
$GPGGA,205312.00,3726.6508120,N,12215.6561840,W,1,0,0.0,126.1420,M,0.0000,M,0.0000,0
$GPRMC,205312.00,A,3726.6508120,N,12215.6561840,W,23.6602,264.1126,190721,,,,
$GPGGA,205313.00,3726.6495100,N,12215.6720360,W,1,0,0.0,126.2980,M,0.0000,M,0.0000,0
$GPRMC,205313.00,A,3726.6495100,N,12215.6720360,W,23.3302,263.9901,190721,,,,
$GPGGA,205314.00,3726.6482080,N,12215.6876420,W,1,0,0.0,126.4750,M,0.0000,M,0.0000,0
$GPRMC,205314.00,A,3726.6482080,N,12215.6876420,W,22.9553,263.8982,190721,,,,
$GPGGA,205315.00,3726.6469120,N,12215.7029900,W,1,0,0.0,126.6500,M,0.0000,M,0.0000,0
$GPRMC,205315.00,A,3726.6469120,N,12215.7029900,W,22.5817,263.8907,190721,,,,
$GPGGA,205316.00,3726.6456820,N,12215.7181040,W,1,0,0.0,126.7560,M,0.0000,M,0.0000,0
$GPRMC,205316.00,A,3726.6456820,N,12215.7181040,W,22.2267,264.2235,190721,,,,
$GPGGA,205317.00,3726.6445120,N,12215.7329780,W,1,0,0.0,126.9050,M,0.0000,M,0.0000,0
$GPRMC,205317.00,A,3726.6445120,N,12215.7329780,W,21.8682,264.2750,190721,,,,
$GPGGA,205318.00,3726.6433660,N,12215.7476120,W,1,0,0.0,127.0280,M,0.0000,M,0.0000,0
$GPRMC,205318.00,A,3726.6433660,N,12215.7476120,W,21.5188,264.2877,190721,,,,
$GPGGA,205319.00,3726.6422560,N,12215.7620240,W,1,0,0.0,127.1240,M,0.0000,M,0.0000,0
$GPRMC,205319.00,A,3726.6422560,N,12215.7620240,W,21.1827,264.5320,190721,,,,
$GPGGA,205320.00,3726.6412060,N,12215.7762140,W,1,0,0.0,127.1770,M,0.0000,M,0.0000,0
$GPRMC,205320.00,A,3726.6412060,N,12215.7762140,W,20.8642,264.7044,190721,,,,
$GPGGA,205321.00,3726.6401980,N,12215.7901940,W,1,0,0.0,127.2760,M,0.0000,M,0.0000,0
$GPRMC,205321.00,A,3726.6401980,N,12215.7901940,W,20.5372,264.7101,190721,,,,
$GPGGA,205322.00,3726.6391900,N,12215.8039520,W,1,0,0.0,127.3730,M,0.0000,M,0.0000,0
$GPRMC,205322.00,A,3726.6391900,N,12215.8039520,W,20.2206,264.5357,190721,,,,
$GPGGA,205323.00,3726.6381400,N,12215.8175120,W,1,0,0.0,127.4340,M,0.0000,M,0.0000,0
$GPRMC,205323.00,A,3726.6381400,N,12215.8175120,W,19.9700,264.3071,190721,,,,
$GPGGA,205324.00,3726.6371200,N,12215.8308800,W,1,0,0.0,127.5050,M,0.0000,M,0.0000,0
$GPRMC,205324.00,A,3726.6371200,N,12215.8308800,W,19.7432,264.5579,190721,,,,
$GPGGA,205325.00,3726.6361900,N,12215.8443080,W,1,0,0.0,127.5440,M,0.0000,M,0.0000,0
$GPRMC,205325.00,A,3726.6361900,N,12215.8443080,W,20.0977,265.2735,190721,,,,
$GPGGA,205326.00,3726.6354400,N,12215.8580420,W,1,0,0.0,127.5470,M,0.0000,M,0.0000,0
$GPRMC,205326.00,A,3726.6354400,N,12215.8580420,W,20.5223,266.7001,190721,,,,
$GPGGA,205327.00,3726.6350140,N,12215.8720820,W,1,0,0.0,127.5190,M,0.0000,M,0.0000,0
$GPRMC,205327.00,A,3726.6350140,N,12215.8720820,W,20.9450,268.5376,190721,,,,
$GPGGA,205328.00,3726.6348520,N,12215.8863680,W,1,0,0.0,127.5040,M,0.0000,M,0.0000,0
$GPRMC,205328.00,A,3726.6348520,N,12215.8863680,W,21.1107,269.5352,190721,,,,
$GPGGA,205329.00,3726.6349180,N,12215.9007380,W,1,0,0.0,127.4360,M,0.0000,M,0.0000,0
$GPRMC,205329.00,A,3726.6349180,N,12215.9007380,W,21.3688,270.7321,190721,,,,
$GPGGA,205330.00,3726.6352120,N,12215.9153600,W,1,0,0.0,127.3590,M,0.0000,M,0.0000,0
$GPRMC,205330.00,A,3726.6352120,N,12215.9153600,W,21.7976,271.8246,190721,,,,
$GPGGA,205331.00,3726.6357340,N,12215.9302700,W,1,0,0.0,127.2400,M,0.0000,M,0.0000,0
$GPRMC,205331.00,A,3726.6357340,N,12215.9302700,W,22.2333,272.9746,190721,,,,
$GPGGA,205332.00,3726.6365500,N,12215.9454440,W,1,0,0.0,127.0980,M,0.0000,M,0.0000,0
$GPRMC,205332.00,A,3726.6365500,N,12215.9454440,W,22.6444,274.4068,190721,,,,
$GPGGA,205333.00,3726.6376900,N,12215.9608640,W,1,0,0.0,126.9020,M,0.0000,M,0.0000,0
$GPRMC,205333.00,A,3726.6376900,N,12215.9608640,W,23.0663,275.8231,190721,,,,
$GPGGA,205334.00,3726.6391420,N,12215.9765480,W,1,0,0.0,126.6791,M,0.0000,M,0.0000,0
$GPRMC,205334.00,A,3726.6391420,N,12215.9765480,W,23.5238,277.1838,190721,,,,
$GPGGA,205335.00,3726.6409300,N,12215.9925020,W,1,0,0.0,126.3831,M,0.0000,M,0.0000,0
$GPRMC,205335.00,A,3726.6409300,N,12215.9925020,W,24.0585,278.4523,190721,,,,
$GPGGA,205336.00,3726.6430240,N,12216.0088160,W,1,0,0.0,126.0781,M,0.0000,M,0.0000,0
$GPRMC,205336.00,A,3726.6430240,N,12216.0088160,W,24.6648,279.5139,190721,,,,
$GPGGA,205337.00,3726.6454240,N,12216.0254360,W,1,0,0.0,125.7321,M,0.0000,M,0.0000,0
$GPRMC,205337.00,A,3726.6454240,N,12216.0254360,W,25.1589,280.7834,190721,,,,
$GPGGA,205338.00,3726.6481900,N,12216.0422780,W,1,0,0.0,125.3851,M,0.0000,M,0.0000,0
$GPRMC,205338.00,A,3726.6481900,N,12216.0422780,W,25.5729,282.3364,190721,,,,
$GPGGA,205339.00,3726.6514000,N,12216.0592460,W,1,0,0.0,125.0221,M,0.0000,M,0.0000,0
$GPRMC,205339.00,A,3726.6514000,N,12216.0592460,W,25.8245,284.1458,190721,,,,
$GPGGA,205340.00,3726.6550300,N,12216.0761120,W,1,0,0.0,124.6671,M,0.0000,M,0.0000,0
$GPRMC,205340.00,A,3726.6550300,N,12216.0761120,W,25.6962,285.7877,190721,,,,
$GPGGA,205341.00,3726.6590020,N,12216.0927320,W,1,0,0.0,124.2821,M,0.0000,M,0.0000,0
$GPRMC,205341.00,A,3726.6590020,N,12216.0927320,W,25.5063,287.3065,190721,,,,
$GPGGA,205342.00,3726.6632920,N,12216.1091000,W,1,0,0.0,123.9171,M,0.0000,M,0.0000,0
$GPRMC,205342.00,A,3726.6632920,N,12216.1091000,W,25.3200,288.8348,190721,,,,
$GPGGA,205343.00,3726.6678880,N,12216.1251920,W,1,0,0.0,123.5431,M,0.0000,M,0.0000,0
$GPRMC,205343.00,A,3726.6678880,N,12216.1251920,W,25.1294,290.3010,190721,,,,
$GPGGA,205344.00,3726.6727720,N,12216.1410200,W,1,0,0.0,123.1761,M,0.0000,M,0.0000,0
$GPRMC,205344.00,A,3726.6727720,N,12216.1410200,W,24.9820,291.7718,190721,,,,
$GPGGA,205345.00,3726.6779800,N,12216.1566920,W,1,0,0.0,122.7441,M,0.0000,M,0.0000,0
$GPRMC,205345.00,A,3726.6779800,N,12216.1566920,W,25.1717,293.1978,190721,,,,
$GPGGA,205346.00,3726.6835180,N,12216.1723940,W,1,0,0.0,122.3431,M,0.0000,M,0.0000,0
$GPRMC,205346.00,A,3726.6835180,N,12216.1723940,W,25.4690,294.2286,190721,,,,
$GPGGA,205347.00,3726.6893500,N,12216.1880900,W,1,0,0.0,122.0141,M,0.0000,M,0.0000,0
$GPRMC,205347.00,A,3726.6893500,N,12216.1880900,W,25.6099,295.4774,190721,,,,
$GPGGA,205348.00,3726.6954940,N,12216.2037200,W,1,0,0.0,121.6581,M,0.0000,M,0.0000,0
$GPRMC,205348.00,A,3726.6954940,N,12216.2037200,W,25.7909,296.7794,190721,,,,
$GPGGA,205349.00,3726.7019680,N,12216.2192780,W,1,0,0.0,121.3441,M,0.0000,M,0.0000,0
$GPRMC,205349.00,A,3726.7019680,N,12216.2192780,W,25.9914,298.1087,190721,,,,
$GPGGA,205350.00,3726.7088080,N,12216.2347460,W,1,0,0.0,121.0251,M,0.0000,M,0.0000,0
$GPRMC,205350.00,A,3726.7088080,N,12216.2347460,W,26.1889,299.7364,190721,,,,
$GPGGA,205351.00,3726.7160800,N,12216.2500280,W,1,0,0.0,120.7801,M,0.0000,M,0.0000,0
$GPRMC,205351.00,A,3726.7160800,N,12216.2500280,W,26.3149,301.4796,190721,,,,
$GPGGA,205352.00,3726.7237060,N,12216.2651540,W,1,0,0.0,120.6120,M,0.0000,M,0.0000,0
$GPRMC,205352.00,A,3726.7237060,N,12216.2651540,W,26.4662,303.0060,190721,,,,
$GPGGA,205353.00,3726.7317160,N,12216.2800700,W,1,0,0.0,120.4950,M,0.0000,M,0.0000,0
$GPRMC,205353.00,A,3726.7317160,N,12216.2800700,W,26.6095,304.6852,190721,,,,
$GPGGA,205354.00,3726.7401160,N,12216.2947640,W,1,0,0.0,120.4190,M,0.0000,M,0.0000,0
$GPRMC,205354.00,A,3726.7401160,N,12216.2947640,W,26.7276,306.3600,190721,,,,
$GPGGA,205355.00,3726.7488760,N,12216.3092120,W,1,0,0.0,120.4370,M,0.0000,M,0.0000,0
$GPRMC,205355.00,A,3726.7488760,N,12216.3092120,W,26.8093,307.7969,190721,,,,
$GPGGA,205356.00,3726.7579000,N,12216.3234380,W,1,0,0.0,120.5719,M,0.0000,M,0.0000,0
$GPRMC,205356.00,A,3726.7579000,N,12216.3234380,W,26.8497,309.0392,190721,,,,
$GPGGA,205357.00,3726.7671880,N,12216.3374300,W,1,0,0.0,120.7929,M,0.0000,M,0.0000,0
$GPRMC,205357.00,A,3726.7671880,N,12216.3374300,W,26.8350,310.2307,190721,,,,
$GPGGA,205358.00,3726.7766440,N,12216.3511760,W,1,0,0.0,121.0579,M,0.0000,M,0.0000,0
$GPRMC,205358.00,A,3726.7766440,N,12216.3511760,W,26.7604,311.1321,190721,,,,
$GPGGA,205359.00,3726.7861660,N,12216.3648200,W,1,0,0.0,121.4089,M,0.0000,M,0.0000,0
$GPRMC,205359.00,A,3726.7861660,N,12216.3648200,W,26.6978,311.0017,190721,,,,
$GPGGA,205400.00,3726.7956460,N,12216.3784280,W,1,0,0.0,121.7799,M,0.0000,M,0.0000,0
$GPRMC,205400.00,A,3726.7956460,N,12216.3784280,W,26.6268,311.0807,190721,,,,
$GPGGA,205401.00,3726.8051200,N,12216.3919820,W,1,0,0.0,122.1549,M,0.0000,M,0.0000,0
$GPRMC,205401.00,A,3726.8051200,N,12216.3919820,W,26.5489,311.1590,190721,,,,
$GPGGA,205402.00,3726.8145820,N,12216.4054820,W,1,0,0.0,122.6169,M,0.0000,M,0.0000,0
$GPRMC,205402.00,A,3726.8145820,N,12216.4054820,W,26.4538,311.2430,190721,,,,
$GPGGA,205403.00,3726.8239960,N,12216.4189280,W,1,0,0.0,123.1329,M,0.0000,M,0.0000,0
$GPRMC,205403.00,A,3726.8239960,N,12216.4189280,W,26.3274,311.1104,190721,,,,
$GPGGA,205404.00,3726.8333320,N,12216.4323440,W,1,0,0.0,123.6899,M,0.0000,M,0.0000,0
$GPRMC,205404.00,A,3726.8333320,N,12216.4323440,W,26.1917,310.9174,190721,,,,
$GPGGA,205405.00,3726.8426080,N,12216.4456940,W,1,0,0.0,124.3188,M,0.0000,M,0.0000,0
$GPRMC,205405.00,A,3726.8426080,N,12216.4456940,W,26.0487,311.0424,190721,,,,
$GPGGA,205406.00,3726.8518600,N,12216.4589540,W,1,0,0.0,125.0088,M,0.0000,M,0.0000,0
$GPRMC,205406.00,A,3726.8518600,N,12216.4589540,W,25.9140,311.1219,190721,,,,
$GPGGA,205407.00,3726.8610640,N,12216.4721240,W,1,0,0.0,125.7348,M,0.0000,M,0.0000,0
$GPRMC,205407.00,A,3726.8610640,N,12216.4721240,W,25.7762,311.1629,190721,,,,
$GPGGA,205408.00,3726.8702320,N,12216.4852340,W,1,0,0.0,126.4478,M,0.0000,M,0.0000,0
$GPRMC,205408.00,A,3726.8702320,N,12216.4852340,W,25.6514,311.1802,190721,,,,
$GPGGA,205409.00,3726.8793580,N,12216.4982720,W,1,0,0.0,127.1808,M,0.0000,M,0.0000,0
$GPRMC,205409.00,A,3726.8793580,N,12216.4982720,W,25.5038,311.1806,190721,,,,
$GPGGA,205410.00,3726.8884420,N,12216.5112260,W,1,0,0.0,127.9178,M,0.0000,M,0.0000,0
$GPRMC,205410.00,A,3726.8884420,N,12216.5112260,W,25.4355,311.3014,190721,,,,
$GPGGA,205411.00,3726.8975440,N,12216.5241740,W,1,0,0.0,128.6758,M,0.0000,M,0.0000,0
$GPRMC,205411.00,A,3726.8975440,N,12216.5241740,W,25.4743,311.3146,190721,,,,
$GPGGA,205412.00,3726.9067060,N,12216.5371160,W,1,0,0.0,129.4028,M,0.0000,M,0.0000,0
$GPRMC,205412.00,A,3726.9067060,N,12216.5371160,W,25.6308,311.6722,190721,,,,
$GPGGA,205413.00,3726.9159940,N,12216.5501180,W,1,0,0.0,130.1138,M,0.0000,M,0.0000,0
$GPRMC,205413.00,A,3726.9159940,N,12216.5501180,W,25.8503,311.7754,190721,,,,
$GPGGA,205414.00,3726.9253480,N,12216.5632040,W,1,0,0.0,130.8478,M,0.0000,M,0.0000,0
$GPRMC,205414.00,A,3726.9253480,N,12216.5632040,W,25.9786,311.7095,190721,,,,
$GPGGA,205415.00,3726.9346600,N,12216.5763680,W,1,0,0.0,131.5918,M,0.0000,M,0.0000,0
$GPRMC,205415.00,A,3726.9346600,N,12216.5763680,W,25.8937,311.0109,190721,,,,
$GPGGA,205416.00,3726.9437920,N,12216.5896340,W,1,0,0.0,132.3298,M,0.0000,M,0.0000,0
$GPRMC,205416.00,A,3726.9437920,N,12216.5896340,W,25.8259,310.3901,190721,,,,
$GPGGA,205417.00,3726.9528100,N,12216.6030140,W,1,0,0.0,133.0288,M,0.0000,M,0.0000,0
$GPRMC,205417.00,A,3726.9528100,N,12216.6030140,W,25.8783,309.8347,190721,,,,
$GPGGA,205418.00,3726.9618220,N,12216.6164900,W,1,0,0.0,133.7148,M,0.0000,M,0.0000,0
$GPRMC,205418.00,A,3726.9618220,N,12216.6164900,W,25.9970,309.8940,190721,,,,
$GPGGA,205419.00,3726.9708460,N,12216.6299780,W,1,0,0.0,134.3638,M,0.0000,M,0.0000,0
$GPRMC,205419.00,A,3726.9708460,N,12216.6299780,W,25.8096,309.9460,190721,,,,
$GPGGA,205420.00,3726.9797140,N,12216.6432980,W,1,0,0.0,134.9359,M,0.0000,M,0.0000,0
$GPRMC,205420.00,A,3726.9797140,N,12216.6432980,W,25.3785,309.5165,190721,,,,
$GPGGA,205421.00,3726.9883660,N,12216.6564740,W,1,0,0.0,135.3659,M,0.0000,M,0.0000,0
$GPRMC,205421.00,A,3726.9883660,N,12216.6564740,W,24.9838,309.3693,190721,,,,
$GPGGA,205422.00,3726.9968860,N,12216.6694760,W,1,0,0.0,135.8389,M,0.0000,M,0.0000,0
$GPRMC,205422.00,A,3726.9968860,N,12216.6694760,W,24.6781,309.3723,190721,,,,
$GPGGA,205423.00,3727.0053520,N,12216.6823760,W,1,0,0.0,136.2449,M,0.0000,M,0.0000,0
$GPRMC,205423.00,A,3727.0053520,N,12216.6823760,W,24.6495,309.3488,190721,,,,
$GPGGA,205424.00,3727.0138300,N,12216.6953180,W,1,0,0.0,136.6149,M,0.0000,M,0.0000,0
$GPRMC,205424.00,A,3727.0138300,N,12216.6953180,W,24.7437,309.3772,190721,,,,
$GPGGA,205425.00,3727.0223440,N,12216.7082300,W,1,0,0.0,137.0628,M,0.0000,M,0.0000,0
$GPRMC,205425.00,A,3727.0223440,N,12216.7082300,W,24.6363,309.5321,190721,,,,
$GPGGA,205426.00,3727.0308520,N,12216.7210400,W,1,0,0.0,137.3659,M,0.0000,M,0.0000,0
$GPRMC,205426.00,A,3727.0308520,N,12216.7210400,W,24.5415,309.7291,190721,,,,
$GPGGA,205427.00,3727.0393420,N,12216.7338200,W,1,0,0.0,137.6199,M,0.0000,M,0.0000,0
$GPRMC,205427.00,A,3727.0393420,N,12216.7338200,W,24.5855,309.7332,190721,,,,
$GPGGA,205428.00,3727.0478860,N,12216.7466840,W,1,0,0.0,137.7920,M,0.0000,M,0.0000,0
$GPRMC,205428.00,A,3727.0478860,N,12216.7466840,W,24.7612,309.4846,190721,,,,
$GPGGA,205429.00,3727.0564360,N,12216.7596800,W,1,0,0.0,137.9350,M,0.0000,M,0.0000,0
$GPRMC,205429.00,A,3727.0564360,N,12216.7596800,W,24.9331,309.4442,190721,,,,
$GPGGA,205430.00,3727.0650640,N,12216.7727420,W,1,0,0.0,137.9900,M,0.0000,M,0.0000,0
$GPRMC,205430.00,A,3727.0650640,N,12216.7727420,W,25.1060,309.6873,190721,,,,
$GPGGA,205431.00,3727.0737820,N,12216.7858460,W,1,0,0.0,138.0110,M,0.0000,M,0.0000,0
$GPRMC,205431.00,A,3727.0737820,N,12216.7858460,W,25.2252,309.7254,190721,,,,
$GPGGA,205432.00,3727.0825000,N,12216.7990340,W,1,0,0.0,138.0280,M,0.0000,M,0.0000,0
$GPRMC,205432.00,A,3727.0825000,N,12216.7990340,W,25.3065,309.3902,190721,,,,
$GPGGA,205433.00,3727.0912240,N,12216.8122940,W,1,0,0.0,138.0240,M,0.0000,M,0.0000,0
$GPRMC,205433.00,A,3727.0912240,N,12216.8122940,W,25.4022,309.3650,190721,,,,
$GPGGA,205434.00,3727.0999420,N,12216.8256500,W,1,0,0.0,137.9900,M,0.0000,M,0.0000,0
$GPRMC,205434.00,A,3727.0999420,N,12216.8256500,W,25.5051,308.9337,190721,,,,
$GPGGA,205435.00,3727.1085820,N,12216.8391020,W,1,0,0.0,137.8790,M,0.0000,M,0.0000,0
$GPRMC,205435.00,A,3727.1085820,N,12216.8391020,W,25.4222,308.6938,190721,,,,
$GPGGA,205436.00,3727.1172220,N,12216.8525240,W,1,0,0.0,137.7670,M,0.0000,M,0.0000,0
$GPRMC,205436.00,A,3727.1172220,N,12216.8525240,W,25.4622,308.9351,190721,,,,
$GPGGA,205437.00,3727.1259400,N,12216.8658920,W,1,0,0.0,137.5870,M,0.0000,M,0.0000,0
$GPRMC,205437.00,A,3727.1259400,N,12216.8658920,W,25.4994,309.3575,190721,,,,
$GPGGA,205438.00,3727.1347540,N,12216.8792360,W,1,0,0.0,137.3281,M,0.0000,M,0.0000,0
$GPRMC,205438.00,A,3727.1347540,N,12216.8792360,W,25.6341,309.7037,190721,,,,
$GPGGA,205439.00,3727.1436640,N,12216.8926400,W,1,0,0.0,137.0551,M,0.0000,M,0.0000,0
$GPRMC,205439.00,A,3727.1436640,N,12216.8926400,W,25.8284,309.6101,190721,,,,
$GPGGA,205440.00,3727.1525980,N,12216.9062240,W,1,0,0.0,136.7021,M,0.0000,M,0.0000,0
$GPRMC,205440.00,A,3727.1525980,N,12216.9062240,W,26.1037,309.2962,190721,,,,
$GPGGA,205441.00,3727.1615980,N,12216.9199940,W,1,0,0.0,136.3341,M,0.0000,M,0.0000,0
$GPRMC,205441.00,A,3727.1615980,N,12216.9199940,W,26.4054,309.1408,190721,,,,
$GPGGA,205442.00,3727.1706940,N,12216.9339500,W,1,0,0.0,135.9261,M,0.0000,M,0.0000,0
$GPRMC,205442.00,A,3727.1706940,N,12216.9339500,W,26.7741,309.2724,190721,,,,
$GPGGA,205443.00,3727.1799580,N,12216.9480800,W,1,0,0.0,135.4401,M,0.0000,M,0.0000,0
$GPRMC,205443.00,A,3727.1799580,N,12216.9480800,W,27.1954,309.4277,190721,,,,
$GPGGA,205444.00,3727.1894080,N,12216.9624020,W,1,0,0.0,134.8911,M,0.0000,M,0.0000,0
$GPRMC,205444.00,A,3727.1894080,N,12216.9624020,W,27.6520,309.5318,190721,,,,
$GPGGA,205445.00,3727.1990440,N,12216.9769580,W,1,0,0.0,134.2942,M,0.0000,M,0.0000,0
$GPRMC,205445.00,A,3727.1990440,N,12216.9769580,W,28.1498,309.6334,190721,,,,
$GPGGA,205446.00,3727.2088540,N,12216.9917480,W,1,0,0.0,133.6752,M,0.0000,M,0.0000,0
$GPRMC,205446.00,A,3727.2088540,N,12216.9917480,W,28.5923,309.6216,190721,,,,
$GPGGA,205447.00,3727.2187780,N,12217.0068080,W,1,0,0.0,133.0472,M,0.0000,M,0.0000,0
$GPRMC,205447.00,A,3727.2187780,N,12217.0068080,W,29.0387,309.2271,190721,,,,
$GPGGA,205448.00,3727.2287920,N,12217.0221620,W,1,0,0.0,132.4022,M,0.0000,M,0.0000,0
$GPRMC,205448.00,A,3727.2287920,N,12217.0221620,W,29.4454,309.1766,190721,,,,
$GPGGA,205449.00,3727.2389080,N,12217.0376300,W,1,0,0.0,131.7752,M,0.0000,M,0.0000,0
$GPRMC,205449.00,A,3727.2389080,N,12217.0376300,W,29.4750,309.2847,190721,,,,
$GPGGA,205450.00,3727.2489820,N,12217.0530500,W,1,0,0.0,131.1272,M,0.0000,M,0.0000,0
$GPRMC,205450.00,A,3727.2489820,N,12217.0530500,W,29.3314,309.3690,190721,,,,
$GPGGA,205451.00,3727.2590860,N,12217.0683500,W,1,0,0.0,130.4722,M,0.0000,M,0.0000,0
$GPRMC,205451.00,A,3727.2590860,N,12217.0683500,W,29.2780,309.6586,190721,,,,
$GPGGA,205452.00,3727.2692080,N,12217.0836080,W,1,0,0.0,129.8282,M,0.0000,M,0.0000,0
$GPRMC,205452.00,A,3727.2692080,N,12217.0836080,W,29.2841,309.6437,190721,,,,
$GPGGA,205453.00,3727.2793480,N,12217.0988780,W,1,0,0.0,129.1712,M,0.0000,M,0.0000,0
$GPRMC,205453.00,A,3727.2793480,N,12217.0988780,W,29.3053,309.6460,190721,,,,
$GPGGA,205454.00,3727.2894520,N,12217.1141840,W,1,0,0.0,128.5412,M,0.0000,M,0.0000,0
$GPRMC,205454.00,A,3727.2894520,N,12217.1141840,W,29.3151,309.3613,190721,,,,
$GPGGA,205455.00,3727.2995140,N,12217.1295620,W,1,0,0.0,127.8792,M,0.0000,M,0.0000,0
$GPRMC,205455.00,A,3727.2995140,N,12217.1295620,W,29.3537,309.2104,190721,,,,
$GPGGA,205456.00,3727.3095700,N,12217.1449820,W,1,0,0.0,127.2292,M,0.0000,M,0.0000,0
$GPRMC,205456.00,A,3727.3095700,N,12217.1449820,W,29.4113,309.1978,190721,,,,
$GPGGA,205457.00,3727.3196860,N,12217.1603960,W,1,0,0.0,126.5572,M,0.0000,M,0.0000,0
$GPRMC,205457.00,A,3727.3196860,N,12217.1603960,W,29.4635,309.4800,190721,,,,
$GPGGA,205458.00,3727.3298320,N,12217.1758160,W,1,0,0.0,125.8722,M,0.0000,M,0.0000,0
$GPRMC,205458.00,A,3727.3298320,N,12217.1758160,W,29.4956,309.2606,190721,,,,
$GPGGA,205459.00,3727.3399480,N,12217.1913020,W,1,0,0.0,125.1382,M,0.0000,M,0.0000,0
$GPRMC,205459.00,A,3727.3399480,N,12217.1913020,W,29.5732,309.2431,190721,,,,
$GPGGA,205500.00,3727.3501600,N,12217.2067880,W,1,0,0.0,124.3522,M,0.0000,M,0.0000,0
$GPRMC,205500.00,A,3727.3501600,N,12217.2067880,W,29.7086,309.8114,190721,,,,
$GPGGA,205501.00,3727.3605700,N,12217.2221840,W,1,0,0.0,123.6222,M,0.0000,M,0.0000,0
$GPRMC,205501.00,A,3727.3605700,N,12217.2221840,W,29.8326,310.6024,190721,,,,
$GPGGA,205502.00,3727.3712440,N,12217.2373640,W,1,0,0.0,123.0761,M,0.0000,M,0.0000,0
$GPRMC,205502.00,A,3727.3712440,N,12217.2373640,W,29.8782,312.1200,190721,,,,
$GPGGA,205503.00,3727.3822900,N,12217.2521360,W,1,0,0.0,122.6631,M,0.0000,M,0.0000,0
$GPRMC,205503.00,A,3727.3822900,N,12217.2521360,W,29.9242,314.0566,190721,,,,
$GPGGA,205504.00,3727.3938220,N,12217.2664160,W,1,0,0.0,122.3840,M,0.0000,M,0.0000,0
$GPRMC,205504.00,A,3727.3938220,N,12217.2664160,W,30.0459,316.3887,190721,,,,
$GPGGA,205505.00,3727.4058220,N,12217.2801980,W,1,0,0.0,122.2220,M,0.0000,M,0.0000,0
$GPRMC,205505.00,A,3727.4058220,N,12217.2801980,W,30.1678,318.5163,190721,,,,
$GPGGA,205506.00,3727.4182300,N,12217.2935120,W,1,0,0.0,122.1760,M,0.0000,M,0.0000,0
$GPRMC,205506.00,A,3727.4182300,N,12217.2935120,W,30.2735,320.1876,190721,,,,
$GPGGA,205507.00,3727.4309920,N,12217.3064000,W,1,0,0.0,122.2789,M,0.0000,M,0.0000,0
$GPRMC,205507.00,A,3727.4309920,N,12217.3064000,W,30.2839,321.9796,190721,,,,
$GPGGA,205508.00,3727.4440180,N,12217.3186640,W,1,0,0.0,122.5019,M,0.0000,M,0.0000,0
$GPRMC,205508.00,A,3727.4440180,N,12217.3186640,W,30.0411,324.1329,190721,,,,
$GPGGA,205509.00,3727.4572960,N,12217.3302920,W,1,0,0.0,122.8899,M,0.0000,M,0.0000,0
$GPRMC,205509.00,A,3727.4572960,N,12217.3302920,W,29.9017,325.9093,190721,,,,
$GPGGA,205510.00,3727.4708260,N,12217.3413260,W,1,0,0.0,123.3789,M,0.0000,M,0.0000,0
$GPRMC,205510.00,A,3727.4708260,N,12217.3413260,W,29.8009,327.9066,190721,,,,
$GPGGA,205511.00,3727.4845960,N,12217.3517240,W,1,0,0.0,123.9458,M,0.0000,M,0.0000,0
$GPRMC,205511.00,A,3727.4845960,N,12217.3517240,W,29.6829,329.7422,190721,,,,
$GPGGA,205512.00,3727.4985400,N,12217.3615700,W,1,0,0.0,124.5408,M,0.0000,M,0.0000,0
$GPRMC,205512.00,A,3727.4985400,N,12217.3615700,W,29.5323,331.4020,190721,,,,
$GPGGA,205513.00,3727.5126580,N,12217.3707920,W,1,0,0.0,125.1538,M,0.0000,M,0.0000,0
$GPRMC,205513.00,A,3727.5126580,N,12217.3707920,W,29.3739,333.4869,190721,,,,
$GPGGA,205514.00,3727.5269500,N,12217.3793120,W,1,0,0.0,125.7788,M,0.0000,M,0.0000,0
$GPRMC,205514.00,A,3727.5269500,N,12217.3793120,W,29.1945,335.5650,190721,,,,
$GPGGA,205515.00,3727.5413920,N,12217.3871600,W,1,0,0.0,126.3679,M,0.0000,M,0.0000,0
$GPRMC,205515.00,A,3727.5413920,N,12217.3871600,W,29.0654,337.3528,190721,,,,
$GPGGA,205516.00,3727.5559600,N,12217.3944140,W,1,0,0.0,126.9778,M,0.0000,M,0.0000,0
$GPRMC,205516.00,A,3727.5559600,N,12217.3944140,W,28.9441,339.2235,190721,,,,
$GPGGA,205517.00,3727.5706660,N,12217.4010380,W,1,0,0.0,127.4839,M,0.0000,M,0.0000,0
$GPRMC,205517.00,A,3727.5706660,N,12217.4010380,W,28.8864,341.1660,190721,,,,
$GPGGA,205518.00,3727.5854920,N,12217.4070500,W,1,0,0.0,128.0898,M,0.0000,M,0.0000,0
$GPRMC,205518.00,A,3727.5854920,N,12217.4070500,W,28.7935,342.7497,190721,,,,
$GPGGA,205519.00,3727.6003900,N,12217.4125460,W,1,0,0.0,128.6788,M,0.0000,M,0.0000,0
$GPRMC,205519.00,A,3727.6003900,N,12217.4125460,W,28.6606,344.2584,190721,,,,
$GPGGA,205520.00,3727.6153480,N,12217.4174780,W,1,0,0.0,129.2268,M,0.0000,M,0.0000,0
$GPRMC,205520.00,A,3727.6153480,N,12217.4174780,W,28.5842,346.3845,190721,,,,
$GPGGA,205521.00,3727.6304320,N,12217.4217260,W,1,0,0.0,129.9378,M,0.0000,M,0.0000,0
$GPRMC,205521.00,A,3727.6304320,N,12217.4217260,W,28.6457,348.3585,190721,,,,
$GPGGA,205522.00,3727.6456900,N,12217.4252960,W,1,0,0.0,130.5169,M,0.0000,M,0.0000,0
$GPRMC,205522.00,A,3727.6456900,N,12217.4252960,W,28.8056,350.2985,190721,,,,
$GPGGA,205523.00,3727.6611280,N,12217.4282660,W,1,0,0.0,131.0878,M,0.0000,M,0.0000,0
$GPRMC,205523.00,A,3727.6611280,N,12217.4282660,W,28.9816,352.0424,190721,,,,
$GPGGA,205524.00,3727.6767280,N,12217.4306480,W,1,0,0.0,131.6808,M,0.0000,M,0.0000,0
$GPRMC,205524.00,A,3727.6767280,N,12217.4306480,W,29.1791,354.1856,190721,,,,
$GPGGA,205525.00,3727.6924720,N,12217.4322740,W,1,0,0.0,132.2808,M,0.0000,M,0.0000,0
$GPRMC,205525.00,A,3727.6924720,N,12217.4322740,W,29.2726,356.2527,190721,,,,
$GPGGA,205526.00,3727.7082700,N,12217.4333000,W,1,0,0.0,133.0068,M,0.0000,M,0.0000,0
$GPRMC,205526.00,A,3727.7082700,N,12217.4333000,W,29.2559,357.3683,190721,,,,
$GPGGA,205527.00,3727.7240680,N,12217.4340740,W,1,0,0.0,133.7878,M,0.0000,M,0.0000,0
$GPRMC,205527.00,A,3727.7240680,N,12217.4340740,W,29.2436,357.8851,190721,,,,
$GPGGA,205528.00,3727.7398720,N,12217.4347160,W,1,0,0.0,134.4108,M,0.0000,M,0.0000,0
$GPRMC,205528.00,A,3727.7398720,N,12217.4347160,W,29.2713,358.2735,190721,,,,
$GPGGA,205529.00,3727.7557120,N,12217.4352680,W,1,0,0.0,134.9978,M,0.0000,M,0.0000,0
$GPRMC,205529.00,A,3727.7557120,N,12217.4352680,W,29.3334,358.3590,190721,,,,
$GPGGA,205530.00,3727.7715700,N,12217.4357960,W,1,0,0.0,135.5868,M,0.0000,M,0.0000,0
$GPRMC,205530.00,A,3727.7715700,N,12217.4357960,W,29.3773,358.3953,190721,,,,
$GPGGA,205531.00,3727.7874580,N,12217.4363240,W,1,0,0.0,136.1948,M,0.0000,M,0.0000,0
