$GPGGA,204918.44,3726.6463720,N,12213.9661220,W,1,0,0.0,10.8520,M,0.0000,M,0.0000,0
$GPRMC,204918.44,A,3726.6463720,N,12213.9661220,W,0.0006,30.2572,190721,,,,
$GPGGA,204919.44,3726.6463720,N,12213.9661220,W,1,0,0.0,10.8520,M,0.0000,M,0.0000,0
$GPRMC,204919.44,A,3726.6463720,N,12213.9661220,W,0.0010,30.2574,190721,,,,
$GPGGA,204920.44,3726.6463720,N,12213.9661220,W,1,0,0.0,10.8510,M,0.0000,M,0.0000,0
$GPRMC,204920.44,A,3726.6463720,N,12213.9661220,W,0.0010,30.2574,190721,,,,
$GPGGA,204921.44,3726.6463780,N,12213.9661220,W,1,0,0.0,10.8510,M,0.0000,M,0.0000,0
$GPRMC,204921.44,A,3726.6463780,N,12213.9661220,W,0.0014,30.2575,190721,,,,
$GPGGA,204922.44,3726.6463780,N,12213.9661220,W,1,0,0.0,10.8510,M,0.0000,M,0.0000,0
$GPRMC,204922.44,A,3726.6463780,N,12213.9661220,W,0.0014,30.2574,190721,,,,
$GPGGA,204923.44,3726.6463780,N,12213.9661220,W,1,0,0.0,10.8510,M,0.0000,M,0.0000,0
$GPRMC,204923.44,A,3726.6463780,N,12213.9661220,W,0.0014,30.2573,190721,,,,
$GPGGA,204924.44,3726.6463780,N,12213.9661220,W,1,0,0.0,10.8510,M,0.0000,M,0.0000,0
$GPRMC,204924.44,A,3726.6463780,N,12213.9661220,W,0.0019,30.2567,190721,,,,
$GPGGA,204925.44,3726.6463780,N,12213.9661220,W,1,0,0.0,10.8558,M,0.0000,M,0.0000,0
$GPRMC,204925.44,A,3726.6463780,N,12213.9661220,W,0.1217,30.3648,190721,,,,
$GPGGA,204926.44,3726.6462340,N,12213.9663260,W,1,0,0.0,10.8486,M,0.0000,M,0.0000,0
$GPRMC,204926.44,A,3726.6462340,N,12213.9663260,W,0.5856,26.7582,190721,,,,
$GPGGA,204927.44,3726.6459220,N,12213.9667640,W,1,0,0.0,10.8332,M,0.0000,M,0.0000,0
$GPRMC,204927.44,A,3726.6459220,N,12213.9667640,W,0.9128,16.9651,190721,,,,
$GPGGA,204928.44,3726.6454180,N,12213.9672200,W,1,0,0.0,10.8112,M,0.0000,M,0.0000,0
$GPRMC,204928.44,A,3726.6454180,N,12213.9672200,W,1.0623,3.9086,190721,,,,
$GPGGA,204929.44,3726.6449320,N,12213.9674900,W,1,0,0.0,10.7882,M,0.0000,M,0.0000,0
$GPRMC,204929.44,A,3726.6449320,N,12213.9674900,W,0.6116,352.9022,190721,,,,
$GPGGA,204930.44,3726.6447760,N,12213.9675380,W,1,0,0.0,10.7834,M,0.0000,M,0.0000,0
$GPRMC,204930.44,A,3726.6447760,N,12213.9675380,W,0.0362,349.7523,190721,,,,
$GPGGA,204931.44,3726.6448120,N,12213.9675560,W,1,0,0.0,10.7754,M,0.0000,M,0.0000,0
$GPRMC,204931.44,A,3726.6448120,N,12213.9675560,W,0.3670,349.2715,190721,,,,
$GPGGA,204932.44,3726.6452200,N,12213.9679220,W,1,0,0.0,10.7941,M,0.0000,M,0.0000,0
$GPRMC,204932.44,A,3726.6452200,N,12213.9679220,W,1.4463,340.0560,190721,,,,
$GPGGA,204933.44,3726.6457900,N,12213.9690800,W,1,0,0.0,10.8142,M,0.0000,M,0.0000,0
$GPRMC,204933.44,A,3726.6457900,N,12213.9690800,W,2.3215,315.3430,190721,,,,
$GPGGA,204934.44,3726.6459400,N,12213.9710120,W,1,0,0.0,10.7653,M,0.0000,M,0.0000,0
$GPRMC,204934.44,A,3726.6459400,N,12213.9710120,W,3.2428,283.4149,190721,,,,
$GPGGA,204935.44,3726.6452920,N,12213.9733520,W,1,0,0.0,10.6999,M,0.0000,M,0.0000,0
$GPRMC,204935.44,A,3726.6452920,N,12213.9733520,W,3.8797,252.9111,190721,,,,
$GPGGA,204936.44,3726.6437860,N,12213.9752720,W,1,0,0.0,10.5983,M,0.0000,M,0.0000,0
$GPRMC,204936.44,A,3726.6437860,N,12213.9752720,W,3.8534,226.2577,190721,,,,
$GPGGA,204937.44,3726.6422620,N,12213.9762980,W,1,0,0.0,10.5005,M,0.0000,M,0.0000,0
$GPRMC,204937.44,A,3726.6422620,N,12213.9762980,W,2.3040,211.0491,190721,,,,
$GPGGA,204938.44,3726.6412900,N,12213.9769040,W,1,0,0.0,10.4358,M,0.0000,M,0.0000,0
$GPRMC,204938.44,A,3726.6412900,N,12213.9769040,W,2.2110,208.4015,190721,,,,
$GPGGA,204939.44,3726.6401080,N,12213.9776780,W,1,0,0.0,10.3433,M,0.0000,M,0.0000,0
$GPRMC,204939.44,A,3726.6401080,N,12213.9776780,W,2.7534,207.6581,190721,,,,
$GPGGA,204940.44,3726.6384880,N,12213.9786980,W,1,0,0.0,10.3025,M,0.0000,M,0.0000,0
$GPRMC,204940.44,A,3726.6384880,N,12213.9786980,W,4.0125,206.8631,190721,,,,
$GPGGA,204941.44,3726.6363580,N,12213.9800720,W,1,0,0.0,10.2235,M,0.0000,M,0.0000,0
$GPRMC,204941.44,A,3726.6363580,N,12213.9800720,W,4.5617,207.1671,190721,,,,
$GPGGA,204942.44,3726.6342820,N,12213.9815180,W,1,0,0.0,10.1549,M,0.0000,M,0.0000,0
$GPRMC,204942.44,A,3726.6342820,N,12213.9815180,W,4.1596,209.4507,190721,,,,
$GPGGA,204943.44,3726.6326320,N,12213.9830300,W,1,0,0.0,10.0867,M,0.0000,M,0.0000,0
$GPRMC,204943.44,A,3726.6326320,N,12213.9830300,W,3.2088,215.7131,190721,,,,
$GPGGA,204944.44,3726.6316240,N,12213.9842000,W,1,0,0.0,9.9856,M,0.0000,M,0.0000,0
$GPRMC,204944.44,A,3726.6316240,N,12213.9842000,W,1.9732,221.3335,190721,,,,
$GPGGA,204945.44,3726.6310120,N,12213.9854060,W,1,0,0.0,9.8562,M,0.0000,M,0.0000,0
$GPRMC,204945.44,A,3726.6310120,N,12213.9854060,W,2.2238,232.6002,190721,,,,
$GPGGA,204946.44,3726.6308020,N,12213.9872000,W,1,0,0.0,9.7221,M,0.0000,M,0.0000,0
$GPRMC,204946.44,A,3726.6308020,N,12213.9872000,W,2.9569,255.2837,190721,,,,
$GPGGA,204947.44,3726.6311980,N,12213.9897380,W,1,0,0.0,9.6938,M,0.0000,M,0.0000,0
$GPRMC,204947.44,A,3726.6311980,N,12213.9897380,W,4.4807,279.2326,190721,,,,
$GPGGA,204948.44,3726.6324580,N,12213.9931400,W,1,0,0.0,9.5766,M,0.0000,M,0.0000,0
$GPRMC,204948.44,A,3726.6324580,N,12213.9931400,W,6.5018,295.2367,190721,,,,
$GPGGA,204949.44,3726.6343600,N,12213.9976220,W,1,0,0.0,9.3349,M,0.0000,M,0.0000,0
$GPRMC,204949.44,A,3726.6343600,N,12213.9976220,W,8.3895,298.8224,190721,,,,
$GPGGA,204950.44,3726.6368440,N,12214.0028180,W,1,0,0.0,9.1158,M,0.0000,M,0.0000,0
$GPRMC,204950.44,A,3726.6368440,N,12214.0028180,W,9.4377,301.3395,190721,,,,
$GPGGA,204951.44,3726.6396640,N,12214.0085600,W,1,0,0.0,8.8549,M,0.0000,M,0.0000,0
$GPRMC,204951.44,A,3726.6396640,N,12214.0085600,W,10.3478,301.5967,190721,,,,
$GPGGA,204952.44,3726.6426580,N,12214.0145900,W,1,0,0.0,8.5500,M,0.0000,M,0.0000,0
$GPRMC,204952.44,A,3726.6426580,N,12214.0145900,W,10.6618,302.1080,190721,,,,
$GPGGA,204953.44,3726.6458020,N,12214.0207940,W,1,0,0.0,8.2955,M,0.0000,M,0.0000,0
$GPRMC,204953.44,A,3726.6458020,N,12214.0207940,W,10.9410,302.5600,190721,,,,
$GPGGA,204954.44,3726.6490300,N,12214.0270520,W,1,0,0.0,8.0893,M,0.0000,M,0.0000,0
$GPRMC,204954.44,A,3726.6490300,N,12214.0270520,W,11.0157,303.2250,190721,,,,
$GPGGA,204955.44,3726.6523240,N,12214.0332500,W,1,0,0.0,7.8535,M,0.0000,M,0.0000,0
$GPRMC,204955.44,A,3726.6523240,N,12214.0332500,W,10.8773,303.6151,190721,,,,
$GPGGA,204956.44,3726.6554440,N,12214.0391780,W,1,0,0.0,7.6208,M,0.0000,M,0.0000,0
$GPRMC,204956.44,A,3726.6554440,N,12214.0391780,W,9.9333,303.2680,190721,,,,
$GPGGA,204957.44,3726.6582100,N,12214.0444280,W,1,0,0.0,7.4484,M,0.0000,M,0.0000,0
$GPRMC,204957.44,A,3726.6582100,N,12214.0444280,W,8.6444,303.4323,190721,,,,
$GPGGA,204958.44,3726.6605440,N,12214.0489160,W,1,0,0.0,7.2700,M,0.0000,M,0.0000,0
$GPRMC,204958.44,A,3726.6605440,N,12214.0489160,W,6.9652,302.2631,190721,,,,
$GPGGA,204959.44,3726.6620560,N,12214.0523120,W,1,0,0.0,7.1629,M,0.0000,M,0.0000,0
$GPRMC,204959.44,A,3726.6620560,N,12214.0523120,W,4.4647,298.6503,190721,,,,
$GPGGA,205000.44,3726.6629560,N,12214.0543820,W,1,0,0.0,7.0880,M,0.0000,M,0.0000,0
$GPRMC,205000.44,A,3726.6629560,N,12214.0543820,W,2.6898,298.3973,190721,,,,
$GPGGA,205001.44,3726.6634660,N,12214.0555760,W,1,0,0.0,7.0498,M,0.0000,M,0.0000,0
$GPRMC,205001.44,A,3726.6634660,N,12214.0555760,W,1.2873,298.4127,190721,,,,
$GPGGA,205002.44,3726.6636100,N,12214.0559120,W,1,0,0.0,7.0318,M,0.0000,M,0.0000,0
$GPRMC,205002.44,A,3726.6636100,N,12214.0559120,W,0.0436,298.4202,190721,,,,
$GPGGA,205003.44,3726.6636100,N,12214.0559120,W,1,0,0.0,7.0250,M,0.0000,M,0.0000,0
$GPRMC,205003.44,A,3726.6636100,N,12214.0559120,W,0.0026,298.4228,190721,,,,
$GPGGA,205004.44,3726.6636100,N,12214.0559120,W,1,0,0.0,7.0270,M,0.0000,M,0.0000,0
$GPRMC,205004.44,A,3726.6636100,N,12214.0559120,W,0.0036,298.4225,190721,,,,
$GPGGA,205005.44,3726.6636100,N,12214.0559120,W,1,0,0.0,7.0270,M,0.0000,M,0.0000,0
$GPRMC,205005.44,A,3726.6636100,N,12214.0559120,W,0.0021,298.4208,190721,,,,
$GPGGA,205006.44,3726.6636100,N,12214.0559060,W,1,0,0.0,7.0270,M,0.0000,M,0.0000,0
$GPRMC,205006.44,A,3726.6636100,N,12214.0559060,W,0.0019,298.4207,190721,,,,
$GPGGA,205007.44,3726.6636100,N,12214.0559060,W,1,0,0.0,7.0270,M,0.0000,M,0.0000,0
$GPRMC,205007.44,A,3726.6636100,N,12214.0559060,W,0.0008,298.4208,190721,,,,
$GPGGA,205008.44,3726.6636100,N,12214.0559060,W,1,0,0.0,7.0270,M,0.0000,M,0.0000,0
$GPRMC,205008.44,A,3726.6636100,N,12214.0559060,W,0.0012,298.4207,190721,,,,
$GPGGA,205009.44,3726.6636100,N,12214.0559060,W,1,0,0.0,7.0270,M,0.0000,M,0.0000,0
$GPRMC,205009.44,A,3726.6636100,N,12214.0559060,W,0.0008,298.4204,190721,,,,
$GPGGA,205010.44,3726.6636100,N,12214.0559060,W,1,0,0.0,7.0270,M,0.0000,M,0.0000,0
$GPRMC,205010.44,A,3726.6636100,N,12214.0559060,W,0.0012,298.4205,190721,,,,
$GPGGA,205011.44,3726.6636100,N,12214.0559060,W,1,0,0.0,7.0270,M,0.0000,M,0.0000,0
$GPRMC,205011.44,A,3726.6636100,N,12214.0559060,W,0.0019,298.4205,190721,,,,
$GPGGA,205012.44,3726.6636100,N,12214.0559060,W,1,0,0.0,7.0280,M,0.0000,M,0.0000,0
$GPRMC,205012.44,A,3726.6636100,N,12214.0559060,W,0.0014,298.4206,190721,,,,
$GPGGA,205013.44,3726.6636100,N,12214.0559060,W,1,0,0.0,7.0280,M,0.0000,M,0.0000,0
$GPRMC,205013.44,A,3726.6636100,N,12214.0559060,W,0.0017,298.4207,190721,,,,
$GPGGA,205014.44,3726.6636640,N,12214.0560200,W,1,0,0.0,7.0085,M,0.0000,M,0.0000,0
$GPRMC,205014.44,A,3726.6636640,N,12214.0560200,W,0.8636,298.4010,190721,,,,
$GPGGA,205015.44,3726.6642340,N,12214.0574720,W,1,0,0.0,6.9625,M,0.0000,M,0.0000,0
$GPRMC,205015.44,A,3726.6642340,N,12214.0574720,W,3.9074,296.7013,190721,,,,
$GPGGA,205016.44,3726.6651460,N,12214.0606580,W,1,0,0.0,6.9319,M,0.0000,M,0.0000,0
$GPRMC,205016.44,A,3726.6651460,N,12214.0606580,W,5.7772,288.4264,190721,,,,
$GPGGA,205017.44,3726.6655600,N,12214.0649540,W,1,0,0.0,7.0021,M,0.0000,M,0.0000,0
$GPRMC,205017.44,A,3726.6655600,N,12214.0649540,W,7.0729,273.7894,190721,,,,
$GPGGA,205018.44,3726.6648160,N,12214.0699040,W,1,0,0.0,7.1585,M,0.0000,M,0.0000,0
$GPRMC,205018.44,A,3726.6648160,N,12214.0699040,W,7.8804,254.0349,190721,,,,
$GPGGA,205019.44,3726.6624760,N,12214.0748600,W,1,0,0.0,7.2201,M,0.0000,M,0.0000,0
$GPRMC,205019.44,A,3726.6624760,N,12214.0748600,W,9.2475,233.6092,190721,,,,
$GPGGA,205020.44,3726.6585880,N,12214.0792760,W,1,0,0.0,7.3409,M,0.0000,M,0.0000,0
$GPRMC,205020.44,A,3726.6585880,N,12214.0792760,W,10.2930,217.8139,190721,,,,
$GPGGA,205021.44,3726.6535720,N,12214.0833980,W,1,0,0.0,7.5710,M,0.0000,M,0.0000,0
$GPRMC,205021.44,A,3726.6535720,N,12214.0833980,W,11.9516,212.2394,190721,,,,
$GPGGA,205022.44,3726.6476860,N,12214.0878320,W,1,0,0.0,7.8996,M,0.0000,M,0.0000,0
$GPRMC,205022.44,A,3726.6476860,N,12214.0878320,W,13.3474,209.8875,190721,,,,
$GPGGA,205023.44,3726.6411160,N,12214.0923080,W,1,0,0.0,8.2875,M,0.0000,M,0.0000,0
$GPRMC,205023.44,A,3726.6411160,N,12214.0923080,W,14.2844,207.8194,190721,,,,
$GPGGA,205024.44,3726.6340000,N,12214.0969100,W,1,0,0.0,8.8025,M,0.0000,M,0.0000,0
$GPRMC,205024.44,A,3726.6340000,N,12214.0969100,W,15.4595,207.0689,190721,,,,
$GPGGA,205025.44,3726.6262600,N,12214.1018840,W,1,0,0.0,9.1234,M,0.0000,M,0.0000,0
$GPRMC,205025.44,A,3726.6262600,N,12214.1018840,W,16.5622,206.9964,190721,,,,
$GPGGA,205026.44,3726.6180640,N,12214.1071820,W,1,0,0.0,9.3808,M,0.0000,M,0.0000,0
$GPRMC,205026.44,A,3726.6180640,N,12214.1071820,W,17.5958,207.3702,190721,,,,
$GPGGA,205027.44,3726.6094000,N,12214.1128940,W,1,0,0.0,9.5091,M,0.0000,M,0.0000,0
$GPRMC,205027.44,A,3726.6094000,N,12214.1128940,W,18.5515,207.7417,190721,,,,
$GPGGA,205028.44,3726.6004120,N,12214.1189000,W,1,0,0.0,9.6562,M,0.0000,M,0.0000,0
$GPRMC,205028.44,A,3726.6004120,N,12214.1189000,W,18.8811,208.0464,190721,,,,
$GPGGA,205029.44,3726.5915020,N,12214.1249120,W,1,0,0.0,9.8326,M,0.0000,M,0.0000,0
$GPRMC,205029.44,A,3726.5915020,N,12214.1249120,W,18.5273,208.2050,190721,,,,
$GPGGA,205030.44,3726.5828020,N,12214.1307980,W,1,0,0.0,10.0587,M,0.0000,M,0.0000,0
$GPRMC,205030.44,A,3726.5828020,N,12214.1307980,W,18.0588,208.0801,190721,,,,
$GPGGA,205031.44,3726.5742040,N,12214.1365460,W,1,0,0.0,10.3536,M,0.0000,M,0.0000,0
$GPRMC,205031.44,A,3726.5742040,N,12214.1365460,W,18.0265,207.9201,190721,,,,
$GPGGA,205032.44,3726.5655940,N,12214.1422760,W,1,0,0.0,10.8230,M,0.0000,M,0.0000,0
$GPRMC,205032.44,A,3726.5655940,N,12214.1422760,W,18.0194,207.6969,190721,,,,
$GPGGA,205033.44,3726.5569480,N,12214.1479460,W,1,0,0.0,11.4945,M,0.0000,M,0.0000,0
$GPRMC,205033.44,A,3726.5569480,N,12214.1479460,W,18.0845,207.3564,190721,,,,
$GPGGA,205034.44,3726.5483080,N,12214.1535620,W,1,0,0.0,12.3316,M,0.0000,M,0.0000,0
$GPRMC,205034.44,A,3726.5483080,N,12214.1535620,W,17.8070,207.3429,190721,,,,
$GPGGA,205035.44,3726.5399380,N,12214.1590400,W,1,0,0.0,13.3943,M,0.0000,M,0.0000,0
$GPRMC,205035.44,A,3726.5399380,N,12214.1590400,W,17.1383,207.5597,190721,,,,
$GPGGA,205036.44,3726.5319100,N,12214.1643560,W,1,0,0.0,14.4066,M,0.0000,M,0.0000,0
$GPRMC,205036.44,A,3726.5319100,N,12214.1643560,W,16.4029,208.0268,190721,,,,
$GPGGA,205037.44,3726.5242360,N,12214.1695700,W,1,0,0.0,15.2468,M,0.0000,M,0.0000,0
$GPRMC,205037.44,A,3726.5242360,N,12214.1695700,W,15.9739,208.5787,190721,,,,
$GPGGA,205038.44,3726.5166640,N,12214.1748140,W,1,0,0.0,16.0186,M,0.0000,M,0.0000,0
$GPRMC,205038.44,A,3726.5166640,N,12214.1748140,W,16.0061,208.8820,190721,,,,
$GPGGA,205039.44,3726.5091220,N,12214.1801060,W,1,0,0.0,16.7608,M,0.0000,M,0.0000,0
$GPRMC,205039.44,A,3726.5091220,N,12214.1801060,W,15.9733,209.2138,190721,,,,
$GPGGA,205040.44,3726.5015260,N,12214.1855120,W,1,0,0.0,17.4321,M,0.0000,M,0.0000,0
$GPRMC,205040.44,A,3726.5015260,N,12214.1855120,W,16.4285,209.0914,190721,,,,
$GPGGA,205041.44,3726.4936060,N,12214.1911040,W,1,0,0.0,18.1278,M,0.0000,M,0.0000,0
$GPRMC,205041.44,A,3726.4936060,N,12214.1911040,W,17.3391,209.4450,190721,,,,
$GPGGA,205042.44,3726.4854820,N,12214.1973500,W,1,0,0.0,18.9594,M,0.0000,M,0.0000,0
$GPRMC,205042.44,A,3726.4854820,N,12214.1973500,W,17.8748,213.2804,190721,,,,
$GPGGA,205043.44,3726.4774960,N,12214.2046760,W,1,0,0.0,19.8854,M,0.0000,M,0.0000,0
$GPRMC,205043.44,A,3726.4774960,N,12214.2046760,W,18.7099,217.9396,190721,,,,
$GPGGA,205044.44,3726.4695520,N,12214.2129980,W,1,0,0.0,20.8401,M,0.0000,M,0.0000,0
$GPRMC,205044.44,A,3726.4695520,N,12214.2129980,W,19.5901,221.3886,190721,,,,
$GPGGA,205045.44,3726.4617220,N,12214.2223580,W,1,0,0.0,21.9519,M,0.0000,M,0.0000,0
$GPRMC,205045.44,A,3726.4617220,N,12214.2223580,W,20.4065,225.0979,190721,,,,
$GPGGA,205046.44,3726.4541560,N,12214.2327380,W,1,0,0.0,23.1320,M,0.0000,M,0.0000,0
$GPRMC,205046.44,A,3726.4541560,N,12214.2327380,W,20.8705,229.5937,190721,,,,
$GPGGA,205047.44,3726.4472860,N,12214.2439760,W,1,0,0.0,24.3422,M,0.0000,M,0.0000,0
$GPRMC,205047.44,A,3726.4472860,N,12214.2439760,W,20.9214,234.4530,190721,,,,
$GPGGA,205048.44,3726.4408840,N,12214.2557480,W,1,0,0.0,25.6020,M,0.0000,M,0.0000,0
$GPRMC,205048.44,A,3726.4408840,N,12214.2557480,W,21.0775,236.2236,190721,,,,
$GPGGA,205049.44,3726.4346260,N,12214.2677000,W,1,0,0.0,26.8251,M,0.0000,M,0.0000,0
$GPRMC,205049.44,A,3726.4346260,N,12214.2677000,W,21.0456,236.6469,190721,,,,
$GPGGA,205050.44,3726.4282300,N,12214.2794420,W,1,0,0.0,28.1234,M,0.0000,M,0.0000,0
$GPRMC,205050.44,A,3726.4282300,N,12214.2794420,W,20.9101,234.3707,190721,,,,
$GPGGA,205051.44,3726.4213960,N,12214.2907160,W,1,0,0.0,29.4040,M,0.0000,M,0.0000,0
$GPRMC,205051.44,A,3726.4213960,N,12214.2907160,W,20.8825,231.7473,190721,,,,
$GPGGA,205052.44,3726.4143160,N,12214.3017500,W,1,0,0.0,30.5211,M,0.0000,M,0.0000,0
$GPRMC,205052.44,A,3726.4143160,N,12214.3017500,W,20.9345,230.6412,190721,,,,
$GPGGA,205053.44,3726.4070080,N,12214.3126400,W,1,0,0.0,31.5701,M,0.0000,M,0.0000,0
$GPRMC,205053.44,A,3726.4070080,N,12214.3126400,W,21.0698,229.2279,190721,,,,
$GPGGA,205054.44,3726.3993880,N,12214.3233980,W,1,0,0.0,32.6440,M,0.0000,M,0.0000,0
$GPRMC,205054.44,A,3726.3993880,N,12214.3233980,W,21.3796,227.5450,190721,,,,
$GPGGA,205055.44,3726.3913960,N,12214.3338560,W,1,0,0.0,33.7458,M,0.0000,M,0.0000,0
$GPRMC,205055.44,A,3726.3913960,N,12214.3338560,W,21.3442,225.1079,190721,,,,
$GPGGA,205056.44,3726.3831640,N,12214.3439420,W,1,0,0.0,34.6608,M,0.0000,M,0.0000,0
$GPRMC,205056.44,A,3726.3831640,N,12214.3439420,W,21.2283,223.3511,190721,,,,
$GPGGA,205057.44,3726.3747460,N,12214.3536080,W,1,0,0.0,35.7236,M,0.0000,M,0.0000,0
$GPRMC,205057.44,A,3726.3747460,N,12214.3536080,W,20.8685,221.3116,190721,,,,
$GPGGA,205058.44,3726.3662200,N,12214.3624760,W,1,0,0.0,36.9105,M,0.0000,M,0.0000,0
$GPRMC,205058.44,A,3726.3662200,N,12214.3624760,W,20.1789,218.5074,190721,,,,
$GPGGA,205059.44,3726.3577300,N,12214.3709000,W,1,0,0.0,38.0300,M,0.0000,M,0.0000,0
$GPRMC,205059.44,A,3726.3577300,N,12214.3709000,W,19.8757,217.8606,190721,,,,
$GPGGA,205100.44,3726.3491860,N,12214.3789040,W,1,0,0.0,39.0362,M,0.0000,M,0.0000,0
$GPRMC,205100.44,A,3726.3491860,N,12214.3789040,W,19.6050,215.8820,190721,,,,
$GPGGA,205101.44,3726.3405220,N,12214.3864700,W,1,0,0.0,39.9142,M,0.0000,M,0.0000,0
$GPRMC,205101.44,A,3726.3405220,N,12214.3864700,W,19.4564,214.0106,190721,,,,
$GPGGA,205102.44,3726.3317500,N,12214.3936340,W,1,0,0.0,40.8010,M,0.0000,M,0.0000,0
$GPRMC,205102.44,A,3726.3317500,N,12214.3936340,W,19.2852,212.2265,190721,,,,
$GPGGA,205103.44,3726.3228700,N,12214.4004560,W,1,0,0.0,41.5154,M,0.0000,M,0.0000,0
$GPRMC,205103.44,A,3726.3228700,N,12214.4004560,W,19.3370,210.7455,190721,,,,
$GPGGA,205104.44,3726.3137260,N,12214.4070200,W,1,0,0.0,42.0293,M,0.0000,M,0.0000,0
$GPRMC,205104.44,A,3726.3137260,N,12214.4070200,W,19.6245,208.8977,190721,,,,
$GPGGA,205105.44,3726.3042700,N,12214.4132360,W,1,0,0.0,42.4905,M,0.0000,M,0.0000,0
$GPRMC,205105.44,A,3726.3042700,N,12214.4132360,W,19.8668,206.5773,190721,,,,
$GPGGA,205106.44,3726.2945200,N,12214.4190500,W,1,0,0.0,42.8381,M,0.0000,M,0.0000,0
$GPRMC,205106.44,A,3726.2945200,N,12214.4190500,W,20.0920,204.5221,190721,,,,
$GPGGA,205107.44,3726.2845000,N,12214.4245400,W,1,0,0.0,43.0678,M,0.0000,M,0.0000,0
$GPRMC,205107.44,A,3726.2845000,N,12214.4245400,W,20.3681,202.8744,190721,,,,
$GPGGA,205108.44,3726.2742460,N,12214.4297360,W,1,0,0.0,43.2283,M,0.0000,M,0.0000,0
$GPRMC,205108.44,A,3726.2742460,N,12214.4297360,W,20.5132,201.3887,190721,,,,
$GPGGA,205109.44,3726.2639080,N,12214.4346740,W,1,0,0.0,43.3943,M,0.0000,M,0.0000,0
$GPRMC,205109.44,A,3726.2639080,N,12214.4346740,W,20.4641,200.1290,190721,,,,
$GPGGA,205110.44,3726.2535100,N,12214.4395100,W,1,0,0.0,43.4327,M,0.0000,M,0.0000,0
$GPRMC,205110.44,A,3726.2535100,N,12214.4395100,W,20.5511,200.4430,190721,,,,
$GPGGA,205111.44,3726.2431300,N,12214.4445440,W,1,0,0.0,43.6991,M,0.0000,M,0.0000,0
$GPRMC,205111.44,A,3726.2431300,N,12214.4445440,W,20.6182,201.6808,190721,,,,
$GPGGA,205112.44,3726.2328280,N,12214.4499320,W,1,0,0.0,44.0559,M,0.0000,M,0.0000,0
$GPRMC,205112.44,A,3726.2328280,N,12214.4499320,W,20.6448,203.0517,190721,,,,
$GPGGA,205113.44,3726.2227420,N,12214.4556260,W,1,0,0.0,44.5170,M,0.0000,M,0.0000,0
$GPRMC,205113.44,A,3726.2227420,N,12214.4556260,W,20.2244,205.2082,190721,,,,
$GPGGA,205114.44,3726.2131180,N,12214.4618300,W,1,0,0.0,45.0703,M,0.0000,M,0.0000,0
$GPRMC,205114.44,A,3726.2131180,N,12214.4618300,W,19.8080,208.6903,190721,,,,
$GPGGA,205115.44,3726.2040880,N,12214.4688140,W,1,0,0.0,45.7514,M,0.0000,M,0.0000,0
$GPRMC,205115.44,A,3726.2040880,N,12214.4688140,W,19.3702,214.3667,190721,,,,
$GPGGA,205116.44,3726.1959760,N,12214.4767700,W,1,0,0.0,46.5431,M,0.0000,M,0.0000,0
$GPRMC,205116.44,A,3726.1959760,N,12214.4767700,W,18.6967,221.0095,190721,,,,
$GPGGA,205117.44,3726.1888720,N,12214.4854940,W,1,0,0.0,47.1929,M,0.0000,M,0.0000,0
$GPRMC,205117.44,A,3726.1888720,N,12214.4854940,W,18.0658,226.1924,190721,,,,
$GPGGA,205118.44,3726.1824640,N,12214.4944520,W,1,0,0.0,47.7571,M,0.0000,M,0.0000,0
$GPRMC,205118.44,A,3726.1824640,N,12214.4944520,W,17.4189,229.1498,190721,,,,
$GPGGA,205119.44,3726.1765660,N,12214.5033260,W,1,0,0.0,48.4453,M,0.0000,M,0.0000,0
$GPRMC,205119.44,A,3726.1765660,N,12214.5033260,W,16.6110,230.8574,190721,,,,
$GPGGA,205120.44,3726.1712980,N,12214.5120020,W,1,0,0.0,49.1468,M,0.0000,M,0.0000,0
$GPRMC,205120.44,A,3726.1712980,N,12214.5120020,W,15.5394,233.3894,190721,,,,
$GPGGA,205121.44,3726.1666300,N,12214.5202340,W,1,0,0.0,49.7548,M,0.0000,M,0.0000,0
$GPRMC,205121.44,A,3726.1666300,N,12214.5202340,W,14.0370,235.6917,190721,,,,
$GPGGA,205122.44,3726.1629760,N,12214.5277340,W,1,0,0.0,50.3517,M,0.0000,M,0.0000,0
$GPRMC,205122.44,A,3726.1629760,N,12214.5277340,W,11.7347,240.3123,190721,,,,
$GPGGA,205123.44,3726.1605580,N,12214.5340040,W,1,0,0.0,50.7268,M,0.0000,M,0.0000,0
$GPRMC,205123.44,A,3726.1605580,N,12214.5340040,W,8.8254,246.5120,190721,,,,
$GPGGA,205124.44,3726.1592980,N,12214.5387740,W,1,0,0.0,51.0125,M,0.0000,M,0.0000,0
$GPRMC,205124.44,A,3726.1592980,N,12214.5387740,W,6.0732,253.3834,190721,,,,
$GPGGA,205125.44,3726.1587580,N,12214.5419600,W,1,0,0.0,51.1954,M,0.0000,M,0.0000,0
$GPRMC,205125.44,A,3726.1587580,N,12214.5419600,W,3.5721,258.5634,190721,,,,
$GPGGA,205126.44,3726.1585720,N,12214.5437000,W,1,0,0.0,51.2794,M,0.0000,M,0.0000,0
$GPRMC,205126.44,A,3726.1585720,N,12214.5437000,W,1.9440,261.2829,190721,,,,
$GPGGA,205127.44,3726.1584580,N,12214.5450740,W,1,0,0.0,51.3276,M,0.0000,M,0.0000,0
$GPRMC,205127.44,A,3726.1584580,N,12214.5450740,W,2.3235,263.2694,190721,,,,
$GPGGA,205128.44,3726.1583620,N,12214.5474260,W,1,0,0.0,51.4089,M,0.0000,M,0.0000,0
$GPRMC,205128.44,A,3726.1583620,N,12214.5474260,W,4.7838,266.5787,190721,,,,
$GPGGA,205129.44,3726.1584280,N,12214.5514580,W,1,0,0.0,51.5751,M,0.0000,M,0.0000,0
$GPRMC,205129.44,A,3726.1584280,N,12214.5514580,W,6.9366,272.0435,190721,,,,
$GPGGA,205130.44,3726.1589680,N,12214.5565400,W,1,0,0.0,51.8909,M,0.0000,M,0.0000,0
$GPRMC,205130.44,A,3726.1589680,N,12214.5565400,W,8.0454,279.2746,190721,,,,
$GPGGA,205131.44,3726.1601080,N,12214.5621260,W,1,0,0.0,52.3061,M,0.0000,M,0.0000,0
$GPRMC,205131.44,A,3726.1601080,N,12214.5621260,W,9.0416,285.8206,190721,,,,
$GPGGA,205132.44,3726.1617580,N,12214.5683060,W,1,0,0.0,52.6835,M,0.0000,M,0.0000,0
$GPRMC,205132.44,A,3726.1617580,N,12214.5683060,W,10.1037,289.0620,190721,,,,
$GPGGA,205133.44,3726.1637860,N,12214.5750260,W,1,0,0.0,53.2104,M,0.0000,M,0.0000,0
$GPRMC,205133.44,A,3726.1637860,N,12214.5750260,W,11.0406,291.4474,190721,,,,
$GPGGA,205134.44,3726.1661740,N,12214.5821180,W,1,0,0.0,53.7847,M,0.0000,M,0.0000,0
$GPRMC,205134.44,A,3726.1661740,N,12214.5821180,W,11.6261,293.4696,190721,,,,
$GPGGA,205135.44,3726.1688380,N,12214.5894080,W,1,0,0.0,54.4213,M,0.0000,M,0.0000,0
$GPRMC,205135.44,A,3726.1688380,N,12214.5894080,W,11.9613,295.1241,190721,,,,
$GPGGA,205136.44,3726.1716280,N,12214.5966020,W,1,0,0.0,55.1240,M,0.0000,M,0.0000,0
$GPRMC,205136.44,A,3726.1716280,N,12214.5966020,W,11.5519,296.0231,190721,,,,
$GPGGA,205137.44,3726.1743220,N,12214.6034060,W,1,0,0.0,55.7684,M,0.0000,M,0.0000,0
$GPRMC,205137.44,A,3726.1743220,N,12214.6034060,W,10.9485,296.2705,190721,,,,
$GPGGA,205138.44,3726.1769560,N,12214.6100300,W,1,0,0.0,56.3936,M,0.0000,M,0.0000,0
$GPRMC,205138.44,A,3726.1769560,N,12214.6100300,W,10.9446,296.5453,190721,,,,
$GPGGA,205139.44,3726.1796800,N,12214.6167200,W,1,0,0.0,56.9993,M,0.0000,M,0.0000,0
$GPRMC,205139.44,A,3726.1796800,N,12214.6167200,W,11.2896,297.2087,190721,,,,
$GPGGA,205140.44,3726.1826440,N,12214.6236740,W,1,0,0.0,57.6928,M,0.0000,M,0.0000,0
$GPRMC,205140.44,A,3726.1826440,N,12214.6236740,W,11.9502,298.4869,190721,,,,
$GPGGA,205141.44,3726.1858720,N,12214.6307900,W,1,0,0.0,58.4090,M,0.0000,M,0.0000,0
$GPRMC,205141.44,A,3726.1858720,N,12214.6307900,W,12.1643,300.0397,190721,,,,
$GPGGA,205142.44,3726.1893520,N,12214.6378820,W,1,0,0.0,59.1485,M,0.0000,M,0.0000,0
$GPRMC,205142.44,A,3726.1893520,N,12214.6378820,W,12.4099,302.4748,190721,,,,
$GPGGA,205143.44,3726.1931860,N,12214.6449020,W,1,0,0.0,59.8613,M,0.0000,M,0.0000,0
$GPRMC,205143.44,A,3726.1931860,N,12214.6449020,W,12.7012,305.4182,190721,,,,
$GPGGA,205144.44,3726.1973620,N,12214.6518740,W,1,0,0.0,60.6182,M,0.0000,M,0.0000,0
$GPRMC,205144.44,A,3726.1973620,N,12214.6518740,W,13.0005,307.4812,190721,,,,
$GPGGA,205145.44,3726.2018380,N,12214.6588040,W,1,0,0.0,61.4141,M,0.0000,M,0.0000,0
$GPRMC,205145.44,A,3726.2018380,N,12214.6588040,W,13.2824,309.7447,190721,,,,
$GPGGA,205146.44,3726.2066140,N,12214.6656440,W,1,0,0.0,62.2510,M,0.0000,M,0.0000,0
$GPRMC,205146.44,A,3726.2066140,N,12214.6656440,W,13.5430,311.7518,190721,,,,
$GPGGA,205147.44,3726.2116000,N,12214.6725020,W,1,0,0.0,63.0967,M,0.0000,M,0.0000,0
$GPRMC,205147.44,A,3726.2116000,N,12214.6725020,W,13.8211,312.4674,190721,,,,
$GPGGA,205148.44,3726.2167000,N,12214.6794440,W,1,0,0.0,63.9492,M,0.0000,M,0.0000,0
$GPRMC,205148.44,A,3726.2167000,N,12214.6794440,W,14.0079,312.6258,190721,,,,
$GPGGA,205149.44,3726.2218780,N,12214.6865180,W,1,0,0.0,64.7276,M,0.0000,M,0.0000,0
$GPRMC,205149.44,A,3726.2218780,N,12214.6865180,W,14.3422,312.2486,190721,,,,
$GPGGA,205150.44,3726.2271640,N,12214.6938200,W,1,0,0.0,65.4723,M,0.0000,M,0.0000,0
$GPRMC,205150.44,A,3726.2271640,N,12214.6938200,W,14.7677,312.1520,190721,,,,
$GPGGA,205151.44,3726.2326300,N,12214.7013380,W,1,0,0.0,66.1585,M,0.0000,M,0.0000,0
$GPRMC,205151.44,A,3726.2326300,N,12214.7013380,W,15.2385,312.4212,190721,,,,
$GPGGA,205152.44,3726.2383180,N,12214.7090720,W,1,0,0.0,66.8352,M,0.0000,M,0.0000,0
$GPRMC,205152.44,A,3726.2383180,N,12214.7090720,W,15.8301,312.7841,190721,,,,
$GPGGA,205153.44,3726.2442640,N,12214.7171000,W,1,0,0.0,67.5174,M,0.0000,M,0.0000,0
$GPRMC,205153.44,A,3726.2442640,N,12214.7171000,W,16.4798,312.7130,190721,,,,
$GPGGA,205154.44,3726.2504560,N,12214.7254460,W,1,0,0.0,68.2020,M,0.0000,M,0.0000,0
$GPRMC,205154.44,A,3726.2504560,N,12214.7254460,W,17.1356,313.2087,190721,,,,
$GPGGA,205155.44,3726.2569420,N,12214.7339900,W,1,0,0.0,68.9138,M,0.0000,M,0.0000,0
$GPRMC,205155.44,A,3726.2569420,N,12214.7339900,W,17.5331,313.6703,190721,,,,
$GPGGA,205156.44,3726.2635360,N,12214.7425340,W,1,0,0.0,69.6334,M,0.0000,M,0.0000,0
$GPRMC,205156.44,A,3726.2635360,N,12214.7425340,W,17.5517,314.2272,190721,,,,
$GPGGA,205157.44,3726.2701720,N,12214.7510120,W,1,0,0.0,70.3895,M,0.0000,M,0.0000,0
$GPRMC,205157.44,A,3726.2701720,N,12214.7510120,W,17.4943,314.1873,190721,,,,
$GPGGA,205158.44,3726.2766820,N,12214.7596100,W,1,0,0.0,71.1721,M,0.0000,M,0.0000,0
$GPRMC,205158.44,A,3726.2766820,N,12214.7596100,W,17.5591,312.7053,190721,,,,
$GPGGA,205159.44,3726.2831440,N,12214.7685200,W,1,0,0.0,71.8933,M,0.0000,M,0.0000,0
$GPRMC,205159.44,A,3726.2831440,N,12214.7685200,W,17.9693,312.0457,190721,,,,
$GPGGA,205200.44,3726.2898460,N,12214.7777180,W,1,0,0.0,72.6812,M,0.0000,M,0.0000,0
$GPRMC,205200.44,A,3726.2898460,N,12214.7777180,W,18.7845,312.7172,190721,,,,
$GPGGA,205201.44,3726.2969020,N,12214.7870480,W,1,0,0.0,73.4662,M,0.0000,M,0.0000,0
$GPRMC,205201.44,A,3726.2969020,N,12214.7870480,W,19.1868,313.9085,190721,,,,
$GPGGA,205202.44,3726.3042940,N,12214.7964680,W,1,0,0.0,74.3059,M,0.0000,M,0.0000,0
$GPRMC,205202.44,A,3726.3042940,N,12214.7964680,W,19.6003,314.8707,190721,,,,
$GPGGA,205203.44,3726.3118180,N,12214.8057440,W,1,0,0.0,75.1096,M,0.0000,M,0.0000,0
$GPRMC,205203.44,A,3726.3118180,N,12214.8057440,W,19.4231,315.6716,190721,,,,
$GPGGA,205204.44,3726.3193540,N,12214.8149000,W,1,0,0.0,75.8447,M,0.0000,M,0.0000,0
$GPRMC,205204.44,A,3726.3193540,N,12214.8149000,W,19.3828,315.8941,190721,,,,
$GPGGA,205205.44,3726.3268240,N,12214.8239840,W,1,0,0.0,76.6237,M,0.0000,M,0.0000,0
$GPRMC,205205.44,A,3726.3268240,N,12214.8239840,W,19.0654,315.6829,190721,,,,
$GPGGA,205206.44,3726.3341560,N,12214.8330260,W,1,0,0.0,77.3839,M,0.0000,M,0.0000,0
$GPRMC,205206.44,A,3726.3341560,N,12214.8330260,W,19.0440,315.1313,190721,,,,
$GPGGA,205207.44,3726.3414580,N,12214.8421760,W,1,0,0.0,78.1493,M,0.0000,M,0.0000,0
$GPRMC,205207.44,A,3726.3414580,N,12214.8421760,W,19.1969,314.8315,190721,,,,
$GPGGA,205208.44,3726.3488500,N,12214.8514940,W,1,0,0.0,78.9234,M,0.0000,M,0.0000,0
$GPRMC,205208.44,A,3726.3488500,N,12214.8514940,W,19.5910,314.6703,190721,,,,
$GPGGA,205209.44,3726.3563860,N,12214.8610580,W,1,0,0.0,79.7166,M,0.0000,M,0.0000,0
$GPRMC,205209.44,A,3726.3563860,N,12214.8610580,W,20.0756,314.5757,190721,,,,
$GPGGA,205210.44,3726.3640600,N,12214.8708080,W,1,0,0.0,80.5248,M,0.0000,M,0.0000,0
$GPRMC,205210.44,A,3726.3640600,N,12214.8708080,W,20.3601,314.4764,190721,,,,
$GPGGA,205211.44,3726.3718360,N,12214.8807020,W,1,0,0.0,81.3422,M,0.0000,M,0.0000,0
$GPRMC,205211.44,A,3726.3718360,N,12214.8807020,W,20.5644,314.5077,190721,,,,
$GPGGA,205212.44,3726.3796600,N,12214.8906320,W,1,0,0.0,82.1618,M,0.0000,M,0.0000,0
$GPRMC,205212.44,A,3726.3796600,N,12214.8906320,W,20.5902,314.6011,190721,,,,
$GPGGA,205213.44,3726.3874900,N,12214.9005740,W,1,0,0.0,82.9770,M,0.0000,M,0.0000,0
$GPRMC,205213.44,A,3726.3874900,N,12214.9005740,W,20.6854,314.4976,190721,,,,
$GPGGA,205214.44,3726.3953380,N,12214.9106480,W,1,0,0.0,83.8012,M,0.0000,M,0.0000,0
$GPRMC,205214.44,A,3726.3953380,N,12214.9106480,W,20.8345,314.0526,190721,,,,
$GPGGA,205215.44,3726.4031920,N,12214.9208120,W,1,0,0.0,84.6649,M,0.0000,M,0.0000,0
$GPRMC,205215.44,A,3726.4031920,N,12214.9208120,W,20.9082,313.9479,190721,,,,
$GPGGA,205216.44,3726.4110460,N,12214.9310300,W,1,0,0.0,85.5232,M,0.0000,M,0.0000,0
$GPRMC,205216.44,A,3726.4110460,N,12214.9310300,W,21.0017,313.7802,190721,,,,
$GPGGA,205217.44,3726.4189240,N,12214.9413620,W,1,0,0.0,86.3991,M,0.0000,M,0.0000,0
$GPRMC,205217.44,A,3726.4189240,N,12214.9413620,W,21.1590,313.5320,190721,,,,
$GPGGA,205218.44,3726.4268200,N,12214.9517540,W,1,0,0.0,87.2386,M,0.0000,M,0.0000,0
$GPRMC,205218.44,A,3726.4268200,N,12214.9517540,W,21.1642,313.5541,190721,,,,
$GPGGA,205219.44,3726.4347220,N,12214.9621220,W,1,0,0.0,88.1034,M,0.0000,M,0.0000,0
$GPRMC,205219.44,A,3726.4347220,N,12214.9621220,W,21.1236,313.7199,190721,,,,
$GPGGA,205220.44,3726.4426300,N,12214.9724540,W,1,0,0.0,88.9373,M,0.0000,M,0.0000,0
$GPRMC,205220.44,A,3726.4426300,N,12214.9724540,W,21.1255,313.7932,190721,,,,
$GPGGA,205221.44,3726.4505620,N,12214.9827860,W,1,0,0.0,89.7620,M,0.0000,M,0.0000,0
$GPRMC,205221.44,A,3726.4505620,N,12214.9827860,W,21.2463,313.8743,190721,,,,
$GPGGA,205222.44,3726.4586020,N,12214.9931960,W,1,0,0.0,90.6104,M,0.0000,M,0.0000,0
$GPRMC,205222.44,A,3726.4586020,N,12214.9931960,W,21.4626,314.0578,190721,,,,
$GPGGA,205223.44,3726.4667080,N,12215.0037020,W,1,0,0.0,91.4626,M,0.0000,M,0.0000,0
$GPRMC,205223.44,A,3726.4667080,N,12215.0037020,W,21.6943,313.9298,190721,,,,
$GPGGA,205224.44,3726.4749100,N,12215.0143400,W,1,0,0.0,92.3165,M,0.0000,M,0.0000,0
$GPRMC,205224.44,A,3726.4749100,N,12215.0143400,W,21.9429,313.9565,190721,,,,
$GPGGA,205225.44,3726.4831960,N,12215.0250920,W,1,0,0.0,93.2180,M,0.0000,M,0.0000,0
$GPRMC,205225.44,A,3726.4831960,N,12215.0250920,W,22.1733,313.8840,190721,,,,
$GPGGA,205226.44,3726.4915480,N,12215.0359760,W,1,0,0.0,94.2115,M,0.0000,M,0.0000,0
$GPRMC,205226.44,A,3726.4915480,N,12215.0359760,W,22.3665,313.7900,190721,,,,
$GPGGA,205227.44,3726.4999540,N,12215.0469680,W,1,0,0.0,95.2313,M,0.0000,M,0.0000,0
$GPRMC,205227.44,A,3726.4999540,N,12215.0469680,W,22.5488,313.7374,190721,,,,
$GPGGA,205228.44,3726.5084200,N,12215.0580560,W,1,0,0.0,96.2607,M,0.0000,M,0.0000,0
$GPRMC,205228.44,A,3726.5084200,N,12215.0580560,W,22.7358,313.7622,190721,,,,
$GPGGA,205229.44,3726.5169520,N,12215.0692100,W,1,0,0.0,97.3215,M,0.0000,M,0.0000,0
$GPRMC,205229.44,A,3726.5169520,N,12215.0692100,W,22.8172,313.7455,190721,,,,
$GPGGA,205230.44,3726.5254300,N,12215.0804060,W,1,0,0.0,98.3310,M,0.0000,M,0.0000,0
$GPRMC,205230.44,A,3726.5254300,N,12215.0804060,W,22.7245,313.2215,190721,,,,
$GPGGA,205231.44,3726.5337220,N,12215.0917340,W,1,0,0.0,99.3104,M,0.0000,M,0.0000,0
$GPRMC,205231.44,A,3726.5337220,N,12215.0917340,W,22.6505,311.8825,190721,,,,
$GPGGA,205232.44,3726.5417620,N,12215.1032900,W,1,0,0.0,100.2057,M,0.0000,M,0.0000,0
$GPRMC,205232.44,A,3726.5417620,N,12215.1032900,W,22.6149,310.3123,190721,,,,
$GPGGA,205233.44,3726.5495380,N,12215.1151040,W,1,0,0.0,101.1201,M,0.0000,M,0.0000,0
$GPRMC,205233.44,A,3726.5495380,N,12215.1151040,W,22.5759,308.9938,190721,,,,
$GPGGA,205234.44,3726.5570800,N,12215.1271040,W,1,0,0.0,102.0131,M,0.0000,M,0.0000,0
$GPRMC,205234.44,A,3726.5570800,N,12215.1271040,W,22.4959,307.4069,190721,,,,
$GPGGA,205235.44,3726.5643220,N,12215.1393320,W,1,0,0.0,102.8982,M,0.0000,M,0.0000,0
$GPRMC,205235.44,A,3726.5643220,N,12215.1393320,W,22.4469,305.8496,190721,,,,
$GPGGA,205236.44,3726.5712760,N,12215.1517760,W,1,0,0.0,103.7813,M,0.0000,M,0.0000,0
$GPRMC,205236.44,A,3726.5712760,N,12215.1517760,W,22.3912,304.3127,190721,,,,
$GPGGA,205237.44,3726.5779600,N,12215.1644120,W,1,0,0.0,104.6529,M,0.0000,M,0.0000,0
$GPRMC,205237.44,A,3726.5779600,N,12215.1644120,W,22.3489,302.8771,190721,,,,
$GPGGA,205238.44,3726.5843800,N,12215.1772280,W,1,0,0.0,105.5229,M,0.0000,M,0.0000,0
$GPRMC,205238.44,A,3726.5843800,N,12215.1772280,W,22.2999,301.4748,190721,,,,
$GPGGA,205239.44,3726.5905420,N,12215.1902000,W,1,0,0.0,106.4023,M,0.0000,M,0.0000,0
$GPRMC,205239.44,A,3726.5905420,N,12215.1902000,W,22.2559,300.1399,190721,,,,
$GPGGA,205240.44,3726.5964820,N,12215.2033220,W,1,0,0.0,107.2673,M,0.0000,M,0.0000,0
$GPRMC,205240.44,A,3726.5964820,N,12215.2033220,W,22.2591,299.0600,190721,,,,
$GPGGA,205241.44,3726.6022060,N,12215.2165940,W,1,0,0.0,108.1354,M,0.0000,M,0.0000,0
$GPRMC,205241.44,A,3726.6022060,N,12215.2165940,W,22.2672,297.7654,190721,,,,
$GPGGA,205242.44,3726.6076780,N,12215.2300460,W,1,0,0.0,109.0209,M,0.0000,M,0.0000,0
$GPRMC,205242.44,A,3726.6076780,N,12215.2300460,W,22.2738,296.3453,190721,,,,
$GPGGA,205243.44,3726.6128740,N,12215.2436540,W,1,0,0.0,109.9163,M,0.0000,M,0.0000,0
$GPRMC,205243.44,A,3726.6128740,N,12215.2436540,W,22.2354,294.9193,190721,,,,
$GPGGA,205244.44,3726.6177940,N,12215.2573640,W,1,0,0.0,110.7967,M,0.0000,M,0.0000,0
$GPRMC,205244.44,A,3726.6177940,N,12215.2573640,W,22.1214,293.5555,190721,,,,
$GPGGA,205245.44,3726.6224140,N,12215.2711580,W,1,0,0.0,111.6590,M,0.0000,M,0.0000,0
$GPRMC,205245.44,A,3726.6224140,N,12215.2711580,W,22.0167,292.0933,190721,,,,
$GPGGA,205246.44,3726.6267400,N,12215.2850540,W,1,0,0.0,112.5189,M,0.0000,M,0.0000,0
$GPRMC,205246.44,A,3726.6267400,N,12215.2850540,W,22.0428,290.6444,190721,,,,
$GPGGA,205247.44,3726.6307780,N,12215.2990580,W,1,0,0.0,113.3766,M,0.0000,M,0.0000,0
$GPRMC,205247.44,A,3726.6307780,N,12215.2990580,W,21.7666,289.3135,190721,,,,
$GPGGA,205248.44,3726.6345280,N,12215.3129120,W,1,0,0.0,114.2249,M,0.0000,M,0.0000,0
$GPRMC,205248.44,A,3726.6345280,N,12215.3129120,W,21.5316,288.2020,190721,,,,
$GPGGA,205249.44,3726.6380440,N,12215.3268440,W,1,0,0.0,115.1019,M,0.0000,M,0.0000,0
$GPRMC,205249.44,A,3726.6380440,N,12215.3268440,W,21.5455,287.0328,190721,,,,
$GPGGA,205250.44,3726.6413200,N,12215.3408360,W,1,0,0.0,115.9276,M,0.0000,M,0.0000,0
$GPRMC,205250.44,A,3726.6413200,N,12215.3408360,W,21.4675,285.7076,190721,,,,
$GPGGA,205251.44,3726.6443140,N,12215.3548640,W,1,0,0.0,116.7708,M,0.0000,M,0.0000,0
$GPRMC,205251.44,A,3726.6443140,N,12215.3548640,W,21.3733,284.2982,190721,,,,
$GPGGA,205252.44,3726.6470200,N,12215.3689220,W,1,0,0.0,117.6030,M,0.0000,M,0.0000,0
$GPRMC,205252.44,A,3726.6470200,N,12215.3689220,W,21.2880,282.9107,190721,,,,
$GPGGA,205253.44,3726.6494380,N,12215.3830040,W,1,0,0.0,118.4100,M,0.0000,M,0.0000,0
$GPRMC,205253.44,A,3726.6494380,N,12215.3830040,W,21.2053,281.5172,190721,,,,
$GPGGA,205254.44,3726.6515860,N,12215.3970920,W,1,0,0.0,119.1631,M,0.0000,M,0.0000,0
$GPRMC,205254.44,A,3726.6515860,N,12215.3970920,W,21.1307,280.2900,190721,,,,
$GPGGA,205255.44,3726.6534940,N,12215.4111980,W,1,0,0.0,119.8743,M,0.0000,M,0.0000,0
$GPRMC,205255.44,A,3726.6534940,N,12215.4111980,W,21.0749,279.1576,190721,,,,
$GPGGA,205256.44,3726.6551920,N,12215.4253220,W,1,0,0.0,120.5488,M,0.0000,M,0.0000,0
$GPRMC,205256.44,A,3726.6551920,N,12215.4253220,W,21.0779,278.0170,190721,,,,
$GPGGA,205257.44,3726.6566380,N,12215.4394940,W,1,0,0.0,121.1972,M,0.0000,M,0.0000,0
$GPRMC,205257.44,A,3726.6566380,N,12215.4394940,W,21.0798,276.6005,190721,,,,
$GPGGA,205258.44,3726.6577960,N,12215.4537140,W,1,0,0.0,121.8271,M,0.0000,M,0.0000,0
$GPRMC,205258.44,A,3726.6577960,N,12215.4537140,W,21.0733,275.2097,190721,,,,
$GPGGA,205259.44,3726.6586720,N,12215.4679580,W,1,0,0.0,122.4261,M,0.0000,M,0.0000,0
$GPRMC,205259.44,A,3726.6586720,N,12215.4679580,W,21.0945,273.7556,190721,,,,
$GPGGA,205300.44,3726.6592720,N,12215.4822560,W,1,0,0.0,122.9547,M,0.0000,M,0.0000,0
$GPRMC,205300.44,A,3726.6592720,N,12215.4822560,W,21.1526,272.3915,190721,,,,
$GPGGA,205301.44,3726.6596140,N,12215.4966140,W,1,0,0.0,123.4684,M,0.0000,M,0.0000,0
$GPRMC,205301.44,A,3726.6596140,N,12215.4966140,W,21.2190,271.1404,190721,,,,
$GPGGA,205302.44,3726.6596980,N,12215.5110260,W,1,0,0.0,123.9540,M,0.0000,M,0.0000,0
$GPRMC,205302.44,A,3726.6596980,N,12215.5110260,W,21.3006,269.7879,190721,,,,
$GPGGA,205303.44,3726.6595000,N,12215.5255100,W,1,0,0.0,124.3999,M,0.0000,M,0.0000,0
$GPRMC,205303.44,A,3726.6595000,N,12215.5255100,W,21.4569,268.3171,190721,,,,
$GPGGA,205304.44,3726.6590200,N,12215.5401020,W,1,0,0.0,124.7728,M,0.0000,M,0.0000,0
$GPRMC,205304.44,A,3726.6590200,N,12215.5401020,W,21.6369,267.1036,190721,,,,
$GPGGA,205305.44,3726.6583120,N,12215.5548260,W,1,0,0.0,125.0855,M,0.0000,M,0.0000,0
$GPRMC,205305.44,A,3726.6583120,N,12215.5548260,W,21.8699,265.9910,190721,,,,
$GPGGA,205306.44,3726.6573760,N,12215.5696880,W,1,0,0.0,125.3373,M,0.0000,M,0.0000,0
$GPRMC,205306.44,A,3726.6573760,N,12215.5696880,W,22.1309,264.9724,190721,,,,
$GPGGA,205307.44,3726.6562360,N,12215.5847780,W,1,0,0.0,125.5587,M,0.0000,M,0.0000,0
$GPRMC,205307.44,A,3726.6562360,N,12215.5847780,W,22.5859,264.2144,190721,,,,
$GPGGA,205308.44,3726.6550180,N,12215.6001140,W,1,0,0.0,125.7376,M,0.0000,M,0.0000,0
$GPRMC,205308.44,A,3726.6550180,N,12215.6001140,W,22.8587,264.3296,190721,,,,
$GPGGA,205309.44,3726.6538120,N,12215.6156120,W,1,0,0.0,125.8773,M,0.0000,M,0.0000,0
$GPRMC,205309.44,A,3726.6538120,N,12215.6156120,W,23.0872,264.3395,190721,,,,
$GPGGA,205310.44,3726.6525820,N,12215.6312840,W,1,0,0.0,125.9701,M,0.0000,M,0.0000,0
$GPRMC,205310.44,A,3726.6525820,N,12215.6312840,W,23.4122,264.2818,190721,,,,
$GPGGA,205311.44,3726.6513100,N,12215.6472320,W,1,0,0.0,126.0699,M,0.0000,M,0.0000,0
$GPRMC,205311.44,A,3726.6513100,N,12215.6472320,W,23.7793,264.0868,190721,,,,
$GPGGA,205312.44,3726.6500080,N,12215.6631980,W,1,0,0.0,126.2016,M,0.0000,M,0.0000,0
$GPRMC,205312.44,A,3726.6500080,N,12215.6631980,W,23.5249,264.0739,190721,,,,
$GPGGA,205313.44,3726.6487060,N,12215.6789420,W,1,0,0.0,126.3744,M,0.0000,M,0.0000,0
$GPRMC,205313.44,A,3726.6487060,N,12215.6789420,W,23.1638,263.9467,190721,,,,
$GPGGA,205314.44,3726.6474100,N,12215.6944400,W,1,0,0.0,126.5496,M,0.0000,M,0.0000,0
$GPRMC,205314.44,A,3726.6474100,N,12215.6944400,W,22.7907,263.8704,190721,,,,
$GPGGA,205315.44,3726.6461320,N,12215.7096800,W,1,0,0.0,126.6935,M,0.0000,M,0.0000,0
$GPRMC,205315.44,A,3726.6461320,N,12215.7096800,W,22.4257,264.0455,190721,,,,
$GPGGA,205316.44,3726.6449380,N,12215.7246920,W,1,0,0.0,126.8246,M,0.0000,M,0.0000,0
$GPRMC,205316.44,A,3726.6449380,N,12215.7246920,W,22.0668,264.2968,190721,,,,
$GPGGA,205317.44,3726.6437740,N,12215.7394640,W,1,0,0.0,126.9534,M,0.0000,M,0.0000,0
$GPRMC,205317.44,A,3726.6437740,N,12215.7394640,W,21.7121,264.2698,190721,,,,
$GPGGA,205318.44,3726.6426400,N,12215.7539960,W,1,0,0.0,127.0759,M,0.0000,M,0.0000,0
$GPRMC,205318.44,A,3726.6426400,N,12215.7539960,W,21.3691,264.3822,190721,,,,
$GPGGA,205319.44,3726.6415600,N,12215.7683120,W,1,0,0.0,127.1395,M,0.0000,M,0.0000,0
$GPRMC,205319.44,A,3726.6415600,N,12215.7683120,W,21.0421,264.6008,190721,,,,
$GPGGA,205320.44,3726.6405340,N,12215.7824120,W,1,0,0.0,127.2092,M,0.0000,M,0.0000,0
$GPRMC,205320.44,A,3726.6405340,N,12215.7824120,W,20.7206,264.7239,190721,,,,
$GPGGA,205321.44,3726.6395260,N,12215.7962900,W,1,0,0.0,127.3281,M,0.0000,M,0.0000,0
$GPRMC,205321.44,A,3726.6395260,N,12215.7962900,W,20.3914,264.6738,190721,,,,
$GPGGA,205322.44,3726.6385000,N,12215.8099580,W,1,0,0.0,127.4047,M,0.0000,M,0.0000,0
$GPRMC,205322.44,A,3726.6385000,N,12215.8099580,W,20.1115,264.4074,190721,,,,
$GPGGA,205323.44,3726.6374500,N,12215.8234280,W,1,0,0.0,127.4764,M,0.0000,M,0.0000,0
$GPRMC,205323.44,A,3726.6374500,N,12215.8234280,W,19.7892,264.3458,190721,,,,
$GPGGA,205324.44,3726.6364600,N,12215.8367720,W,1,0,0.0,127.5192,M,0.0000,M,0.0000,0
$GPRMC,205324.44,A,3726.6364600,N,12215.8367720,W,19.8355,264.8113,190721,,,,
$GPGGA,205325.44,3726.6356020,N,12215.8503320,W,1,0,0.0,127.5556,M,0.0000,M,0.0000,0
$GPRMC,205325.44,A,3726.6356020,N,12215.8503320,W,20.2782,265.8688,190721,,,,
$GPGGA,205326.44,3726.6349840,N,12215.8642100,W,1,0,0.0,127.5458,M,0.0000,M,0.0000,0
$GPRMC,205326.44,A,3726.6349840,N,12215.8642100,W,20.7246,267.5039,190721,,,,
$GPGGA,205327.44,3726.6346960,N,12215.8783880,W,1,0,0.0,127.5176,M,0.0000,M,0.0000,0
$GPRMC,205327.44,A,3726.6346960,N,12215.8783880,W,21.0989,268.9301,190721,,,,
$GPGGA,205328.44,3726.6346240,N,12215.8927160,W,1,0,0.0,127.4691,M,0.0000,M,0.0000,0
$GPRMC,205328.44,A,3726.6346240,N,12215.8927160,W,21.1612,270.0913,190721,,,,
$GPGGA,205329.44,3726.6347920,N,12215.9071880,W,1,0,0.0,127.4039,M,0.0000,M,0.0000,0
$GPRMC,205329.44,A,3726.6347920,N,12215.9071880,W,21.5550,271.1961,190721,,,,
$GPGGA,205330.44,3726.6351820,N,12215.9219420,W,1,0,0.0,127.3066,M,0.0000,M,0.0000,0
$GPRMC,205330.44,A,3726.6351820,N,12215.9219420,W,21.9942,272.3087,190721,,,,
$GPGGA,205331.44,3726.6358300,N,12215.9369780,W,1,0,0.0,127.1812,M,0.0000,M,0.0000,0
$GPRMC,205331.44,A,3726.6358300,N,12215.9369780,W,22.4139,273.5782,190721,,,,
$GPGGA,205332.44,3726.6367840,N,12215.9522720,W,1,0,0.0,127.0210,M,0.0000,M,0.0000,0
$GPRMC,205332.44,A,3726.6367840,N,12215.9522720,W,22.8294,275.0552,190721,,,,
$GPGGA,205333.44,3726.6380680,N,12215.9678120,W,1,0,0.0,126.8049,M,0.0000,M,0.0000,0
$GPRMC,205333.44,A,3726.6380680,N,12215.9678120,W,23.2658,276.4132,190721,,,,
$GPGGA,205334.44,3726.6396760,N,12215.9836160,W,1,0,0.0,126.5574,M,0.0000,M,0.0000,0
$GPRMC,205334.44,A,3726.6396760,N,12215.9836160,W,23.7261,277.8011,190721,,,,
$GPGGA,205335.44,3726.6415960,N,12215.9997260,W,1,0,0.0,126.2598,M,0.0000,M,0.0000,0
$GPRMC,205335.44,A,3726.6415960,N,12215.9997260,W,24.3515,278.9022,190721,,,,
$GPGGA,205336.44,3726.6438160,N,12216.0161960,W,1,0,0.0,125.9278,M,0.0000,M,0.0000,0
$GPRMC,205336.44,A,3726.6438160,N,12216.0161960,W,24.8967,280.0642,190721,,,,
$GPGGA,205337.44,3726.6463720,N,12216.0329300,W,1,0,0.0,125.5936,M,0.0000,M,0.0000,0
$GPRMC,205337.44,A,3726.6463720,N,12216.0329300,W,25.3528,281.4271,190721,,,,
$GPGGA,205338.44,3726.6493300,N,12216.0498500,W,1,0,0.0,125.2215,M,0.0000,M,0.0000,0
$GPRMC,205338.44,A,3726.6493300,N,12216.0498500,W,25.7253,283.0767,190721,,,,
$GPGGA,205339.44,3726.6527440,N,12216.0668120,W,1,0,0.0,124.8633,M,0.0000,M,0.0000,0
$GPRMC,205339.44,A,3726.6527440,N,12216.0668120,W,25.7808,284.9318,190721,,,,
$GPGGA,205340.44,3726.6565300,N,12216.0835880,W,1,0,0.0,124.5047,M,0.0000,M,0.0000,0
$GPRMC,205340.44,A,3726.6565300,N,12216.0835880,W,25.6096,286.4755,190721,,,,
$GPGGA,205341.44,3726.6606400,N,12216.1001060,W,1,0,0.0,124.1158,M,0.0000,M,0.0000,0
$GPRMC,205341.44,A,3726.6606400,N,12216.1001060,W,25.4263,287.9764,190721,,,,
$GPGGA,205342.44,3726.6650740,N,12216.1163480,W,1,0,0.0,123.7520,M,0.0000,M,0.0000,0
$GPRMC,205342.44,A,3726.6650740,N,12216.1163480,W,25.2382,289.5076,190721,,,,
$GPGGA,205343.44,3726.6698020,N,12216.1323320,W,1,0,0.0,123.3883,M,0.0000,M,0.0000,0
$GPRMC,205343.44,A,3726.6698020,N,12216.1323320,W,25.0465,290.9391,190721,,,,
$GPGGA,205344.44,3726.6748240,N,12216.1480760,W,1,0,0.0,123.0103,M,0.0000,M,0.0000,0
$GPRMC,205344.44,A,3726.6748240,N,12216.1480760,W,25.0202,292.4351,190721,,,,
$GPGGA,205345.44,3726.6801880,N,12216.1637480,W,1,0,0.0,122.5697,M,0.0000,M,0.0000,0
$GPRMC,205345.44,A,3726.6801880,N,12216.1637480,W,25.3187,293.7246,190721,,,,
$GPGGA,205346.44,3726.6858580,N,12216.1794740,W,1,0,0.0,122.1942,M,0.0000,M,0.0000,0
$GPRMC,205346.44,A,3726.6858580,N,12216.1794740,W,25.5402,294.7331,190721,,,,
$GPGGA,205347.44,3726.6918160,N,12216.1951460,W,1,0,0.0,121.8366,M,0.0000,M,0.0000,0
$GPRMC,205347.44,A,3726.6918160,N,12216.1951460,W,25.6809,295.9686,190721,,,,
$GPGGA,205348.44,3726.6981160,N,12216.2107460,W,1,0,0.0,121.5256,M,0.0000,M,0.0000,0
$GPRMC,205348.44,A,3726.6981160,N,12216.2107460,W,25.8759,297.3596,190721,,,,
$GPGGA,205349.44,3726.7047460,N,12216.2262800,W,1,0,0.0,121.1974,M,0.0000,M,0.0000,0
$GPRMC,205349.44,A,3726.7047460,N,12216.2262800,W,26.0844,298.7720,190721,,,,
$GPGGA,205350.44,3726.7117780,N,12216.2416820,W,1,0,0.0,120.9088,M,0.0000,M,0.0000,0
$GPRMC,205350.44,A,3726.7117780,N,12216.2416820,W,26.2397,300.6470,190721,,,,
$GPGGA,205351.44,3726.7192120,N,12216.2568980,W,1,0,0.0,120.6944,M,0.0000,M,0.0000,0
$GPRMC,205351.44,A,3726.7192120,N,12216.2568980,W,26.3824,302.0854,190721,,,,
$GPGGA,205352.44,3726.7270120,N,12216.2719400,W,1,0,0.0,120.5601,M,0.0000,M,0.0000,0
$GPRMC,205352.44,A,3726.7270120,N,12216.2719400,W,26.5337,303.7677,190721,,,,
$GPGGA,205353.44,3726.7352020,N,12216.2867720,W,1,0,0.0,120.4391,M,0.0000,M,0.0000,0
$GPRMC,205353.44,A,3726.7352020,N,12216.2867720,W,26.6676,305.4042,190721,,,,
$GPGGA,205354.44,3726.7437700,N,12216.3013580,W,1,0,0.0,120.4228,M,0.0000,M,0.0000,0
$GPRMC,205354.44,A,3726.7437700,N,12216.3013580,W,26.7654,307.0673,190721,,,,
$GPGGA,205355.44,3726.7526560,N,12216.3157160,W,1,0,0.0,120.4794,M,0.0000,M,0.0000,0
$GPRMC,205355.44,A,3726.7526560,N,12216.3157160,W,26.8347,308.2997,190721,,,,
$GPGGA,205356.44,3726.7618000,N,12216.3298460,W,1,0,0.0,120.6727,M,0.0000,M,0.0000,0
$GPRMC,205356.44,A,3726.7618000,N,12216.3298460,W,26.8495,309.5941,190721,,,,
$GPGGA,205357.44,3726.7711840,N,12216.3437300,W,1,0,0.0,120.9107,M,0.0000,M,0.0000,0
$GPRMC,205357.44,A,3726.7711840,N,12216.3437300,W,26.7994,310.6181,190721,,,,
$GPGGA,205358.44,3726.7807000,N,12216.3574040,W,1,0,0.0,121.2102,M,0.0000,M,0.0000,0
$GPRMC,205358.44,A,3726.7807000,N,12216.3574040,W,26.7347,311.1295,190721,,,,
$GPGGA,205359.44,3726.7901860,N,12216.3710420,W,1,0,0.0,121.5768,M,0.0000,M,0.0000,0
$GPRMC,205359.44,A,3726.7901860,N,12216.3710420,W,26.6667,311.0721,190721,,,,
$GPGGA,205400.44,3726.7996720,N,12216.3846200,W,1,0,0.0,121.9431,M,0.0000,M,0.0000,0
$GPRMC,205400.44,A,3726.7996720,N,12216.3846200,W,26.5936,311.1392,190721,,,,
$GPGGA,205401.44,3726.8091340,N,12216.3981620,W,1,0,0.0,122.3604,M,0.0000,M,0.0000,0
$GPRMC,205401.44,A,3726.8091340,N,12216.3981620,W,26.5118,311.1841,190721,,,,
$GPGGA,205402.44,3726.8185840,N,12216.4116320,W,1,0,0.0,122.8484,M,0.0000,M,0.0000,0
$GPRMC,205402.44,A,3726.8185840,N,12216.4116320,W,26.4005,311.2650,190721,,,,
$GPGGA,205403.44,3726.8279620,N,12216.4250600,W,1,0,0.0,123.3717,M,0.0000,M,0.0000,0
$GPRMC,205403.44,A,3726.8279620,N,12216.4250600,W,26.2683,311.0226,190721,,,,
$GPGGA,205404.44,3726.8372680,N,12216.4384520,W,1,0,0.0,123.9598,M,0.0000,M,0.0000,0
$GPRMC,205404.44,A,3726.8372680,N,12216.4384520,W,26.1311,310.9575,190721,,,,
$GPGGA,205405.44,3726.8465320,N,12216.4517660,W,1,0,0.0,124.6192,M,0.0000,M,0.0000,0
$GPRMC,205405.44,A,3726.8465320,N,12216.4517660,W,25.9933,311.0968,190721,,,,
$GPGGA,205406.44,3726.8557660,N,12216.4649840,W,1,0,0.0,125.3275,M,0.0000,M,0.0000,0
$GPRMC,205406.44,A,3726.8557660,N,12216.4649840,W,25.8504,311.1437,190721,,,,
$GPGGA,205407.44,3726.8649580,N,12216.4781240,W,1,0,0.0,126.0573,M,0.0000,M,0.0000,0
$GPRMC,205407.44,A,3726.8649580,N,12216.4781240,W,25.7159,311.1697,190721,,,,
$GPGGA,205408.44,3726.8741080,N,12216.4911980,W,1,0,0.0,126.7723,M,0.0000,M,0.0000,0
$GPRMC,205408.44,A,3726.8741080,N,12216.4911980,W,25.5923,311.1732,190721,,,,
$GPGGA,205409.44,3726.8832040,N,12216.5042060,W,1,0,0.0,127.5153,M,0.0000,M,0.0000,0
$GPRMC,205409.44,A,3726.8832040,N,12216.5042060,W,25.4314,311.2473,190721,,,,
$GPGGA,205410.44,3726.8922940,N,12216.5171480,W,1,0,0.0,128.2400,M,0.0000,M,0.0000,0
$GPRMC,205410.44,A,3726.8922940,N,12216.5171480,W,25.4473,311.2950,190721,,,,
$GPGGA,205411.44,3726.9014140,N,12216.5300960,W,1,0,0.0,128.9961,M,0.0000,M,0.0000,0
$GPRMC,205411.44,A,3726.9014140,N,12216.5300960,W,25.5136,311.4576,190721,,,,
$GPGGA,205412.44,3726.9106360,N,12216.5430500,W,1,0,0.0,129.7144,M,0.0000,M,0.0000,0
$GPRMC,205412.44,A,3726.9106360,N,12216.5430500,W,25.7370,311.7676,190721,,,,
$GPGGA,205413.44,3726.9199540,N,12216.5560940,W,1,0,0.0,130.4391,M,0.0000,M,0.0000,0
$GPRMC,205413.44,A,3726.9199540,N,12216.5560940,W,25.9189,311.7428,190721,,,,
$GPGGA,205414.44,3726.9293140,N,12216.5692100,W,1,0,0.0,131.1737,M,0.0000,M,0.0000,0
$GPRMC,205414.44,A,3726.9293140,N,12216.5692100,W,25.9634,311.5975,190721,,,,
$GPGGA,205415.44,3726.9385420,N,12216.5824220,W,1,0,0.0,131.9226,M,0.0000,M,0.0000,0
$GPRMC,205415.44,A,3726.9385420,N,12216.5824220,W,25.8512,310.7424,190721,,,,
$GPGGA,205416.44,3726.9476200,N,12216.5957300,W,1,0,0.0,132.6434,M,0.0000,M,0.0000,0
$GPRMC,205416.44,A,3726.9476200,N,12216.5957300,W,25.8210,310.1067,190721,,,,
$GPGGA,205417.44,3726.9566140,N,12216.6091640,W,1,0,0.0,133.3490,M,0.0000,M,0.0000,0
$GPRMC,205417.44,A,3726.9566140,N,12216.6091640,W,25.9329,309.8605,190721,,,,
$GPGGA,205418.44,3726.9656380,N,12216.6226580,W,1,0,0.0,134.0050,M,0.0000,M,0.0000,0
$GPRMC,205418.44,A,3726.9656380,N,12216.6226580,W,25.9991,309.9038,190721,,,,
$GPGGA,205419.44,3726.9746200,N,12216.6360740,W,1,0,0.0,134.6323,M,0.0000,M,0.0000,0
$GPRMC,205419.44,A,3726.9746200,N,12216.6360740,W,25.6099,309.8193,190721,,,,
$GPGGA,205420.44,3726.9833860,N,12216.6493340,W,1,0,0.0,135.1439,M,0.0000,M,0.0000,0
$GPRMC,205420.44,A,3726.9833860,N,12216.6493340,W,25.2045,309.3906,190721,,,,
$GPGGA,205421.44,3726.9919840,N,12216.6624320,W,1,0,0.0,135.5858,M,0.0000,M,0.0000,0
$GPRMC,205421.44,A,3726.9919840,N,12216.6624320,W,24.8305,309.3391,190721,,,,
$GPGGA,205422.44,3727.0004620,N,12216.6753740,W,1,0,0.0,136.0183,M,0.0000,M,0.0000,0
$GPRMC,205422.44,A,3727.0004620,N,12216.6753740,W,24.6348,309.3679,190721,,,,
$GPGGA,205423.44,3727.0089280,N,12216.6882800,W,1,0,0.0,136.4043,M,0.0000,M,0.0000,0
$GPRMC,205423.44,A,3727.0089280,N,12216.6882800,W,24.6966,309.2905,190721,,,,
$GPGGA,205424.44,3727.0174240,N,12216.7012340,W,1,0,0.0,136.8014,M,0.0000,M,0.0000,0
$GPRMC,205424.44,A,3727.0174240,N,12216.7012340,W,24.7164,309.4843,190721,,,,
$GPGGA,205425.44,3727.0259320,N,12216.7140980,W,1,0,0.0,137.2135,M,0.0000,M,0.0000,0
$GPRMC,205425.44,A,3727.0259320,N,12216.7140980,W,24.6019,309.7584,190721,,,,
$GPGGA,205426.44,3727.0344340,N,12216.7268780,W,1,0,0.0,137.4969,M,0.0000,M,0.0000,0
$GPRMC,205426.44,A,3727.0344340,N,12216.7268780,W,24.5198,309.6550,190721,,,,
$GPGGA,205427.44,3727.0429480,N,12216.7396820,W,1,0,0.0,137.7159,M,0.0000,M,0.0000,0
$GPRMC,205427.44,A,3727.0429480,N,12216.7396820,W,24.6667,309.7341,190721,,,,
$GPGGA,205428.44,3727.0514860,N,12216.7526060,W,1,0,0.0,137.8708,M,0.0000,M,0.0000,0
$GPRMC,205428.44,A,3727.0514860,N,12216.7526060,W,24.8387,309.4066,190721,,,,
$GPGGA,205429.44,3727.0600600,N,12216.7656380,W,1,0,0.0,137.9669,M,0.0000,M,0.0000,0
$GPRMC,205429.44,A,3727.0600600,N,12216.7656380,W,25.0117,309.4990,190721,,,,
$GPGGA,205430.44,3727.0687420,N,12216.7787180,W,1,0,0.0,137.9916,M,0.0000,M,0.0000,0
$GPRMC,205430.44,A,3727.0687420,N,12216.7787180,W,25.1672,309.7282,190721,,,,
$GPGGA,205431.44,3727.0774660,N,12216.7918460,W,1,0,0.0,138.0212,M,0.0000,M,0.0000,0
$GPRMC,205431.44,A,3727.0774660,N,12216.7918460,W,25.2648,309.5635,190721,,,,
$GPGGA,205432.44,3727.0861840,N,12216.8050820,W,1,0,0.0,138.0356,M,0.0000,M,0.0000,0
$GPRMC,205432.44,A,3727.0861840,N,12216.8050820,W,25.3531,309.4109,190721,,,,
$GPGGA,205433.44,3727.0949140,N,12216.8183660,W,1,0,0.0,138.0109,M,0.0000,M,0.0000,0
$GPRMC,205433.44,A,3727.0949140,N,12216.8183660,W,25.4442,309.2444,190721,,,,
$GPGGA,205434.44,3727.1036020,N,12216.8317880,W,1,0,0.0,137.9611,M,0.0000,M,0.0000,0
$GPRMC,205434.44,A,3727.1036020,N,12216.8317880,W,25.4863,308.7180,190721,,,,
$GPGGA,205435.44,3727.1122180,N,12216.8452280,W,1,0,0.0,137.8405,M,0.0000,M,0.0000,0
$GPRMC,205435.44,A,3727.1122180,N,12216.8452280,W,25.4399,308.7802,190721,,,,
$GPGGA,205436.44,3727.1208940,N,12216.8586380,W,1,0,0.0,137.7012,M,0.0000,M,0.0000,0
$GPRMC,205436.44,A,3727.1208940,N,12216.8586380,W,25.4783,309.1876,190721,,,,
$GPGGA,205437.44,3727.1296540,N,12216.8719880,W,1,0,0.0,137.4841,M,0.0000,M,0.0000,0
$GPRMC,205437.44,A,3727.1296540,N,12216.8719880,W,25.5449,309.5432,190721,,,,
$GPGGA,205438.44,3727.1385160,N,12216.8853440,W,1,0,0.0,137.2217,M,0.0000,M,0.0000,0
$GPRMC,205438.44,A,3727.1385160,N,12216.8853440,W,25.7160,309.7415,190721,,,,
$GPGGA,205439.44,3727.1474320,N,12216.8988140,W,1,0,0.0,136.8968,M,0.0000,M,0.0000,0
$GPRMC,205439.44,A,3727.1474320,N,12216.8988140,W,25.9593,309.4590,190721,,,,
$GPGGA,205440.44,3727.1563900,N,12216.9124820,W,1,0,0.0,136.5402,M,0.0000,M,0.0000,0
$GPRMC,205440.44,A,3727.1563900,N,12216.9124820,W,26.2365,309.2288,190721,,,,
$GPGGA,205441.44,3727.1654260,N,12216.9263360,W,1,0,0.0,136.1517,M,0.0000,M,0.0000,0
$GPRMC,205441.44,A,3727.1654260,N,12216.9263360,W,26.5577,309.1665,190721,,,,
$GPGGA,205442.44,3727.1745940,N,12216.9403640,W,1,0,0.0,135.7039,M,0.0000,M,0.0000,0
$GPRMC,205442.44,A,3727.1745940,N,12216.9403640,W,26.9561,309.3273,190721,,,,
$GPGGA,205443.44,3727.1839420,N,12216.9545780,W,1,0,0.0,135.2050,M,0.0000,M,0.0000,0
$GPRMC,205443.44,A,3727.1839420,N,12216.9545780,W,27.3875,309.4966,190721,,,,
$GPGGA,205444.44,3727.1934700,N,12216.9689960,W,1,0,0.0,134.6474,M,0.0000,M,0.0000,0
$GPRMC,205444.44,A,3727.1934700,N,12216.9689960,W,27.8702,309.5742,190721,,,,
$GPGGA,205445.44,3727.2031900,N,12216.9836600,W,1,0,0.0,134.0148,M,0.0000,M,0.0000,0
$GPRMC,205445.44,A,3727.2031900,N,12216.9836600,W,28.3547,309.6282,190721,,,,
$GPGGA,205446.44,3727.2130600,N,12216.9985580,W,1,0,0.0,133.3919,M,0.0000,M,0.0000,0
$GPRMC,205446.44,A,3727.2130600,N,12216.9985580,W,28.7774,309.5221,190721,,,,
$GPGGA,205447.44,3727.2230140,N,12217.0137620,W,1,0,0.0,132.7464,M,0.0000,M,0.0000,0
$GPRMC,205447.44,A,3727.2230140,N,12217.0137620,W,29.2274,309.1765,190721,,,,
$GPGGA,205448.44,3727.2330820,N,12217.0291880,W,1,0,0.0,132.1216,M,0.0000,M,0.0000,0
$GPRMC,205448.44,A,3727.2330820,N,12217.0291880,W,29.5386,309.2963,190721,,,,
$GPGGA,205449.44,3727.2431920,N,12217.0446560,W,1,0,0.0,131.4972,M,0.0000,M,0.0000,0
$GPRMC,205449.44,A,3727.2431920,N,12217.0446560,W,29.4076,309.2388,190721,,,,
$GPGGA,205450.44,3727.2532660,N,12217.0600220,W,1,0,0.0,130.8210,M,0.0000,M,0.0000,0
$GPRMC,205450.44,A,3727.2532660,N,12217.0600220,W,29.2946,309.5515,190721,,,,
$GPGGA,205451.44,3727.2633880,N,12217.0752860,W,1,0,0.0,130.1896,M,0.0000,M,0.0000,0
$GPRMC,205451.44,A,3727.2633880,N,12217.0752860,W,29.2777,309.6900,190721,,,,
$GPGGA,205452.44,3727.2735220,N,12217.0905500,W,1,0,0.0,129.5412,M,0.0000,M,0.0000,0
$GPRMC,205452.44,A,3727.2735220,N,12217.0905500,W,29.2990,309.6753,190721,,,,
$GPGGA,205453.44,3727.2836440,N,12217.1058260,W,1,0,0.0,128.8859,M,0.0000,M,0.0000,0
$GPRMC,205453.44,A,3727.2836440,N,12217.1058260,W,29.3065,309.5517,190721,,,,
$GPGGA,205454.44,3727.2937240,N,12217.1211620,W,1,0,0.0,128.2483,M,0.0000,M,0.0000,0
$GPRMC,205454.44,A,3727.2937240,N,12217.1211620,W,29.3338,309.2774,190721,,,,
$GPGGA,205455.44,3727.3037800,N,12217.1365640,W,1,0,0.0,127.5917,M,0.0000,M,0.0000,0
$GPRMC,205455.44,A,3727.3037800,N,12217.1365640,W,29.3768,309.1790,190721,,,,
$GPGGA,205456.44,3727.3138600,N,12217.1519900,W,1,0,0.0,126.9090,M,0.0000,M,0.0000,0
$GPRMC,205456.44,A,3727.3138600,N,12217.1519900,W,29.4406,309.3191,190721,,,,
$GPGGA,205457.44,3727.3240000,N,12217.1673980,W,1,0,0.0,126.2440,M,0.0000,M,0.0000,0
$GPRMC,205457.44,A,3727.3240000,N,12217.1673980,W,29.4762,309.4037,190721,,,,
$GPGGA,205458.44,3727.3341280,N,12217.1828420,W,1,0,0.0,125.5431,M,0.0000,M,0.0000,0
$GPRMC,205458.44,A,3727.3341280,N,12217.1828420,W,29.5139,309.1681,190721,,,,
$GPGGA,205459.44,3727.3442680,N,12217.1983400,W,1,0,0.0,124.7804,M,0.0000,M,0.0000,0
$GPRMC,205459.44,A,3727.3442680,N,12217.1983400,W,29.6304,309.3654,190721,,,,
$GPGGA,205500.44,3727.3545580,N,12217.2138020,W,1,0,0.0,124.0261,M,0.0000,M,0.0000,0
$GPRMC,205500.44,A,3727.3545580,N,12217.2138020,W,29.7655,310.1322,190721,,,,
$GPGGA,205501.44,3727.3650820,N,12217.2291260,W,1,0,0.0,123.3537,M,0.0000,M,0.0000,0
$GPRMC,205501.44,A,3727.3650820,N,12217.2291260,W,29.8653,311.1967,190721,,,,
$GPGGA,205502.44,3727.3759180,N,12217.2441500,W,1,0,0.0,122.8932,M,0.0000,M,0.0000,0
$GPRMC,205502.44,A,3727.3759180,N,12217.2441500,W,29.8834,313.0110,190721,,,,
$GPGGA,205503.44,3727.3871680,N,12217.2587300,W,1,0,0.0,122.5238,M,0.0000,M,0.0000,0
$GPRMC,205503.44,A,3727.3871680,N,12217.2587300,W,29.9744,315.1936,190721,,,,
$GPGGA,205504.44,3727.3989280,N,12217.2727820,W,1,0,0.0,122.3064,M,0.0000,M,0.0000,0
$GPRMC,205504.44,A,3727.3989280,N,12217.2727820,W,30.0991,317.2622,190721,,,,
$GPGGA,205505.44,3727.4111260,N,12217.2863480,W,1,0,0.0,122.1874,M,0.0000,M,0.0000,0
$GPRMC,205505.44,A,3727.4111260,N,12217.2863480,W,30.2177,319.2614,190721,,,,
$GPGGA,205506.44,3727.4236900,N,12217.2994940,W,1,0,0.0,122.1981,M,0.0000,M,0.0000,0
$GPRMC,205506.44,A,3727.4236900,N,12217.2994940,W,30.3186,320.9699,190721,,,,
$GPGGA,205507.44,3727.4365900,N,12217.3121540,W,1,0,0.0,122.3611,M,0.0000,M,0.0000,0
$GPRMC,205507.44,A,3727.4365900,N,12217.3121540,W,30.1428,322.8907,190721,,,,
$GPGGA,205508.44,3727.4497420,N,12217.3241180,W,1,0,0.0,122.6596,M,0.0000,M,0.0000,0
$GPRMC,205508.44,A,3727.4497420,N,12217.3241180,W,29.9789,324.8664,190721,,,,
$GPGGA,205509.44,3727.4631280,N,12217.3354880,W,1,0,0.0,123.0944,M,0.0000,M,0.0000,0
$GPRMC,205509.44,A,3727.4631280,N,12217.3354880,W,29.8576,326.7816,190721,,,,
$GPGGA,205510.44,3727.4767780,N,12217.3462400,W,1,0,0.0,123.6155,M,0.0000,M,0.0000,0
$GPRMC,205510.44,A,3727.4767780,N,12217.3462400,W,29.7551,328.7854,190721,,,,
$GPGGA,205511.44,3727.4906380,N,12217.3563920,W,1,0,0.0,124.2137,M,0.0000,M,0.0000,0
$GPRMC,205511.44,A,3727.4906380,N,12217.3563920,W,29.6134,330.4402,190721,,,,
$GPGGA,205512.44,3727.5046600,N,12217.3659920,W,1,0,0.0,124.7951,M,0.0000,M,0.0000,0
$GPRMC,205512.44,A,3727.5046600,N,12217.3659920,W,29.4657,332.2924,190721,,,,
$GPGGA,205513.44,3727.5188620,N,12217.3749020,W,1,0,0.0,125.4195,M,0.0000,M,0.0000,0
$GPRMC,205513.44,A,3727.5188620,N,12217.3749020,W,29.3003,334.3918,190721,,,,
$GPGGA,205514.44,3727.5332320,N,12217.3831160,W,1,0,0.0,126.0536,M,0.0000,M,0.0000,0
$GPRMC,205514.44,A,3727.5332320,N,12217.3831160,W,29.1328,336.4731,190721,,,,
$GPGGA,205515.44,3727.5477400,N,12217.3907060,W,1,0,0.0,126.6447,M,0.0000,M,0.0000,0
$GPRMC,205515.44,A,3727.5477400,N,12217.3907060,W,29.0065,338.1641,190721,,,,
$GPGGA,205516.44,3727.5623740,N,12217.3976900,W,1,0,0.0,127.2124,M,0.0000,M,0.0000,0
$GPRMC,205516.44,A,3727.5623740,N,12217.3976900,W,28.9124,340.0671,190721,,,,
$GPGGA,205517.44,3727.5771460,N,12217.4040380,W,1,0,0.0,127.7376,M,0.0000,M,0.0000,0
$GPRMC,205517.44,A,3727.5771460,N,12217.4040380,W,28.8455,341.9276,190721,,,,
$GPGGA,205518.44,3727.5920200,N,12217.4098220,W,1,0,0.0,128.3225,M,0.0000,M,0.0000,0
$GPRMC,205518.44,A,3727.5920200,N,12217.4098220,W,28.7458,343.4669,190721,,,,
$GPGGA,205519.44,3727.6069420,N,12217.4150900,W,1,0,0.0,128.9408,M,0.0000,M,0.0000,0
$GPRMC,205519.44,A,3727.6069420,N,12217.4150900,W,28.6221,345.0924,190721,,,,
$GPGGA,205520.44,3727.6219540,N,12217.4197160,W,1,0,0.0,129.5606,M,0.0000,M,0.0000,0
$GPRMC,205520.44,A,3727.6219540,N,12217.4197160,W,28.6007,347.1169,190721,,,,
$GPGGA,205521.44,3727.6371220,N,12217.4236580,W,1,0,0.0,130.1927,M,0.0000,M,0.0000,0
$GPRMC,205521.44,A,3727.6371220,N,12217.4236580,W,28.7058,349.2666,190721,,,,
$GPGGA,205522.44,3727.6524640,N,12217.4269640,W,1,0,0.0,130.7647,M,0.0000,M,0.0000,0
$GPRMC,205522.44,A,3727.6524640,N,12217.4269640,W,28.8852,351.1295,190721,,,,
$GPGGA,205523.44,3727.6679740,N,12217.4296880,W,1,0,0.0,131.3454,M,0.0000,M,0.0000,0
$GPRMC,205523.44,A,3727.6679740,N,12217.4296880,W,29.0771,352.8252,190721,,,,
$GPGGA,205524.44,3727.6836640,N,12217.4317340,W,1,0,0.0,131.9510,M,0.0000,M,0.0000,0
$GPRMC,205524.44,A,3727.6836640,N,12217.4317340,W,29.2418,355.1248,190721,,,,
$GPGGA,205525.44,3727.6994500,N,12217.4330600,W,1,0,0.0,132.5833,M,0.0000,M,0.0000,0
$GPRMC,205525.44,A,3727.6994500,N,12217.4330600,W,29.2673,356.9968,190721,,,,
$GPGGA,205526.44,3727.7152480,N,12217.4339540,W,1,0,0.0,133.3687,M,0.0000,M,0.0000,0
$GPRMC,205526.44,A,3727.7152480,N,12217.4339540,W,29.2491,357.6931,190721,,,,
$GPGGA,205527.44,3727.7310520,N,12217.4346680,W,1,0,0.0,134.0753,M,0.0000,M,0.0000,0
$GPRMC,205527.44,A,3727.7310520,N,12217.4346680,W,29.2555,358.0692,190721,,,,
