% program   : RTKPOST ver.demo5 b34_phone
% inp file  : C:\Users\Dong Kyeong Lee\Desktop\Research\GSDC2022\train\2021-07-19-US-MTV-1\XiaomiMi8\supplemental\gnss_rinex.21o
% inp file  : C:\Users\Dong Kyeong Lee\Documents\GitHub\dole7890\MATLAB-Codes\DK\dat\slac200\slac2000.21o
% inp file  : C:\Users\Dong Kyeong Lee\Documents\GitHub\dole7890\MATLAB-Codes\DK\dat\slac200\slac2000.21n
% obs start : 2021/07/19 20:49:39.0 GPST (week2167 161379.0s)
% obs end   : 2021/07/19 21:21:15.0 GPST (week2167 163275.0s)
% pos mode  : DGPS
% freqs     : L1+L2/E5b+L5
% solution  : Combined-No Phase Reset
% elev mask : 15.0 deg
% dynamics  : on
% tidecorr  : off
% ionos opt : Broadcast
% tropo opt : Saastamoinen
% ephemeris : Broadcast
% navi sys  : GPS GLONASS Galileo
% antenna1  :                       ( 0.0000  0.0000  0.0000)
% antenna2  :                       ( 0.0000  0.0000  0.0000)
% ref pos   : 37.416516999 -122.204262000    63.6962
%
% (lat/lon/height=WGS84/ellipsoidal,Q=1:fix,2:float,3:sbas,4:dgps,5:single,6:ppp,ns=# of satellites)
%  GPST          latitude(deg) longitude(deg)  height(m)   Q  ns   sdn(m)   sde(m)   sdu(m)  sdne(m)  sdeu(m)  sdun(m) age(s)  ratio
2167 161379.000   37.444249128 -122.232707518    16.6045   4   8   1.6453   1.0704   2.8759   0.4547  -0.4454   0.6029 -21.00    0.0
2167 161380.000   37.444265815 -122.232721174    24.7587   4   8   1.6265   1.0648   2.7943   0.4477  -0.4318   0.5809 -20.00    0.0
2167 161381.000   37.444335501 -122.232722700    26.1813   4   8   1.6292   1.0652   2.8249   0.4479  -0.4366   0.5892 -19.00    0.0
2167 161382.000   37.444352767 -122.232737949    25.4023   4   8   1.6227   1.0584   2.8299   0.4458  -0.4392   0.5923 -18.00    0.0
2167 161383.000   37.444345748 -122.232747020    16.7191   4   8   1.6030   1.0504   2.7897   0.4313  -0.4219   0.6162 -17.00    0.0
2167 161384.000   37.444160405 -122.232800013    14.2611   4   9   1.4366   1.0008   2.6997  -0.1968   0.2042   0.8855 -16.00    0.0
2167 161385.000   37.444215456 -122.232781876    18.1556   4   8   1.4996   1.0808   2.8506  -0.4603   0.6321   0.7108 -15.00    0.0
2167 161386.000   37.444233876 -122.232781534    17.4070   4   8   1.8189   1.0401   3.2768  -0.6022  -0.7195   1.7212 -14.00    0.0
2167 161387.000   37.444114548 -122.232776980     7.6903   4   9   1.4411   0.9994   2.6474  -0.2136   0.1211   0.9258 -13.00    0.0
2167 161388.000   37.444115462 -122.232865740    22.7135   4   9   1.4307   0.9990   2.5927  -0.2027   0.1780   0.8720 -12.00    0.0
2167 161389.000   37.444065508 -122.233051479    20.4587   4   9   1.4310   0.9989   2.5856  -0.2028   0.1698   0.8735 -11.00    0.0
2167 161390.000   37.444001529 -122.232797597    16.0126   4   9   1.4304   0.9988   2.5865  -0.2024   0.1700   0.8733 -10.00    0.0
2167 161391.000   37.444168920 -122.232813558    21.0660   4   9   1.4292   0.9988   2.5859  -0.2015   0.1709   0.8723  -9.00    0.0
2167 161392.000   37.444171526 -122.232921914    17.2405   4   9   1.4291   0.9987   2.5805  -0.2013   0.1671   0.8735  -8.00    0.0
2167 161393.000   37.444131019 -122.233009476    19.9437   4   9   1.4064   0.9983   2.5509  -0.1828   0.1972   0.8156  -7.00    0.0
2167 161394.000   37.444044366 -122.232947872    11.7079   4   9   0.9531   0.9866   2.3819   0.3520   0.4214  -0.5280  -6.00    0.0
2167 161395.000   37.444046164 -122.232993502    15.1302   4   9   0.9507   0.9867   2.3672   0.3522   0.4211  -0.5443  -5.00    0.0
2167 161396.000   37.444028883 -122.233002381    10.9373   4   9   0.9494   0.9868   2.3676   0.3529   0.4226  -0.5408  -4.00    0.0
2167 161397.000   37.443995145 -122.233027449     6.8777   4   9   0.9498   0.9873   2.3792   0.3547   0.4090  -0.5494  -3.00    0.0
2167 161398.000   37.444001740 -122.233061052     3.7910   4   8   0.9752   1.0610   2.4942   0.4601  -0.3623  -0.6848  -2.00    0.0
2167 161399.000   37.443955811 -122.233075516    12.2006   4   9   0.9499   0.9872   2.3794   0.3547   0.4090  -0.5486  -1.00    0.0
2167 161400.000   37.443896398 -122.233055506    15.0038   4   9   0.9493   0.9866   2.3677   0.3529   0.4225  -0.5392  -0.00    0.0
2167 161401.000   37.443884431 -122.233100007    16.2742   4   9   0.9512   0.9866   2.3674   0.3521   0.4209  -0.5412 -29.00    0.0
2167 161402.000   37.443877363 -122.233122339    10.1624   4   9   0.9536   0.9865   2.3814   0.3520   0.4210  -0.5235 -28.00    0.0
2167 161403.000   37.443863754 -122.233104132    14.6872   4   9   1.4067   0.9982   2.5488  -0.1853   0.1954   0.8162 -27.00    0.0
2167 161404.000   37.443841697 -122.233124026    12.9730   4   9   1.4283   0.9986   2.5778  -0.2032   0.1648   0.8734 -26.00    0.0
2167 161405.000   37.443874357 -122.233176252    11.6390   4   9   1.4283   0.9986   2.5787  -0.2034   0.1650   0.8737 -25.00    0.0
2167 161406.000   37.443868136 -122.233214925     8.0013   4   9   1.4080   0.9982   2.5503  -0.1871   0.1945   0.8180 -24.00    0.0
2167 161407.000   37.443887549 -122.233263219     4.4622   4   9   0.9554   0.9863   2.3832   0.3512   0.4218  -0.5242 -23.00    0.0
2167 161408.000   37.443944293 -122.233331611     5.0995   4   9   0.9554   0.9863   2.3832   0.3512   0.4218  -0.5238 -22.00    0.0
2167 161409.000   37.443994711 -122.233433308     5.0618   4   9   1.4080   0.9981   2.5502  -0.1878   0.1942   0.8183 -21.00    0.0
2167 161410.000   37.444029640 -122.233526866     5.3244   4   9   1.4284   0.9985   2.5787  -0.2045   0.1644   0.8740 -20.00    0.0
2167 161411.000   37.444084565 -122.233625348     3.9928   4   9   1.4284   0.9984   2.5781  -0.2048   0.1641   0.8735 -19.00    0.0
2167 161412.000   37.444172517 -122.233727836     5.3106   4   9   1.4069   0.9980   2.5491  -0.1877   0.1947   0.8163 -18.00    0.0
2167 161413.000   37.444187333 -122.233838585     2.6522   4   9   0.9540   0.9861   2.3824   0.3520   0.4209  -0.5186 -17.00    0.0
2167 161414.000   37.444242969 -122.233951210     5.4250   4   9   0.9530   0.9861   2.3693   0.3513   0.4218  -0.5387 -16.00    0.0
2167 161415.000   37.444299512 -122.234062163     3.3551   4   9   0.9537   0.9860   2.3833   0.3520   0.4211  -0.5182 -15.00    0.0
2167 161416.000   37.444359158 -122.234137794     6.3083   4   9   1.4059   0.9979   2.5464  -0.1870   0.1922   0.8187 -14.00    0.0
2167 161417.000   37.444379318 -122.234183233     5.9497   4   9   1.4059   0.9979   2.5466  -0.1871   0.1917   0.8195 -13.00    0.0
2167 161418.000   37.444397345 -122.234235400     8.4584   4   9   0.9536   0.9860   2.3834   0.3522   0.4208  -0.5169 -12.00    0.0
2167 161419.000   37.444404986 -122.234253475    11.3864   4   9   0.9515   0.9863   2.3704   0.3523   0.4228  -0.5338 -11.00    0.0
2167 161420.000   37.444396169 -122.234292959     5.3737   4   9   0.9508   0.9869   2.3838   0.3548   0.4110  -0.5385 -10.00    0.0
2167 161421.000   37.444434405 -122.234251585     0.7892   4   8   0.9772   1.0623   2.5170   0.4633  -0.3845  -0.6877  -9.00    0.0
2167 161422.000   37.444409488 -122.234231842    -4.1192   4   8   0.9784   1.0641   2.5342   0.4666  -0.4082  -0.6976  -8.00    0.0
2167 161423.000   37.444427061 -122.234270369    -3.8513   4   8   0.9784   1.0642   2.5356   0.4665  -0.4063  -0.6967  -7.00    0.0
2167 161424.000   37.444400325 -122.234273571    -3.7326   4   8   0.9785   1.0643   2.5356   0.4667  -0.4065  -0.6963  -6.00    0.0
2167 161425.000   37.444406588 -122.234283579    -2.3728   4   8   0.9785   1.0642   2.5363   0.4667  -0.4067  -0.6962  -5.00    0.0
2167 161426.000   37.444388650 -122.234289446    -1.8968   4   8   0.9786   1.0642   2.5371   0.4666  -0.4065  -0.6960  -4.00    0.0
2167 161427.000   37.444408572 -122.234284629    -3.7245   4   8   0.9787   1.0642   2.5372   0.4666  -0.4066  -0.6956  -3.00    0.0
2167 161428.000   37.444391661 -122.234295718    -1.8041   4   8   0.9787   1.0642   2.5368   0.4666  -0.4068  -0.6952  -2.00    0.0
2167 161429.000   37.444393351 -122.234288196     3.4159   4   8   0.9788   1.0642   2.5363   0.4666  -0.4067  -0.6947  -1.00    0.0
2167 161430.000   37.444372856 -122.234261084    -4.5459   4   8   0.9783   1.0638   2.5361   0.4665  -0.4063  -0.6946  -0.00    0.0
2167 161431.000   37.444380981 -122.234252692    -4.2752   4   8   0.9788   1.0638   2.5346   0.4664  -0.4084  -0.6940 -29.00    0.0
2167 161432.000   37.444405301 -122.234253289    -1.7672   4   8   0.9776   1.0620   2.5172   0.4632  -0.3848  -0.6832 -28.00    0.0
2167 161433.000   37.444399104 -122.234269592     3.2296   4   9   0.9512   0.9866   2.3847   0.3547   0.4106  -0.5333 -27.00    0.0
2167 161434.000   37.444424868 -122.234317369     4.3410   4   9   0.9506   0.9858   2.3713   0.3529   0.4220  -0.5247 -26.00    0.0
2167 161435.000   37.444430647 -122.234401628     6.4252   4   9   0.9506   0.9855   2.3704   0.3528   0.4201  -0.5247 -25.00    0.0
2167 161436.000   37.444421537 -122.234481423     7.8462   4   9   0.9506   0.9854   2.3704   0.3526   0.4205  -0.5241 -24.00    0.0
2167 161437.000   37.444371500 -122.234573357     6.1269   4   9   0.9506   0.9854   2.3700   0.3526   0.4204  -0.5236 -23.00    0.0
2167 161438.000   37.444352258 -122.234642815     9.3084   4   9   0.9506   0.9854   2.3701   0.3526   0.4204  -0.5232 -22.00    0.0
2167 161439.000   37.444270602 -122.234693147     8.6946   4   9   0.9506   0.9853   2.3704   0.3526   0.4203  -0.5229 -21.00    0.0
2167 161440.000   37.444198070 -122.234780999     7.3589   4   9   0.9507   0.9853   2.3701   0.3528   0.4196  -0.5226 -20.00    0.0
2167 161441.000   37.444088244 -122.234847448     7.2680   4   9   0.9507   0.9856   2.3708   0.3530   0.4215  -0.5217 -19.00    0.0
2167 161442.000   37.443970528 -122.234921438     9.6526   4   9   0.9513   0.9862   2.3849   0.3546   0.4106  -0.5295 -18.00    0.0
2167 161443.000   37.443835789 -122.234997955     9.0024   4   8   0.9777   1.0613   2.5164   0.4630  -0.3865  -0.6799 -17.00    0.0
2167 161444.000   37.443699204 -122.235104785    10.2628   4   8   0.9778   1.0613   2.5167   0.4631  -0.3872  -0.6798 -16.00    0.0
2167 161445.000   37.443550266 -122.235216603    11.5303   4   9   0.9514   0.9864   2.3869   0.3549   0.4123  -0.5282 -15.00    0.0
2167 161446.000   37.443415931 -122.235302110    11.7279   4   9   0.9515   0.9865   2.3870   0.3550   0.4122  -0.5278 -14.00    0.0
2167 161447.000   37.443264862 -122.235379853     8.4863   4   8   0.9780   1.0615   2.5195   0.4633  -0.3856  -0.6790 -13.00    0.0
2167 161448.000   37.443125342 -122.235467908     5.2444   4   8   0.9792   1.0632   2.5377   0.4664  -0.4084  -0.6890 -12.00    0.0
2167 161449.000   37.442978244 -122.235578820     4.2965   4   8   0.9792   1.0633   2.5391   0.4664  -0.4065  -0.6885 -11.00    0.0
2167 161450.000   37.442856411 -122.235643295     5.8198   4   8   0.9793   1.0634   2.5381   0.4665  -0.4072  -0.6881 -10.00    0.0
2167 161451.000   37.442703852 -122.235769940    12.3453   4   8   0.9794   1.0633   2.5380   0.4665  -0.4072  -0.6877  -9.00    0.0
2167 161452.000   37.442554036 -122.235840623    15.2760   4   8   0.9794   1.0632   2.5388   0.4663  -0.4068  -0.6874  -8.00    0.0
2167 161453.000   37.442394266 -122.235978079    17.4742   4   8   0.9795   1.0630   2.5375   0.4663  -0.4087  -0.6871  -7.00    0.0
2167 161454.000   37.442247816 -122.236041122    22.0150   4   8   0.9783   1.0612   2.5205   0.4630  -0.3849  -0.6763  -6.00    0.0
2167 161455.000   37.442129183 -122.236132916    26.2210   4   9   0.9520   0.9860   2.3882   0.3546   0.4108  -0.5240  -5.00    0.0
2167 161456.000   37.442012529 -122.236223171    23.5930   4   9   0.9515   0.9853   2.3744   0.3530   0.4215  -0.5154  -4.00    0.0
2167 161457.000   37.441877396 -122.236296654    21.8620   4   9   0.9515   0.9853   2.3741   0.3530   0.4214  -0.5148  -3.00    0.0
2167 161458.000   37.441767810 -122.236399297    22.0213   4   9   0.9522   0.9858   2.3877   0.3545   0.4105  -0.5224  -2.00    0.0
2167 161459.000   37.441624993 -122.236497467    23.1640   4   8   0.9786   1.0608   2.5180   0.4628  -0.3870  -0.6743  -1.00    0.0
2167 161460.000   37.441482710 -122.236596120    25.0772   4   8   0.9782   1.0606   2.5172   0.4629  -0.3871  -0.6742  -0.00    0.0
2167 161461.000   37.441357886 -122.236711595    27.8063   4   9   0.9523   0.9857   2.3868   0.3545   0.4099  -0.5210 -29.00    0.0
2167 161462.000   37.441223935 -122.236820576    25.1156   4   9   0.9518   0.9851   2.3738   0.3528   0.4212  -0.5128 -28.00    0.0
2167 161463.000   37.441097128 -122.236976802    25.7537   4   9   0.9518   0.9848   2.3738   0.3526   0.4196  -0.5132 -27.00    0.0
2167 161464.000   37.440980198 -122.237148325    24.1433   4   9   0.9520   0.9847   2.3739   0.3525   0.4201  -0.5114 -26.00    0.0
2167 161465.000   37.440843647 -122.237323191    27.2831   4   9   0.9534   0.9847   2.3738   0.3518   0.4206  -0.5139 -25.00    0.0
2167 161466.000   37.440719001 -122.237511268    23.5213   4   9   0.9556   0.9846   2.3870   0.3518   0.4198  -0.4948 -24.00    0.0
2167 161467.000   37.440643549 -122.237730250    24.8322   4   9   1.4076   0.9972   2.5446  -0.1991   0.1839   0.8249 -23.00    0.0
2167 161468.000   37.440517861 -122.237897984    34.0895   4   9   1.4076   0.9972   2.5446  -0.1993   0.1838   0.8250 -22.00    0.0
2167 161469.000   37.440434076 -122.238117836    36.6083   4   9   0.9557   0.9845   2.3871   0.3518   0.4197  -0.4935 -21.00    0.0
2167 161470.000   37.440317972 -122.238280254    36.9692   4   9   0.9534   0.9845   2.3736   0.3518   0.4201  -0.5118 -20.00    0.0
2167 161471.000   37.440195365 -122.238465455    36.1251   4   9   0.9521   0.9844   2.3736   0.3525   0.4196  -0.5084 -19.00    0.0
2167 161472.000   37.440074777 -122.238645085    34.7440   4   9   0.9520   0.9844   2.3746   0.3524   0.4199  -0.5097 -18.00    0.0
2167 161473.000   37.439939117 -122.238833169    33.5366   4   9   0.9520   0.9844   2.3746   0.3524   0.4199  -0.5093 -17.00    0.0
2167 161474.000   37.439790679 -122.239004331    32.4802   4   9   0.9521   0.9843   2.3739   0.3525   0.4195  -0.5071 -16.00    0.0
2167 161475.000   37.439660252 -122.239179681    35.0362   4   9   0.9535   0.9843   2.3742   0.3518   0.4201  -0.5096 -15.00    0.0
2167 161476.000   37.439500709 -122.239324933    35.0405   4   9   0.9559   0.9843   2.3883   0.3518   0.4200  -0.4904 -14.00    0.0
2167 161477.000   37.439372236 -122.239475270    38.0102   4   9   1.4079   0.9970   2.5458  -0.2012   0.1836   0.8262 -13.00    0.0
2167 161478.000   37.439215635 -122.239615265    42.7438   4   9   1.4079   0.9971   2.5454  -0.2013   0.1819   0.8262 -12.00    0.0
2167 161479.000   37.439086114 -122.239743581    42.9619   4   9   0.9561   0.9846   2.3894   0.3521   0.4211  -0.4885 -11.00    0.0
2167 161480.000   37.438951399 -122.239857356    43.1213   4   9   0.9545   0.9852   2.3897   0.3537   0.4104  -0.5154 -10.00    0.0
2167 161481.000   37.438804456 -122.239967245    39.9355   4   8   0.9795   1.0600   2.5212   0.4627  -0.3873  -0.6669  -9.00    0.0
2167 161482.000   37.438652421 -122.240074984    42.7601   4   8   0.9795   1.0600   2.5225   0.4627  -0.3873  -0.6677  -8.00    0.0
2167 161483.000   37.438482671 -122.240201852    44.1092   4   9   0.9531   0.9852   2.3911   0.3545   0.4099  -0.5122  -7.00    0.0
2167 161484.000   37.438307898 -122.240311230    43.6664   4   9   0.9526   0.9848   2.3782   0.3531   0.4228  -0.5025  -6.00    0.0
2167 161485.000   37.438166223 -122.240393810    47.5912   4   9   0.9532   0.9852   2.3910   0.3547   0.4095  -0.5108  -5.00    0.0
2167 161486.000   37.437987697 -122.240466016    46.8824   4   8   0.9797   1.0601   2.5243   0.4628  -0.3860  -0.6657  -4.00    0.0
2167 161487.000   37.437826104 -122.240536893    49.6785   4   8   0.9809   1.0620   2.5411   0.4660  -0.4094  -0.6756  -3.00    0.0
2167 161488.000   37.437657479 -122.240630522    48.2860   4   8   0.9809   1.0619   2.5426   0.4659  -0.4075  -0.6751  -2.00    0.0
2167 161489.000   37.437460104 -122.240728153    47.6652   4   8   0.9810   1.0619   2.5407   0.4660  -0.4097  -0.6749  -1.00    0.0
2167 161490.000   37.437301010 -122.240789771    47.9035   4   8   0.9795   1.0599   2.5234   0.4628  -0.3862  -0.6644  -0.00    0.0
2167 161491.000   37.437135826 -122.240891107    49.1841   4   9   0.9536   0.9850   2.3913   0.3545   0.4096  -0.5077 -29.00    0.0
2167 161492.000   37.436957847 -122.241022060    44.1108   4   9   0.9530   0.9843   2.3781   0.3527   0.4211  -0.4988 -28.00    0.0
2167 161493.000   37.436796082 -122.241119080    47.7484   4   9   0.9530   0.9840   2.3773   0.3525   0.4192  -0.4989 -27.00    0.0
2167 161494.000   37.436668878 -122.241250080    46.9911   4   9   0.9530   0.9839   2.3778   0.3524   0.4197  -0.4989 -26.00    0.0
2167 161495.000   37.436549931 -122.241372963    48.8375   4   9   0.9531   0.9838   2.3780   0.3523   0.4198  -0.4988 -25.00    0.0
2167 161496.000   37.436453105 -122.241528958    48.8041   4   9   0.9533   0.9838   2.3779   0.3523   0.4195  -0.4976 -24.00    0.0
2167 161497.000   37.436361877 -122.241690566    53.6371   4   9   0.9547   0.9838   2.3785   0.3516   0.4200  -0.5000 -23.00    0.0
2167 161498.000   37.436238816 -122.241816664    53.1850   4   9   0.9574   0.9838   2.3923   0.3515   0.4196  -0.4810 -22.00    0.0
2167 161499.000   37.436144742 -122.241927421    52.1525   4   9   1.4100   0.9968   2.5504  -0.2079   0.1834   0.8271 -21.00    0.0
2167 161500.000   37.436059594 -122.242090918    55.0367   4   9   1.4325   0.9973   2.5773  -0.2257   0.1494   0.8821 -20.00    0.0
2167 161501.000   37.436035485 -122.242210875    57.4311   4   9   1.4326   0.9973   2.5809  -0.2262   0.1530   0.8807 -19.00    0.0
2167 161502.000   37.435979023 -122.242316141    55.9732   4   9   1.4337   0.9973   2.5808  -0.2275   0.1529   0.8807 -18.00    0.0
2167 161503.000   37.435998206 -122.242397999    52.7499   4   9   1.4339   0.9973   2.5814  -0.2277   0.1526   0.8816 -17.00    0.0
2167 161504.000   37.435989801 -122.242401925    51.9185   4   9   1.4340   0.9973   2.5822  -0.2279   0.1529   0.8816 -16.00    0.0
2167 161505.000   37.436006846 -122.242411804    48.0534   4   9   1.4340   0.9972   2.5826  -0.2282   0.1529   0.8816 -15.00    0.0
2167 161506.000   37.436006688 -122.242415787    47.6720   4   9   1.4340   0.9972   2.5823  -0.2284   0.1525   0.8818 -14.00    0.0
2167 161507.000   37.436008992 -122.242490920    47.6600   4   9   1.4341   0.9972   2.5814  -0.2286   0.1519   0.8819 -13.00    0.0
2167 161508.000   37.436010029 -122.242580658    51.2597   4   9   1.4339   0.9972   2.5808  -0.2287   0.1519   0.8812 -12.00    0.0
2167 161509.000   37.436004694 -122.242670848    57.2278   4   9   1.4328   0.9972   2.5810  -0.2280   0.1518   0.8812 -11.00    0.0
2167 161510.000   37.436025977 -122.242785672    52.4791   4   9   1.4328   0.9971   2.5779  -0.2279   0.1483   0.8824 -10.00    0.0
2167 161511.000   37.436062632 -122.242893690    51.3189   4   9   1.4106   0.9967   2.5519  -0.2107   0.1829   0.8276  -9.00    0.0
2167 161512.000   37.436081550 -122.243003347    52.4908   4   9   0.9585   0.9834   2.3956   0.3513   0.4197  -0.4746  -8.00    0.0
2167 161513.000   37.436130332 -122.243124879    54.6883   4   9   0.9572   0.9834   2.3827   0.3507   0.4208  -0.4960  -7.00    0.0
2167 161514.000   37.436189296 -122.243223777    57.7330   4   9   0.9586   0.9834   2.3958   0.3513   0.4196  -0.4736  -6.00    0.0
2167 161515.000   37.436214141 -122.243346510    56.0858   4   9   1.4107   0.9967   2.5519  -0.2116   0.1824   0.8279  -5.00    0.0
2167 161516.000   37.436273758 -122.243468508    60.2174   4   9   1.4331   0.9971   2.5778  -0.2292   0.1472   0.8828  -4.00    0.0
2167 161517.000   37.436341116 -122.243572858    62.9007   4   9   1.4332   0.9971   2.5804  -0.2297   0.1501   0.8819  -3.00    0.0
2167 161518.000   37.436381614 -122.243667376    64.6905   4   9   1.4343   0.9972   2.5795  -0.2309   0.1495   0.8820  -2.00    0.0
2167 161519.000   37.436417282 -122.243813718    64.0107   4   9   1.4344   0.9972   2.5800  -0.2312   0.1499   0.8818  -1.00    0.0
2167 161520.000   37.436458486 -122.243931003    62.6999   4   9   1.4331   0.9970   2.5813  -0.2302   0.1506   0.8820  -0.00    0.0
2167 161521.000   37.436547598 -122.244049968    65.1899   4   9   1.4342   0.9971   2.5782  -0.2308   0.1452   0.8853 -29.00    0.0
2167 161522.000   37.436605100 -122.244133514    62.6048   4   9   1.4161   0.9968   2.5509  -0.2186   0.1802   0.8301 -28.00    0.0
2167 161523.000   37.436661893 -122.244255292    62.3437   4   9   0.9629   0.9832   2.4095   0.3505   0.4190  -0.4500 -27.00    0.0
2167 161524.000   37.436743852 -122.244385871    62.1380   4   9   1.4150   0.9967   2.5471  -0.2177   0.1768   0.8317 -26.00    0.0
2167 161525.000   37.436816668 -122.244506517    65.0538   4   9   1.4106   0.9965   2.5475  -0.2128   0.1765   0.8322 -25.00    0.0
2167 161526.000   37.436909449 -122.244606879    61.9674   4   9   0.9585   0.9830   2.3953   0.3514   0.4189  -0.4671 -24.00    0.0
2167 161527.000   37.436991943 -122.244730138    67.1984   4   9   0.9562   0.9830   2.3812   0.3515   0.4192  -0.4863 -23.00    0.0
2167 161528.000   37.437085446 -122.244843111    68.8542   4   9   0.9548   0.9829   2.3804   0.3522   0.4185  -0.4820 -22.00    0.0
2167 161529.000   37.437172346 -122.244985177    70.2514   4   9   0.9546   0.9829   2.3808   0.3522   0.4186  -0.4827 -21.00    0.0
2167 161530.000   37.437274068 -122.245092922    70.0730   4   9   0.9546   0.9828   2.3805   0.3522   0.4184  -0.4821 -20.00    0.0
2167 161531.000   37.437367032 -122.245233813    69.5138   4   9   0.9546   0.9828   2.3802   0.3523   0.4183  -0.4811 -19.00    0.0
2167 161532.000   37.437455174 -122.245370395    69.6786   4   9   0.9546   0.9828   2.3801   0.3523   0.4182  -0.4805 -18.00    0.0
2167 161533.000   37.437569875 -122.245503779    73.0101   4   9   0.9546   0.9827   2.3802   0.3523   0.4182  -0.4801 -17.00    0.0
2167 161534.000   37.437673590 -122.245657359    75.1117   4   9   0.9547   0.9827   2.3803   0.3523   0.4182  -0.4796 -16.00    0.0
2167 161535.000   37.437782676 -122.245787968    74.4732   4   9   0.9547   0.9827   2.3806   0.3523   0.4183  -0.4791 -15.00    0.0
2167 161536.000   37.437912343 -122.245914494    73.2626   4   9   0.9548   0.9827   2.3812   0.3523   0.4186  -0.4786 -14.00    0.0
2167 161537.000   37.438003794 -122.246082511    76.7314   4   9   0.9548   0.9826   2.3820   0.3523   0.4187  -0.4781 -13.00    0.0
2167 161538.000   37.438128977 -122.246240439    76.9528   4   9   0.9550   0.9827   2.3823   0.3524   0.4183  -0.4780 -12.00    0.0
2167 161539.000   37.438229647 -122.246410386    76.1998   4   9   0.9552   0.9828   2.3834   0.3529   0.4199  -0.4764 -11.00    0.0
2167 161540.000   37.438343220 -122.246528847    78.7485   4   9   0.9566   0.9833   2.3977   0.3551   0.4101  -0.4894 -10.00    0.0
2167 161541.000   37.438486287 -122.246666532    74.4674   4   8   1.0399   1.0385   2.5373   0.5121  -0.3307  -0.7600  -9.00    0.0
2167 161542.000   37.438608776 -122.246818936    77.7070   4   8   1.0430   1.0400   2.5559   0.5164  -0.3563  -0.7758  -8.00    0.0
2167 161543.000   37.438760238 -122.246973504    77.0351   4   8   1.0430   1.0400   2.5577   0.5164  -0.3543  -0.7748  -7.00    0.0
2167 161544.000   37.438878506 -122.247138908    74.9300   4   8   1.0431   1.0400   2.5581   0.5163  -0.3543  -0.7745  -6.00    0.0
2167 161545.000   37.438989271 -122.247275288    74.1850   4   8   1.0431   1.0399   2.5574   0.5162  -0.3563  -0.7749  -5.00    0.0
2167 161546.000   37.439096630 -122.247424981    76.0596   4   8   1.0401   1.0383   2.5401   0.5118  -0.3308  -0.7587  -4.00    0.0
2167 161547.000   37.439241084 -122.247613722    80.3150   4   9   0.9572   0.9833   2.4003   0.3552   0.4102  -0.4862  -3.00    0.0
2167 161548.000   37.439357116 -122.247771211    80.1929   4   9   0.9561   0.9830   2.3871   0.3534   0.4215  -0.4710  -2.00    0.0
2167 161549.000   37.439461996 -122.247938872    86.1134   4   9   0.9574   0.9832   2.3998   0.3551   0.4097  -0.4853  -1.00    0.0
2167 161550.000   37.439616662 -122.248090147    82.0202   4   8   1.0397   1.0380   2.5395   0.5115  -0.3312  -0.7575  -0.00    0.0
2167 161551.000   37.439743882 -122.248264460    81.7823   4   8   1.0431   1.0395   2.5583   0.5155  -0.3564  -0.7729 -29.00    0.0
2167 161552.000   37.439885716 -122.248409209    83.9116   4   8   1.0431   1.0394   2.5580   0.5154  -0.3568  -0.7726 -28.00    0.0
2167 161553.000   37.439997934 -122.248597753    86.1511   4   8   1.0401   1.0380   2.5388   0.5113  -0.3319  -0.7562 -27.00    0.0
2167 161554.000   37.440115591 -122.248760130    85.3001   4   9   0.9575   0.9830   2.3988   0.3549   0.4094  -0.4827 -26.00    0.0
2167 161555.000   37.440257938 -122.248947718    89.0312   4   9   0.9562   0.9825   2.3853   0.3527   0.4195  -0.4685 -25.00    0.0
2167 161556.000   37.440395689 -122.249135336    93.3772   4   9   0.9561   0.9822   2.3846   0.3523   0.4179  -0.4691 -24.00    0.0
2167 161557.000   37.440513198 -122.249308895    98.0290   4   9   0.9561   0.9822   2.3846   0.3521   0.4183  -0.4683 -23.00    0.0
2167 161558.000   37.440665418 -122.249460962    97.8256   4   9   0.9561   0.9821   2.3839   0.3521   0.4181  -0.4678 -22.00    0.0
2167 161559.000   37.440796182 -122.249629671    91.1229   4   9   0.9561   0.9821   2.3835   0.3521   0.4177  -0.4674 -21.00    0.0
2167 161560.000   37.440925399 -122.249816646    91.1959   4   9   0.9562   0.9820   2.3835   0.3521   0.4176  -0.4670 -20.00    0.0
2167 161561.000   37.441046719 -122.249973027    90.3073   4   9   0.9562   0.9820   2.3836   0.3521   0.4176  -0.4665 -19.00    0.0
2167 161562.000   37.441174384 -122.250162384    96.2485   4   9   0.9562   0.9820   2.3838   0.3521   0.4176  -0.4661 -18.00    0.0
2167 161563.000   37.441312993 -122.250344559    92.6764   4   9   0.9563   0.9819   2.3838   0.3521   0.4176  -0.4656 -17.00    0.0
2167 161564.000   37.441466215 -122.250528347    96.3200   4   9   0.9563   0.9819   2.3839   0.3521   0.4176  -0.4651 -16.00    0.0
2167 161565.000   37.441602919 -122.250696198    98.2966   4   9   0.9563   0.9819   2.3842   0.3521   0.4176  -0.4648 -15.00    0.0
2167 161566.000   37.441753875 -122.250880804   100.3639   4   9   0.9565   0.9819   2.3848   0.3521   0.4177  -0.4648 -14.00    0.0
2167 161567.000   37.441873952 -122.251063826    98.6238   4   9   0.9566   0.9818   2.3857   0.3520   0.4179  -0.4648 -13.00    0.0
2167 161568.000   37.442046760 -122.251250683   100.6867   4   9   0.9569   0.9818   2.3861   0.3520   0.4179  -0.4635 -12.00    0.0
2167 161569.000   37.442176765 -122.251451072   100.2624   4   9   0.9583   0.9819   2.3868   0.3513   0.4185  -0.4660 -11.00    0.0
2167 161570.000   37.442317077 -122.251647471   100.9189   4   9   0.9612   0.9818   2.4001   0.3510   0.4178  -0.4452 -10.00    0.0
2167 161571.000   37.442487842 -122.251825179   102.3139   4   9   1.4125   0.9960   2.5502  -0.2233   0.1744   0.8332  -9.00    0.0
2167 161572.000   37.442609482 -122.252031901   103.4484   4   9   1.4346   0.9965   2.5757  -0.2406   0.1377   0.8860  -8.00    0.0
2167 161573.000   37.442751503 -122.252236801   101.0988   4   9   1.4347   0.9965   2.5791  -0.2411   0.1415   0.8846  -7.00    0.0
2167 161574.000   37.442845616 -122.252475700   100.4479   4   9   1.4359   0.9965   2.5791  -0.2423   0.1414   0.8847  -6.00    0.0
2167 161575.000   37.442980428 -122.252709940    98.8798   4   9   1.4361   0.9965   2.5796  -0.2426   0.1410   0.8855  -5.00    0.0
2167 161576.000   37.443071729 -122.252906433   102.3637   4   9   1.4362   0.9965   2.5800  -0.2428   0.1411   0.8857  -4.00    0.0
2167 161577.000   37.443146012 -122.253088965   104.0935   4   9   1.4362   0.9965   2.5796  -0.2430   0.1406   0.8856  -3.00    0.0
2167 161578.000   37.443246704 -122.253329046   106.6665   4   9   1.4361   0.9965   2.5791  -0.2432   0.1407   0.8849  -2.00    0.0
2167 161579.000   37.443319941 -122.253540966   109.3777   4   9   1.4350   0.9965   2.5790  -0.2424   0.1405   0.8850  -1.00    0.0
2167 161580.000   37.443425758 -122.253741106   109.1421   4   9   1.4347   0.9963   2.5754  -0.2421   0.1365   0.8862  -0.00    0.0
2167 161581.000   37.443509834 -122.253975924   111.2392   4   9   1.4129   0.9959   2.5504  -0.2255   0.1731   0.8341 -29.00    0.0
2167 161582.000   37.443599237 -122.254213555   112.2778   4   9   0.9622   0.9816   2.4017   0.3509   0.4175  -0.4386 -28.00    0.0
2167 161583.000   37.443666647 -122.254438053   109.0809   4   9   0.9593   0.9816   2.3888   0.3511   0.4182  -0.4587 -27.00    0.0
2167 161584.000   37.443764335 -122.254648187   112.3117   4   9   0.9580   0.9815   2.3882   0.3518   0.4175  -0.4552 -26.00    0.0
2167 161585.000   37.443826141 -122.254891423   109.9726   4   9   0.9578   0.9814   2.3881   0.3519   0.4175  -0.4556 -25.00    0.0
2167 161586.000   37.443899990 -122.255110412   112.0624   4   9   0.9578   0.9814   2.3876   0.3519   0.4172  -0.4546 -24.00    0.0
2167 161587.000   37.443958013 -122.255315197   114.5491   4   9   0.9578   0.9814   2.3876   0.3519   0.4169  -0.4535 -23.00    0.0
2167 161588.000   37.444024193 -122.255571653   120.7441   4   9   0.9578   0.9813   2.3877   0.3519   0.4170  -0.4530 -22.00    0.0
2167 161589.000   37.444082508 -122.255806599   124.8616   4   9   0.9578   0.9813   2.3872   0.3519   0.4172  -0.4525 -21.00    0.0
2167 161590.000   37.444079404 -122.256045064   125.8725   4   9   0.9579   0.9813   2.3886   0.3518   0.4156  -0.4514 -20.00    0.0
2167 161591.000   37.444128224 -122.256271647   117.3374   4   9   0.9583   0.9822   2.4043   0.3501   0.4320  -0.4604 -19.00    0.0
2167 161592.000   37.444177299 -122.256502349   119.3556   4   8   0.9839   1.0480   2.5566   0.2029   0.7146  -0.6394 -18.00    0.0
2167 161593.000   37.444191337 -122.256767439   119.2594   4   9   0.9584   0.9822   2.4045   0.3501   0.4320  -0.4594 -17.00    0.0
2167 161594.000   37.444210314 -122.256982551   117.1522   4   9   0.9580   0.9812   2.3890   0.3518   0.4155  -0.4494 -16.00    0.0
2167 161595.000   37.444233635 -122.257241871   117.4472   4   9   0.9581   0.9812   2.3877   0.3519   0.4171  -0.4496 -15.00    0.0
2167 161596.000   37.444289148 -122.257457697   118.8442   4   9   0.9581   0.9811   2.3885   0.3519   0.4168  -0.4490 -14.00    0.0
2167 161597.000   37.444299980 -122.257699853   117.7901   4   9   0.9582   0.9811   2.3887   0.3519   0.4166  -0.4484 -13.00    0.0
2167 161598.000   37.444319349 -122.257975309   121.5777   4   9   0.9583   0.9810   2.3889   0.3519   0.4166  -0.4478 -12.00    0.0
2167 161599.000   37.444325191 -122.258207561   122.0371   4   9   0.9584   0.9810   2.3892   0.3519   0.4167  -0.4473 -11.00    0.0
2167 161600.000   37.444329216 -122.258451784   123.8637   4   9   0.9585   0.9811   2.3891   0.3518   0.4168  -0.4468 -10.00    0.0
2167 161601.000   37.444319749 -122.258688147   129.1406   4   9   0.9586   0.9811   2.3907   0.3518   0.4154  -0.4456  -9.00    0.0
2167 161602.000   37.444314935 -122.258926017   129.8375   4   9   0.9591   0.9820   2.4059   0.3500   0.4318  -0.4548  -8.00    0.0
2167 161603.000   37.444304924 -122.259160772   130.6856   4   8   0.9848   1.0477   2.5589   0.2024   0.7123  -0.6346  -7.00    0.0
2167 161604.000   37.444288465 -122.259390866   131.5037   4   9   0.9597   0.9830   2.4248   0.3481   0.4465  -0.4629  -6.00    0.0
2167 161605.000   37.444294316 -122.259639777   132.7897   4   8   0.9853   1.0478   2.5590   0.2018   0.7124  -0.6338  -5.00    0.0
2167 161606.000   37.444249142 -122.259899797   134.8753   4   9   0.9605   0.9822   2.4086   0.3490   0.4314  -0.4547  -4.00    0.0
2167 161607.000   37.444246930 -122.260154421   137.2717   4   9   0.9642   0.9821   2.4172   0.3482   0.4266  -0.4326  -3.00    0.0
2167 161608.000   37.444241761 -122.260433094   134.7364   4   8   1.4719   1.0814   2.6538  -0.4952   0.6109   0.5022  -2.00    0.0
2167 161609.000   37.444185691 -122.260691169   136.4336   4   8   0.9946   1.0499   2.5976   0.1905   0.7266  -0.6155  -1.00    0.0
2167 161610.000   37.444138503 -122.260949619   138.9975   4   9   1.3967   0.9962   2.5436  -0.2214   0.2198   0.7880  -0.00    0.0
2167 161611.000   37.444138316 -122.261207942   138.6662   4   9   0.9653   0.9811   2.4031   0.3497   0.4131  -0.4198 -29.00    0.0
2167 161612.000   37.444127415 -122.261476611   139.6442   4   9   0.9654   0.9820   2.4177   0.3475   0.4304  -0.4355 -28.00    0.0
2167 161613.000   37.444088785 -122.261746175   138.3098   4   8   1.4911   1.0796   2.6511  -0.5014   0.5768   0.5980 -27.00    0.0
2167 161614.000   37.444092486 -122.261994522   133.3407   4   9   1.4139   0.9967   2.5586  -0.2369   0.1973   0.8297 -26.00    0.0
2167 161615.000   37.444080332 -122.262225135   136.6390   4   9   0.9640   0.9808   2.4050   0.3506   0.4152  -0.4189 -25.00    0.0
2167 161616.000   37.444053466 -122.262472236   133.5362   4   9   0.9621   0.9808   2.3924   0.3502   0.4180  -0.4444 -24.00    0.0
2167 161617.000   37.444057938 -122.262706541   134.1222   4   9   0.9638   0.9806   2.4016   0.3510   0.4147  -0.4148 -23.00    0.0
2167 161618.000   37.444017750 -122.262954609   135.7877   4   9   1.3925   0.9950   2.5240  -0.2152   0.1941   0.7879 -22.00    0.0
2167 161619.000   37.443993777 -122.263170678   133.7892   4   9   0.9637   0.9806   2.4016   0.3510   0.4147  -0.4149 -21.00    0.0
2167 161620.000   37.443965987 -122.263417756   138.2142   4   9   0.9607   0.9806   2.3925   0.3511   0.4170  -0.4398 -20.00    0.0
2167 161621.000   37.443950244 -122.263640775   132.1012   4   9   0.9601   0.9805   2.3924   0.3516   0.4164  -0.4362 -19.00    0.0
2167 161622.000   37.443937977 -122.263877031   134.9343   4   9   0.9601   0.9805   2.3931   0.3517   0.4165  -0.4354 -18.00    0.0
2167 161623.000   37.443925054 -122.264088754   131.4210   4   9   0.9615   0.9805   2.3938   0.3509   0.4171  -0.4383 -17.00    0.0
2167 161624.000   37.443928745 -122.264309299   132.7035   4   9   0.9644   0.9805   2.4063   0.3506   0.4162  -0.4156 -16.00    0.0
2167 161625.000   37.443924856 -122.264529260   128.9443   4   9   1.4142   0.9954   2.5495  -0.2344   0.1672   0.8372 -15.00    0.0
2167 161626.000   37.443931452 -122.264788059   128.5739   4   9   1.4361   0.9959   2.5729  -0.2513   0.1277   0.8882 -14.00    0.0
2167 161627.000   37.443947445 -122.265032453   130.7762   4   9   1.4361   0.9960   2.5757  -0.2518   0.1321   0.8861 -13.00    0.0
2167 161628.000   37.443954052 -122.265278806   134.8077   4   9   1.4362   0.9960   2.5763  -0.2521   0.1325   0.8858 -12.00    0.0
2167 161629.000   37.443966480 -122.265526522   137.8485   4   9   1.4363   0.9959   2.5746  -0.2520   0.1284   0.8882 -11.00    0.0
2167 161630.000   37.443951119 -122.265800785   136.1266   4   9   1.4157   0.9954   2.5515  -0.2364   0.1665   0.8390 -10.00    0.0
2167 161631.000   37.443941237 -122.266031550   130.5479   4   9   0.9667   0.9804   2.4092   0.3497   0.4169  -0.4149  -9.00    0.0
2167 161632.000   37.443967699 -122.266287756   129.4196   4   9   0.9668   0.9804   2.4094   0.3497   0.4169  -0.4144  -8.00    0.0
2167 161633.000   37.444013053 -122.266539228   129.4919   4   9   1.4159   0.9954   2.5518  -0.2370   0.1663   0.8390  -7.00    0.0
2167 161634.000   37.444064018 -122.266786944   127.5962   4   9   1.4365   0.9959   2.5753  -0.2530   0.1280   0.8883  -6.00    0.0
2167 161635.000   37.444074138 -122.267076790   125.6196   4   9   1.4366   0.9959   2.5768  -0.2535   0.1310   0.8868  -5.00    0.0
2167 161636.000   37.444118601 -122.267376021   128.5423   4   9   1.4376   0.9960   2.5756  -0.2546   0.1304   0.8865  -4.00    0.0
2167 161637.000   37.444197102 -122.267683531   128.1931   4   9   1.4367   0.9959   2.5761  -0.2539   0.1299   0.8873  -3.00    0.0
2167 161638.000   37.444277962 -122.267957748   125.9502   4   9   1.4366   0.9959   2.5737  -0.2538   0.1260   0.8886  -2.00    0.0
2167 161639.000   37.444304753 -122.268217105   130.6003   4   9   1.4149   0.9954   2.5501  -0.2373   0.1655   0.8381  -1.00    0.0
2167 161640.000   37.444393403 -122.268494634   130.2269   4   9   0.9653   0.9800   2.4082   0.3505   0.4156  -0.4065  -0.00    0.0
2167 161641.000   37.444477391 -122.268768419   130.5443   4   9   0.9629   0.9801   2.3965   0.3507   0.4166  -0.4279 -29.00    0.0
2167 161642.000   37.444545251 -122.269039983   128.9683   4   9   0.9616   0.9801   2.3964   0.3514   0.4162  -0.4239 -28.00    0.0
2167 161643.000   37.444644929 -122.269299137   126.0283   4   9   0.9617   0.9800   2.3960   0.3514   0.4158  -0.4238 -27.00    0.0
2167 161644.000   37.444752295 -122.269571830   124.6156   4   9   0.9624   0.9801   2.3960   0.3510   0.4159  -0.4265 -26.00    0.0
2167 161645.000   37.444854733 -122.269817345   123.8301   4   9   0.9655   0.9802   2.4062   0.3509   0.4159  -0.3989 -25.00    0.0
2167 161646.000   37.444907889 -122.270077687   123.0041   4   9   1.3936   0.9956   2.5392  -0.2202   0.1592   0.7886 -24.00    0.0
2167 161647.000   37.445027471 -122.270319187   121.4395   4   8   0.9913   1.0532   2.5372   0.4573  -0.3744  -0.5817 -23.00    0.0
2167 161648.000   37.445128615 -122.270561621   114.6058   4   9   0.9647   0.9809   2.4116   0.3521   0.4069  -0.4357 -22.00    0.0
2167 161649.000   37.445247964 -122.270835467   116.5746   4   9   0.9671   0.9809   2.4226   0.3524   0.4053  -0.4093 -21.00    0.0
2167 161650.000   37.445385540 -122.271080048   112.4731   4   8   1.4285   1.0692   2.6814   0.1375  -0.5463   0.7356 -20.00    0.0
2167 161651.000   37.445542565 -122.271332008   116.1556   4   9   1.4367   0.9967   2.5868  -0.2555   0.0616   0.8869 -19.00    0.0
2167 161652.000   37.445674035 -122.271592821   116.1766   4   9   1.4359   0.9959   2.5767  -0.2548   0.1347   0.8881 -18.00    0.0
2167 161653.000   37.445832800 -122.271850870   120.1339   4   9   1.4368   0.9958   2.5717  -0.2562   0.1228   0.8882 -17.00    0.0
2167 161654.000   37.445996174 -122.272057893   122.4304   4   9   1.4153   0.9951   2.5490  -0.2402   0.1632   0.8391 -16.00    0.0
2167 161655.000   37.446136037 -122.272303533   121.9576   4   9   0.9665   0.9797   2.4097   0.3504   0.4152  -0.3968 -15.00    0.0
2167 161656.000   37.446283434 -122.272532199   123.8905   4   9   0.9635   0.9797   2.3976   0.3507   0.4160  -0.4194 -14.00    0.0
2167 161657.000   37.446457209 -122.272767965   126.4150   4   9   0.9623   0.9796   2.3971   0.3514   0.4152  -0.4156 -13.00    0.0
2167 161658.000   37.446604325 -122.272968260   123.9496   4   9   0.9622   0.9796   2.3969   0.3514   0.4152  -0.4159 -12.00    0.0
2167 161659.000   37.446769930 -122.273200424   125.5707   4   9   0.9622   0.9795   2.3964   0.3515   0.4149  -0.4148 -11.00    0.0
2167 161660.000   37.446919736 -122.273425587   125.7907   4   9   0.9623   0.9795   2.3961   0.3515   0.4147  -0.4136 -10.00    0.0
2167 161661.000   37.447071015 -122.273626678   125.0544   4   9   0.9624   0.9795   2.3962   0.3515   0.4146  -0.4128  -9.00    0.0
2167 161662.000   37.447230704 -122.273862804   121.6127   4   9   0.9625   0.9795   2.3963   0.3515   0.4146  -0.4122  -8.00    0.0
2167 161663.000   37.447388375 -122.274098608   125.7355   4   9   0.9625   0.9795   2.3964   0.3514   0.4146  -0.4116  -7.00    0.0
2167 161664.000   37.447532283 -122.274327612   128.2923   4   9   0.9626   0.9795   2.3966   0.3514   0.4145  -0.4110  -6.00    0.0
2167 161665.000   37.447695109 -122.274540213   126.9959   4   9   0.9627   0.9794   2.3967   0.3514   0.4145  -0.4104  -5.00    0.0
2167 161666.000   37.447839189 -122.274760132   126.8820   4   9   0.9628   0.9794   2.3968   0.3514   0.4144  -0.4097  -4.00    0.0
2167 161667.000   37.447995429 -122.274962559   131.2800   4   9   0.9629   0.9794   2.3970   0.3514   0.4144  -0.4091  -3.00    0.0
2167 161668.000   37.448152509 -122.275184172   131.3173   4   9   0.9631   0.9794   2.3971   0.3513   0.4143  -0.4085  -2.00    0.0
2167 161669.000   37.448291461 -122.275406281   128.2790   4   9   0.9632   0.9794   2.3972   0.3513   0.4143  -0.4079  -1.00    0.0
2167 161670.000   37.448458421 -122.275654388   126.6232   4   9   0.9627   0.9792   2.3971   0.3515   0.4143  -0.4079  -0.00    0.0
2167 161671.000   37.448623947 -122.275842777   128.3204   4   9   0.9633   0.9793   2.3975   0.3513   0.4142  -0.4067 -29.00    0.0
2167 161672.000   37.448739073 -122.276045222   127.0324   4   9   0.9633   0.9793   2.3976   0.3513   0.4142  -0.4061 -28.00    0.0
2167 161673.000   37.448919129 -122.276259671   129.6211   4   9   0.9634   0.9793   2.3977   0.3513   0.4141  -0.4056 -27.00    0.0
2167 161674.000   37.449072802 -122.276493519   132.5724   4   9   0.9634   0.9792   2.3978   0.3513   0.4141  -0.4050 -26.00    0.0
2167 161675.000   37.449218546 -122.276702264   137.3608   4   9   0.9635   0.9792   2.3979   0.3513   0.4141  -0.4045 -25.00    0.0
2167 161676.000   37.449355105 -122.276940664   136.8007   4   9   0.9635   0.9792   2.3980   0.3513   0.4140  -0.4039 -24.00    0.0
2167 161677.000   37.449530563 -122.277191958   138.4675   4   9   0.9635   0.9791   2.3982   0.3513   0.4140  -0.4034 -23.00    0.0
2167 161678.000   37.449656741 -122.277415010   130.6325   4   9   0.9636   0.9791   2.3983   0.3513   0.4140  -0.4028 -22.00    0.0
2167 161679.000   37.449792356 -122.277617373   130.2351   4   9   0.9636   0.9791   2.3984   0.3513   0.4139  -0.4022 -21.00    0.0
2167 161680.000   37.449924032 -122.277832628   128.1229   4   9   0.9637   0.9791   2.3985   0.3513   0.4140  -0.4017 -20.00    0.0
2167 161681.000   37.450082846 -122.278036411   130.0952   4   9   0.9637   0.9790   2.3986   0.3513   0.4140  -0.4011 -19.00    0.0
2167 161682.000   37.450227460 -122.278245174   129.0547   4   9   0.9638   0.9791   2.3987   0.3513   0.4138  -0.4005 -18.00    0.0
2167 161683.000   37.450385928 -122.278474801   133.7000   4   9   0.9638   0.9794   2.3989   0.3513   0.4142  -0.4000 -17.00    0.0
2167 161684.000   37.450511032 -122.278680976   133.4760   4   9   0.9639   0.9808   2.3995   0.3514   0.4110  -0.3996 -16.00    0.0
2167 161685.000   37.450646824 -122.278902458   137.8576   4   8   0.9641   1.1027   2.4044   0.3387   0.3041  -0.3956 -15.00    0.0
2167 161686.000   37.450788121 -122.279110531   136.4139   4   8   0.9642   1.1050   2.4052   0.3389   0.2977  -0.3951 -14.00    0.0
2167 161687.000   37.450914099 -122.279311088   137.8883   4   8   0.9643   1.1053   2.4054   0.3388   0.2983  -0.3945 -13.00    0.0
2167 161688.000   37.451067104 -122.279530424   141.4224   4   8   0.9644   1.1054   2.4055   0.3388   0.2980  -0.3939 -12.00    0.0
2167 161689.000   37.451224701 -122.279745936   140.3004   4   8   0.9645   1.1054   2.4056   0.3389   0.2979  -0.3933 -11.00    0.0
2167 161690.000   37.451374152 -122.279991662   142.0707   4   8   0.9646   1.1053   2.4058   0.3389   0.2980  -0.3926 -10.00    0.0
2167 161691.000   37.451511688 -122.280203600   137.6392   4   8   0.9647   1.1050   2.4061   0.3390   0.2973  -0.3921  -9.00    0.0
2167 161692.000   37.451636493 -122.280431219   134.3461   4   8   0.9648   1.1027   2.4061   0.3388   0.3037  -0.3919  -8.00    0.0
2167 161693.000   37.451787666 -122.280628443   135.1569   4   9   0.9648   0.9807   2.4018   0.3513   0.4109  -0.3947  -7.00    0.0
2167 161694.000   37.451928966 -122.280860059   132.5048   4   9   0.9651   0.9792   2.4011   0.3511   0.4139  -0.3925  -6.00    0.0
2167 161695.000   37.452091652 -122.281077541   137.7383   4   9   0.9665   0.9789   2.4015   0.3503   0.4140  -0.3955  -5.00    0.0
2167 161696.000   37.452256320 -122.281309356   138.4850   4   9   0.9693   0.9788   2.4134   0.3500   0.4129  -0.3697  -4.00    0.0
2167 161697.000   37.452397444 -122.281515665   141.4430   4   9   1.4155   0.9948   2.5459  -0.2472   0.1548   0.8425  -3.00    0.0
2167 161698.000   37.452537580 -122.281752049   140.6594   4   9   1.4156   0.9948   2.5469  -0.2474   0.1546   0.8432  -2.00    0.0
2167 161699.000   37.452668392 -122.281998840   137.5621   4   9   0.9697   0.9788   2.4153   0.3501   0.4128  -0.3679  -1.00    0.0
2167 161700.000   37.452807453 -122.282245257   140.2315   4   9   0.9667   0.9788   2.4046   0.3510   0.4158  -0.3917  -0.00    0.0
2167 161701.000   37.452981510 -122.282463145   139.9499   4   9   0.9671   0.9793   2.4202   0.3536   0.4049  -0.4029 -29.00    0.0
2167 161702.000   37.453161781 -122.282688369   135.5912   4   8   1.0420   1.0312   2.5754   0.5005  -0.3476  -0.7108 -28.00    0.0
2167 161703.000   37.453299647 -122.282926006   134.9574   4   8   1.0447   1.0326   2.5958   0.5045  -0.3726  -0.7274 -27.00    0.0
2167 161704.000   37.453468169 -122.283193656   134.0035   4   8   1.0445   1.0325   2.5980   0.5043  -0.3707  -0.7260 -26.00    0.0
2167 161705.000   37.453631819 -122.283434158   131.1898   4   8   1.0446   1.0325   2.5956   0.5044  -0.3728  -0.7262 -25.00    0.0
2167 161706.000   37.453809811 -122.283680169   130.9209   4   8   1.0419   1.0310   2.5751   0.5003  -0.3480  -0.7087 -24.00    0.0
2167 161707.000   37.453998214 -122.283937926   129.1283   4   9   0.9670   0.9791   2.4204   0.3536   0.4046  -0.4000 -23.00    0.0
2167 161708.000   37.454158613 -122.284206927   130.0335   4   9   0.9660   0.9787   2.4051   0.3516   0.4147  -0.3831 -22.00    0.0
2167 161709.000   37.454317132 -122.284451368   127.0502   4   9   0.9659   0.9784   2.4041   0.3512   0.4129  -0.3840 -21.00    0.0
2167 161710.000   37.454491040 -122.284729405   132.0899   4   9   0.9659   0.9784   2.4041   0.3510   0.4133  -0.3830 -20.00    0.0
2167 161711.000   37.454666478 -122.284970201   129.2026   4   9   0.9659   0.9783   2.4034   0.3510   0.4130  -0.3823 -19.00    0.0
2167 161712.000   37.454842925 -122.285234690   125.8501   4   9   0.9660   0.9783   2.4030   0.3510   0.4127  -0.3819 -18.00    0.0
2167 161713.000   37.455007186 -122.285480583   125.2467   4   9   0.9660   0.9782   2.4031   0.3510   0.4126  -0.3813 -17.00    0.0
2167 161714.000   37.455164963 -122.285735683   124.4912   4   9   0.9661   0.9782   2.4038   0.3510   0.4129  -0.3805 -16.00    0.0
2167 161715.000   37.455326393 -122.286012329   125.9982   4   9   0.9662   0.9782   2.4046   0.3510   0.4131  -0.3800 -15.00    0.0
2167 161716.000   37.455504603 -122.286259592   126.8466   4   9   0.9663   0.9782   2.4047   0.3512   0.4125  -0.3799 -14.00    0.0
2167 161717.000   37.455677642 -122.286522521   129.0620   4   9   0.9666   0.9784   2.4057   0.3516   0.4140  -0.3784 -13.00    0.0
2167 161718.000   37.455839360 -122.286784996   125.1275   4   9   0.9678   0.9788   2.4216   0.3534   0.4041  -0.3943 -12.00    0.0
2167 161719.000   37.456017250 -122.287046945   123.5286   4   8   1.0423   1.0303   2.5787   0.4991  -0.3490  -0.7045 -11.00    0.0
2167 161720.000   37.456189251 -122.287279049   125.7361   4   8   1.0464   1.0317   2.5985   0.5027  -0.3756  -0.7243 -10.00    0.0
2167 161721.000   37.456346337 -122.287541208   126.6296   4   8   1.0466   1.0303   2.5914   0.4982  -0.3517  -0.6931  -9.00    0.0
2167 161722.000   37.456558347 -122.287764293   121.6417   4   9   1.4187   0.9953   2.5653  -0.2495   0.1270   0.8372  -8.00    0.0
2167 161723.000   37.456792353 -122.287986572   122.5625   4   9   1.4381   0.9954   2.5713  -0.2675   0.1155   0.8904  -7.00    0.0
2167 161724.000   37.456987651 -122.288215268   121.9425   4   9   1.4379   0.9953   2.5707  -0.2686   0.1100   0.8894  -6.00    0.0
2167 161725.000   37.457192102 -122.288440100   122.2756   4   9   1.4177   0.9947   2.5491  -0.2539   0.1543   0.8423  -5.00    0.0
2167 161726.000   37.457419936 -122.288648521   124.2300   4   9   0.9721   0.9781   2.4179   0.3495   0.4118  -0.3497  -4.00    0.0
2167 161727.000   37.457629495 -122.288850317   121.9114   4   9   0.9690   0.9781   2.4066   0.3500   0.4129  -0.3752  -3.00    0.0
2167 161728.000   37.457846429 -122.289021922   122.4231   4   9   0.9679   0.9780   2.4064   0.3507   0.4121  -0.3714  -2.00    0.0
2167 161729.000   37.458081550 -122.289186438   123.7951   4   9   0.9677   0.9780   2.4064   0.3507   0.4121  -0.3717  -1.00    0.0
2167 161730.000   37.458305193 -122.289345849   121.0983   4   9   0.9673   0.9778   2.4056   0.3509   0.4119  -0.3713  -0.00    0.0
2167 161731.000   37.458519571 -122.289530242   122.9821   4   9   0.9678   0.9779   2.4055   0.3507   0.4116  -0.3693 -29.00    0.0
2167 161732.000   37.458794255 -122.289647562   123.2148   4   9   0.9678   0.9779   2.4057   0.3507   0.4116  -0.3686 -28.00    0.0
2167 161733.000   37.459045123 -122.289767717   127.0756   4   9   0.9679   0.9779   2.4061   0.3507   0.4116  -0.3685 -27.00    0.0
2167 161734.000   37.459294406 -122.289887982   127.3457   4   9   0.9679   0.9778   2.4066   0.3507   0.4115  -0.3678 -26.00    0.0
2167 161735.000   37.459535362 -122.290019736   131.3962   4   9   0.9683   0.9778   2.4065   0.3506   0.4114  -0.3661 -25.00    0.0
2167 161736.000   37.459767529 -122.290119600   128.1563   4   9   0.9691   0.9779   2.4067   0.3503   0.4123  -0.3691 -24.00    0.0
2167 161737.000   37.460037278 -122.290188837   127.5551   4   9   0.9724   0.9779   2.4168   0.3499   0.4077  -0.3401 -23.00    0.0
2167 161738.000   37.460293184 -122.290257759   127.2690   4   9   1.4008   0.9946   2.5434  -0.2313   0.2089   0.8176 -22.00    0.0
2167 161739.000   37.460528749 -122.290329217   123.6156   4   8   1.0354   1.0475   2.5576   0.5060   0.6956   0.4306 -21.00    0.0
2167 161740.000   37.460773142 -122.290390739   125.9720   4   9   0.9697   0.9789   2.4219   0.3523   0.4275  -0.3556 -20.00    0.0
2167 161741.000   37.461047364 -122.290432394   131.3832   4   9   0.9688   0.9777   2.4082   0.3510   0.4100  -0.3648 -19.00    0.0
2167 161742.000   37.461285902 -122.290484822   135.6520   4   9   0.9688   0.9777   2.4077   0.3507   0.4117  -0.3623 -18.00    0.0
2167 161743.000   37.461537239 -122.290524531   132.9716   4   9   0.9695   0.9776   2.4096   0.3500   0.4123  -0.3669 -17.00    0.0
2167 161744.000   37.461804014 -122.290565952   136.2107   4   9   0.9730   0.9776   2.4180   0.3496   0.4093  -0.3345 -16.00    0.0
2167 161745.000   37.462075886 -122.290573122   138.6749   4   9   1.4020   0.9941   2.5264  -0.2456   0.1798   0.7984 -15.00    0.0
2167 161746.000   37.462316957 -122.290548084   140.4449   4   9   0.9779   0.9776   2.4297   0.3483   0.4086  -0.3064 -14.00    0.0
2167 161747.000   37.462613057 -122.290559052   144.3847   4   9   1.4210   0.9946   2.5489  -0.2611   0.1519   0.8414 -13.00    0.0
2167 161748.000   37.462895746 -122.290574120   147.0766   4   9   1.4404   0.9951   2.5704  -0.2750   0.1043   0.8905 -12.00    0.0
2167 161749.000   37.463175670 -122.290582178   147.7770   4   9   1.4398   0.9951   2.5735  -0.2749   0.1102   0.8885 -11.00    0.0
2167 161750.000   37.463431029 -122.290583693   148.9845   4   9   1.4409   0.9952   2.5733  -0.2760   0.1101   0.8881 -10.00    0.0
2167 161751.000   37.463663133 -122.290595576   147.1661   4   9   1.4411   0.9952   2.5735  -0.2763   0.1092   0.8889  -9.00    0.0
2167 161752.000   37.463918583 -122.290609785   145.6240   4   9   1.4411   0.9952   2.5740  -0.2764   0.1094   0.8890  -8.00    0.0
2167 161753.000   37.464180291 -122.290674675   143.8980   4   9   1.4412   0.9952   2.5740  -0.2766   0.1092   0.8890  -7.00    0.0
2167 161754.000   37.464452523 -122.290692960   145.1656   4   9   1.4412   0.9952   2.5734  -0.2768   0.1084   0.8890  -6.00    0.0
2167 161755.000   37.464684230 -122.290692097   143.8048   4   9   1.4411   0.9952   2.5728  -0.2770   0.1084   0.8884  -5.00    0.0
2167 161756.000   37.464940913 -122.290723027   144.1584   4   9   1.4400   0.9951   2.5728  -0.2762   0.1083   0.8883  -4.00    0.0
2167 161757.000   37.465189427 -122.290750378   146.7265   4   9   1.4399   0.9951   2.5700  -0.2761   0.1030   0.8897  -3.00    0.0
2167 161758.000   37.465427995 -122.290807415   148.1549   4   9   1.4190   0.9945   2.5490  -0.2603   0.1484   0.8433  -2.00    0.0
2167 161758.999   37.465664287 -122.290817516   147.2908   4   9   0.9750   0.9773   2.4225   0.3489   0.4097  -0.3264  -1.00    0.0
2167 161759.999   37.465885600 -122.290865649   146.9047   4   9   0.9713   0.9772   2.4111   0.3496   0.4111  -0.3539  -0.00    0.0
2167 161761.000   37.466114291 -122.290920220   146.0430   4   9   0.9707   0.9773   2.4109   0.3502   0.4102  -0.3487 -29.00    0.0
2167 161762.000   37.466352432 -122.290964161   147.8379   4   9   0.9704   0.9772   2.4109   0.3502   0.4102  -0.3491 -28.00    0.0
2167 161763.000   37.466591838 -122.291023824   144.7391   4   9   0.9705   0.9772   2.4107   0.3502   0.4100  -0.3486 -27.00    0.0
2167 161764.000   37.466802299 -122.291096260   142.5742   4   9   0.9705   0.9771   2.4107   0.3502   0.4100  -0.3474 -26.00    0.0
2167 161765.000   37.467014981 -122.291160472   144.0489   4   9   0.9708   0.9771   2.4104   0.3502   0.4097  -0.3450 -25.00    0.0
2167 161766.000   37.467219342 -122.291202502   143.0244   4   9   0.9721   0.9771   2.4107   0.3495   0.4103  -0.3485 -24.00    0.0
2167 161767.000   37.467402500 -122.291260726   144.8907   4   9   0.9751   0.9771   2.4217   0.3490   0.4087  -0.3192 -23.00    0.0
2167 161768.000   37.467606534 -122.291309257   148.6828   4   9   1.4178   0.9943   2.5443  -0.2608   0.1426   0.8445 -22.00    0.0
2167 161769.000   37.467777071 -122.291378432   145.3450   4   9   1.4179   0.9943   2.5447  -0.2610   0.1423   0.8445 -21.00    0.0
2167 161770.000   37.467913983 -122.291439359   142.1739   4   9   0.9753   0.9770   2.4232   0.3490   0.4086  -0.3183 -20.00    0.0
2167 161771.000   37.468080449 -122.291507675   137.9173   4   9   0.9724   0.9770   2.4129   0.3494   0.4105  -0.3463 -19.00    0.0
2167 161772.000   37.468215991 -122.291559625   138.0552   4   9   0.9716   0.9770   2.4116   0.3504   0.4098  -0.3388 -18.00    0.0
2167 161773.000   37.468301704 -122.291633210   132.6509   4   9   0.9730   0.9770   2.4137   0.3499   0.4089  -0.3482 -17.00    0.0
2167 161774.000   37.468411822 -122.291688864   135.1280   4   9   0.9768   0.9781   2.4434   0.3524   0.4270  -0.2888 -16.00    0.0
2167 161775.000   37.468542256 -122.291722791   137.0959   4   8   1.6613   1.0479   2.8522   0.4667   0.6683   1.3519 -15.00    0.0
2167 161776.000   37.468662880 -122.291772030   138.6960   4   9   1.4256   0.9947   2.5712  -0.2537   0.1778   0.8753 -14.00    0.0
2167 161777.000   37.468693982 -122.291786401   136.1994   4   9   0.9762   0.9769   2.4263   0.3491   0.4062  -0.3130 -13.00    0.0
2167 161778.000   37.468702970 -122.291828428   132.9639   4   9   0.9747   0.9769   2.4129   0.3488   0.4104  -0.3429 -12.00    0.0
2167 161779.000   37.468704905 -122.291848163   141.0600   4   9   0.9763   0.9768   2.4244   0.3488   0.4081  -0.3087 -11.00    0.0
2167 161780.000   37.468683013 -122.291849588   141.5722   4   9   1.4183   0.9942   2.5458  -0.2632   0.1410   0.8443 -10.00    0.0
2167 161781.000   37.468676508 -122.291859857   141.3423   4   9   1.4184   0.9942   2.5455  -0.2633   0.1406   0.8446  -9.00    0.0
2167 161782.000   37.468692508 -122.291859170   139.0347   4   9   0.9764   0.9768   2.4247   0.3487   0.4079  -0.3080  -8.00    0.0
2167 161783.000   37.468736781 -122.291870482   136.4192   4   9   0.9736   0.9767   2.4144   0.3491   0.4096  -0.3371  -7.00    0.0
2167 161784.000   37.468788178 -122.291914551   136.1679   4   9   0.9727   0.9767   2.4144   0.3498   0.4088  -0.3309  -6.00    0.0
2167 161785.000   37.468787673 -122.292002640   136.5249   4   9   0.9739   0.9767   2.4158   0.3491   0.4097  -0.3355  -5.00    0.0
2167 161786.000   37.468761404 -122.292091696   140.6828   4   9   0.9773   0.9767   2.4284   0.3485   0.4085  -0.3058  -4.00    0.0
2167 161787.000   37.468782303 -122.292155755   140.8400   4   9   1.4201   0.9944   2.5547  -0.2658   0.1451   0.8454  -3.00    0.0
2167 161788.000   37.468794976 -122.292220751   145.9245   4   9   1.4414   0.9951   2.5762  -0.2820   0.0980   0.8919  -2.00    0.0
2167 161789.000   37.468716293 -122.292348688   141.1707   4   9   1.4428   0.9956   2.5773  -0.2835   0.0997   0.8935  -1.00    0.0
2167 161790.000   37.468577098 -122.292456817   151.3856   4   9   1.4449   0.9972   2.6066  -0.2867   0.1024   0.8794   0.00    0.0
2167 161791.000   37.468494727 -122.292530826   150.2292   4   7   1.5691   1.1277   2.9639  -0.4497  -0.1405   0.4450 -29.00    0.0
2167 161792.000   37.468337602 -122.292556747   137.5760   4   6   1.9882   1.1943   3.7735  -0.6933  -0.7520   1.8329 -28.00    0.0
2167 161793.000   37.468379200 -122.292703865   147.5125   4   6   2.2592   1.2093   3.6862   0.4274  -1.1414   1.7241 -27.00    0.0
2167 161794.000   37.468266095 -122.292845507   141.1175   4   8   1.4515   1.0717   2.7826   0.1065  -0.5987   0.7787 -26.00    0.0
2167 161795.000   37.468173484 -122.292992825   133.9720   4   9   0.9792   0.9778   2.4487   0.3505   0.4007  -0.3138 -25.00    0.0
2167 161796.000   37.468084078 -122.293074852   133.5881   4   9   0.9755   0.9769   2.4214   0.3499   0.4100  -0.3232 -24.00    0.0
2167 161797.000   37.468004462 -122.293152383   135.0325   4   9   0.9736   0.9765   2.4228   0.3498   0.4089  -0.3229 -23.00    0.0
2167 161798.000   37.467949108 -122.293269621   129.5475   4   9   0.9735   0.9764   2.4208   0.3497   0.4095  -0.3239 -22.00    0.0
2167 161799.000   37.467950560 -122.293360470   127.4358   4   9   0.9734   0.9763   2.4174   0.3497   0.4084  -0.3214 -21.00    0.0
2167 161800.000   37.468003270 -122.293467370   130.1117   4   9   0.9737   0.9763   2.4154   0.3497   0.4074  -0.3180 -20.00    0.0
2167 161801.000   37.468045341 -122.293550557   128.7208   4   9   0.9749   0.9763   2.4155   0.3490   0.4079  -0.3216 -19.00    0.0
2167 161802.000   37.468154864 -122.293633775   130.8542   4   9   0.9780   0.9763   2.4263   0.3485   0.4062  -0.2897 -18.00    0.0
2167 161803.000   37.468253100 -122.293745228   129.9969   4   9   1.4191   0.9941   2.5443  -0.2674   0.1361   0.8457 -17.00    0.0
2167 161804.000   37.468332981 -122.293843577   127.5883   4   9   1.4191   0.9941   2.5441  -0.2676   0.1358   0.8457 -16.00    0.0
2167 161805.000   37.468416799 -122.293973107   136.0090   4   9   0.9782   0.9762   2.4263   0.3485   0.4059  -0.2870 -15.00    0.0
2167 161806.000   37.468537746 -122.294119580   133.6225   4   9   0.9753   0.9762   2.4158   0.3489   0.4075  -0.3176 -14.00    0.0
2167 161807.000   37.468659658 -122.294191068   131.2611   4   9   0.9742   0.9761   2.4157   0.3497   0.4068  -0.3123 -13.00    0.0
2167 161808.000   37.468769177 -122.294243598   137.2315   4   9   0.9741   0.9761   2.4162   0.3496   0.4069  -0.3131 -12.00    0.0
2167 161809.000   37.468893965 -122.294287968   138.1175   4   9   0.9742   0.9761   2.4162   0.3496   0.4067  -0.3122 -11.00    0.0
2167 161810.000   37.468978445 -122.294243271   137.4750   4   9   0.9743   0.9761   2.4163   0.3496   0.4066  -0.3113 -10.00    0.0
2167 161811.000   37.469094033 -122.294201643   132.2016   4   9   0.9744   0.9760   2.4167   0.3496   0.4066  -0.3104  -9.00    0.0
2167 161812.000   37.469163208 -122.294108934   134.5312   4   9   0.9748   0.9760   2.4165   0.3495   0.4063  -0.3078  -8.00    0.0
2167 161813.000   37.469256574 -122.293999178   138.2669   4   9   0.9761   0.9761   2.4169   0.3487   0.4069  -0.3115  -7.00    0.0
2167 161814.000   37.469276226 -122.293843497   144.0374   4   9   0.9793   0.9761   2.4275   0.3482   0.4051  -0.2783  -6.00    0.0
2167 161815.000   37.469318684 -122.293725669   144.0164   4   9   1.4196   0.9941   2.5439  -0.2697   0.1335   0.8459  -5.00    0.0
2167 161816.000   37.469290076 -122.293569044   144.1263   4   9   1.4197   0.9941   2.5439  -0.2699   0.1332   0.8460  -4.00    0.0
2167 161817.000   37.469209086 -122.293431428   144.9859   4   9   0.9797   0.9760   2.4280   0.3481   0.4048  -0.2751  -3.00    0.0
2167 161818.000   37.469121131 -122.293331756   140.9141   4   9   0.9767   0.9760   2.4177   0.3486   0.4064  -0.3068  -2.00    0.0
2167 161819.000   37.469004334 -122.293194876   136.9485   4   9   0.9757   0.9759   2.4176   0.3493   0.4057  -0.3013  -1.00    0.0
2167 161820.000   37.468887063 -122.293076845   138.0056   4   9   0.9750   0.9758   2.4177   0.3495   0.4059  -0.3030   0.00    0.0
