$GPGGA,204921.00,3726.6462940,N,12213.9659660,W,1,0,0.0,10.8510,M,0.0000,M,0.0000,0
$GPRMC,204921.00,A,3726.6462940,N,12213.9659660,W,0.0010,30.2573,190721,,,,
$GPGGA,204922.00,3726.6462940,N,12213.9659660,W,1,0,0.0,10.8510,M,0.0000,M,0.0000,0
$GPRMC,204922.00,A,3726.6462940,N,12213.9659660,W,0.0010,30.2573,190721,,,,
$GPGGA,204923.00,3726.6462940,N,12213.9659660,W,1,0,0.0,10.8510,M,0.0000,M,0.0000,0
$GPRMC,204923.00,A,3726.6462940,N,12213.9659660,W,0.0014,30.2575,190721,,,,
$GPGGA,204924.00,3726.6462940,N,12213.9659660,W,1,0,0.0,10.8510,M,0.0000,M,0.0000,0
$GPRMC,204924.00,A,3726.6462940,N,12213.9659660,W,0.0022,30.2571,190721,,,,
$GPGGA,204925.00,3726.6462940,N,12213.9659600,W,1,0,0.0,10.8520,M,0.0000,M,0.0000,0
$GPRMC,204925.00,A,3726.6462940,N,12213.9659600,W,0.0108,30.3464,190721,,,,
$GPGGA,204926.00,3726.6462280,N,12213.9660440,W,1,0,0.0,10.8530,M,0.0000,M,0.0000,0
$GPRMC,204926.00,A,3726.6462280,N,12213.9660440,W,0.3800,29.2910,190721,,,,
$GPGGA,204927.00,3726.6460180,N,12213.9663860,W,1,0,0.0,10.8410,M,0.0000,M,0.0000,0
$GPRMC,204927.00,A,3726.6460180,N,12213.9663860,W,0.7810,21.8129,190721,,,,
$GPGGA,204928.00,3726.6456220,N,12213.9668420,W,1,0,0.0,10.8220,M,0.0000,M,0.0000,0
$GPRMC,204928.00,A,3726.6456220,N,12213.9668420,W,1.0410,9.8918,190721,,,,
$GPGGA,204929.00,3726.6451060,N,12213.9672140,W,1,0,0.0,10.7950,M,0.0000,M,0.0000,0
$GPRMC,204929.00,A,3726.6451060,N,12213.9672140,W,0.8658,356.9378,190721,,,,
$GPGGA,204930.00,3726.6448060,N,12213.9673400,W,1,0,0.0,10.7830,M,0.0000,M,0.0000,0
$GPRMC,204930.00,A,3726.6448060,N,12213.9673400,W,0.2142,350.1655,190721,,,,
$GPGGA,204931.00,3726.6447940,N,12213.9673520,W,1,0,0.0,10.7810,M,0.0000,M,0.0000,0
$GPRMC,204931.00,A,3726.6447940,N,12213.9673520,W,0.0211,349.5704,190721,,,,
$GPGGA,204932.00,3726.6450160,N,12213.9674840,W,1,0,0.0,10.7800,M,0.0000,M,0.0000,0
$GPRMC,204932.00,A,3726.6450160,N,12213.9674840,W,0.9594,346.4397,190721,,,,
$GPGGA,204933.00,3726.6456340,N,12213.9682940,W,1,0,0.0,10.8130,M,0.0000,M,0.0000,0
$GPRMC,204933.00,A,3726.6456340,N,12213.9682940,W,1.9441,327.6000,190721,,,,
$GPGGA,204934.00,3726.6460780,N,12213.9699740,W,1,0,0.0,10.7960,M,0.0000,M,0.0000,0
$GPRMC,204934.00,A,3726.6460780,N,12213.9699740,W,2.7639,297.4623,190721,,,,
$GPGGA,204935.00,3726.6458500,N,12213.9723260,W,1,0,0.0,10.7430,M,0.0000,M,0.0000,0
$GPRMC,204935.00,A,3726.6458500,N,12213.9723260,W,3.6756,266.2286,190721,,,,
$GPGGA,204936.00,3726.6446500,N,12213.9746180,W,1,0,0.0,10.6470,M,0.0000,M,0.0000,0
$GPRMC,204936.00,A,3726.6446500,N,12213.9746180,W,3.9929,237.0816,190721,,,,
$GPGGA,204937.00,3726.6429460,N,12213.9760940,W,1,0,0.0,10.5370,M,0.0000,M,0.0000,0
$GPRMC,204937.00,A,3726.6429460,N,12213.9760940,W,3.1580,215.7178,190721,,,,
$GPGGA,204938.00,3726.6418180,N,12213.9767840,W,1,0,0.0,10.4560,M,0.0000,M,0.0000,0
$GPRMC,204938.00,A,3726.6418180,N,12213.9767840,W,2.0088,209.0293,190721,,,,
$GPGGA,204939.00,3726.6407380,N,12213.9774800,W,1,0,0.0,10.4110,M,0.0000,M,0.0000,0
$GPRMC,204939.00,A,3726.6407380,N,12213.9774800,W,2.4612,207.9017,190721,,,,
$GPGGA,204940.00,3726.6393640,N,12213.9783620,W,1,0,0.0,10.3261,M,0.0000,M,0.0000,0
$GPRMC,204940.00,A,3726.6393640,N,12213.9783620,W,3.4016,207.1857,190721,,,,
$GPGGA,204941.00,3726.6374080,N,12213.9796100,W,1,0,0.0,10.2520,M,0.0000,M,0.0000,0
$GPRMC,204941.00,A,3726.6374080,N,12213.9796100,W,4.5414,206.9548,190721,,,,
$GPGGA,204942.00,3726.6352480,N,12213.9810380,W,1,0,0.0,10.1770,M,0.0000,M,0.0000,0
$GPRMC,204942.00,A,3726.6352480,N,12213.9810380,W,4.3695,207.9363,190721,,,,
$GPGGA,204943.00,3726.6333820,N,12213.9825320,W,1,0,0.0,10.1111,M,0.0000,M,0.0000,0
$GPRMC,204943.00,A,3726.6333820,N,12213.9825320,W,3.7405,213.0312,190721,,,,
$GPGGA,204944.00,3726.6320920,N,12213.9838700,W,1,0,0.0,10.0420,M,0.0000,M,0.0000,0
$GPRMC,204944.00,A,3726.6320920,N,12213.9838700,W,2.4019,218.7422,190721,,,,
$GPGGA,204945.00,3726.6313780,N,12213.9849320,W,1,0,0.0,9.9161,M,0.0000,M,0.0000,0
$GPRMC,204945.00,A,3726.6313780,N,12213.9849320,W,2.0817,226.3530,190721,,,,
$GPGGA,204946.00,3726.6309580,N,12213.9863900,W,1,0,0.0,9.7661,M,0.0000,M,0.0000,0
$GPRMC,204946.00,A,3726.6309580,N,12213.9863900,W,2.5764,244.3483,190721,,,,
$GPGGA,204947.00,3726.6310900,N,12213.9885140,W,1,0,0.0,9.7229,M,0.0000,M,0.0000,0
$GPRMC,204947.00,A,3726.6310900,N,12213.9885140,W,3.7435,269.3116,190721,,,,
$GPGGA,204948.00,3726.6319420,N,12213.9914300,W,1,0,0.0,9.6371,M,0.0000,M,0.0000,0
$GPRMC,204948.00,A,3726.6319420,N,12213.9914300,W,5.5738,290.6188,190721,,,,
$GPGGA,204949.00,3726.6335620,N,12213.9954140,W,1,0,0.0,9.4441,M,0.0000,M,0.0000,0
$GPRMC,204949.00,A,3726.6335620,N,12213.9954140,W,7.6098,297.2578,190721,,,,
$GPGGA,204950.00,3726.6358180,N,12214.0003520,W,1,0,0.0,9.2041,M,0.0000,M,0.0000,0
$GPRMC,204950.00,A,3726.6358180,N,12214.0003520,W,8.9826,300.6814,190721,,,,
$GPGGA,204951.00,3726.6385060,N,12214.0058480,W,1,0,0.0,8.9821,M,0.0000,M,0.0000,0
$GPRMC,204951.00,A,3726.6385060,N,12214.0058480,W,10.0383,301.5607,190721,,,,
$GPGGA,204952.00,3726.6414460,N,12214.0118000,W,1,0,0.0,8.6981,M,0.0000,M,0.0000,0
$GPRMC,204952.00,A,3726.6414460,N,12214.0118000,W,10.4851,301.8422,190721,,,,
$GPGGA,204953.00,3726.6445240,N,12214.0179260,W,1,0,0.0,8.3941,M,0.0000,M,0.0000,0
$GPRMC,204953.00,A,3726.6445240,N,12214.0179260,W,10.8839,302.3792,190721,,,,
$GPGGA,204954.00,3726.6477160,N,12214.0241780,W,1,0,0.0,8.1821,M,0.0000,M,0.0000,0
$GPRMC,204954.00,A,3726.6477160,N,12214.0241780,W,10.9995,302.7740,190721,,,,
$GPGGA,204955.00,3726.6509920,N,12214.0304060,W,1,0,0.0,7.9551,M,0.0000,M,0.0000,0
$GPRMC,204955.00,A,3726.6509920,N,12214.0304060,W,10.9983,303.5474,190721,,,,
$GPGGA,204956.00,3726.6542260,N,12214.0365140,W,1,0,0.0,7.7281,M,0.0000,M,0.0000,0
$GPRMC,204956.00,A,3726.6542260,N,12214.0365140,W,10.4652,303.3412,190721,,,,
$GPGGA,204957.00,3726.6571600,N,12214.0420880,W,1,0,0.0,7.5351,M,0.0000,M,0.0000,0
$GPRMC,204957.00,A,3726.6571600,N,12214.0420880,W,9.2118,303.2887,190721,,,,
$GPGGA,204958.00,3726.6597100,N,12214.0469240,W,1,0,0.0,7.3501,M,0.0000,M,0.0000,0
$GPRMC,204958.00,A,3726.6597100,N,12214.0469240,W,7.8791,303.4189,190721,,,,
$GPGGA,204959.00,3726.6616180,N,12214.0508780,W,1,0,0.0,7.2110,M,0.0000,M,0.0000,0
$GPRMC,204959.00,A,3726.6616180,N,12214.0508780,W,5.6048,299.7307,190721,,,,
$GPGGA,205000.00,3726.6627340,N,12214.0534820,W,1,0,0.0,7.1100,M,0.0000,M,0.0000,0
$GPRMC,205000.00,A,3726.6627340,N,12214.0534820,W,3.3379,298.4917,190721,,,,
$GPGGA,205001.00,3726.6634120,N,12214.0550420,W,1,0,0.0,7.0590,M,0.0000,M,0.0000,0
$GPRMC,205001.00,A,3726.6634120,N,12214.0550420,W,1.9364,298.4146,190721,,,,
$GPGGA,205002.00,3726.6637180,N,12214.0557620,W,1,0,0.0,7.0380,M,0.0000,M,0.0000,0
$GPRMC,205002.00,A,3726.6637180,N,12214.0557620,W,0.4501,298.4216,190721,,,,
$GPGGA,205003.00,3726.6637360,N,12214.0558040,W,1,0,0.0,7.0260,M,0.0000,M,0.0000,0
$GPRMC,205003.00,A,3726.6637360,N,12214.0558040,W,0.0030,298.4227,190721,,,,
$GPGGA,205004.00,3726.6637360,N,12214.0558040,W,1,0,0.0,7.0260,M,0.0000,M,0.0000,0
$GPRMC,205004.00,A,3726.6637360,N,12214.0558040,W,0.0032,298.4234,190721,,,,
$GPGGA,205005.00,3726.6637360,N,12214.0558040,W,1,0,0.0,7.0270,M,0.0000,M,0.0000,0
$GPRMC,205005.00,A,3726.6637360,N,12214.0558040,W,0.0014,298.4231,190721,,,,
$GPGGA,205006.00,3726.6637360,N,12214.0557980,W,1,0,0.0,7.0270,M,0.0000,M,0.0000,0
$GPRMC,205006.00,A,3726.6637360,N,12214.0557980,W,0.0014,298.4204,190721,,,,
$GPGGA,205007.00,3726.6637360,N,12214.0557980,W,1,0,0.0,7.0270,M,0.0000,M,0.0000,0
$GPRMC,205007.00,A,3726.6637360,N,12214.0557980,W,0.0010,298.4204,190721,,,,
$GPGGA,205008.00,3726.6637360,N,12214.0557980,W,1,0,0.0,7.0270,M,0.0000,M,0.0000,0
$GPRMC,205008.00,A,3726.6637360,N,12214.0557980,W,0.0020,298.4205,190721,,,,
$GPGGA,205009.00,3726.6637360,N,12214.0557980,W,1,0,0.0,7.0270,M,0.0000,M,0.0000,0
$GPRMC,205009.00,A,3726.6637360,N,12214.0557980,W,0.0022,298.4200,190721,,,,
$GPGGA,205010.00,3726.6637360,N,12214.0557980,W,1,0,0.0,7.0270,M,0.0000,M,0.0000,0
$GPRMC,205010.00,A,3726.6637360,N,12214.0557980,W,0.0022,298.4203,190721,,,,
$GPGGA,205011.00,3726.6637360,N,12214.0557980,W,1,0,0.0,7.0270,M,0.0000,M,0.0000,0
$GPRMC,205011.00,A,3726.6637360,N,12214.0557980,W,0.0010,298.4205,190721,,,,
$GPGGA,205012.00,3726.6637360,N,12214.0557980,W,1,0,0.0,7.0280,M,0.0000,M,0.0000,0
$GPRMC,205012.00,A,3726.6637360,N,12214.0557980,W,0.0014,298.4203,190721,,,,
$GPGGA,205013.00,3726.6637360,N,12214.0557980,W,1,0,0.0,7.0280,M,0.0000,M,0.0000,0
$GPRMC,205013.00,A,3726.6637360,N,12214.0557980,W,0.0014,298.4205,190721,,,,
$GPGGA,205014.00,3726.6637420,N,12214.0558040,W,1,0,0.0,7.0270,M,0.0000,M,0.0000,0
$GPRMC,205014.00,A,3726.6637420,N,12214.0558040,W,0.0784,298.4216,190721,,,,
$GPGGA,205015.00,3726.6640180,N,12214.0564940,W,1,0,0.0,6.9880,M,0.0000,M,0.0000,0
$GPRMC,205015.00,A,3726.6640180,N,12214.0564940,W,2.6072,297.9317,190721,,,,
$GPGGA,205016.00,3726.6648940,N,12214.0589960,W,1,0,0.0,6.8901,M,0.0000,M,0.0000,0
$GPRMC,205016.00,A,3726.6648940,N,12214.0589960,W,5.2112,293.0542,190721,,,,
$GPGGA,205017.00,3726.6656200,N,12214.0628780,W,1,0,0.0,6.9689,M,0.0000,M,0.0000,0
$GPRMC,205017.00,A,3726.6656200,N,12214.0628780,W,6.5162,280.7885,190721,,,,
$GPGGA,205018.00,3726.6654760,N,12214.0677140,W,1,0,0.0,7.0849,M,0.0000,M,0.0000,0
$GPRMC,205018.00,A,3726.6654760,N,12214.0677140,W,7.5443,262.9383,190721,,,,
$GPGGA,205019.00,3726.6638680,N,12214.0727780,W,1,0,0.0,7.2100,M,0.0000,M,0.0000,0
$GPRMC,205019.00,A,3726.6638680,N,12214.0727780,W,8.6775,242.5778,190721,,,,
$GPGGA,205020.00,3726.6605740,N,12214.0775540,W,1,0,0.0,7.2829,M,0.0000,M,0.0000,0
$GPRMC,205020.00,A,3726.6605740,N,12214.0775540,W,9.8102,223.7672,190721,,,,
$GPGGA,205021.00,3726.6560020,N,12214.0817000,W,1,0,0.0,7.4569,M,0.0000,M,0.0000,0
$GPRMC,205021.00,A,3726.6560020,N,12214.0817000,W,11.1820,213.4303,190721,,,,
$GPGGA,205022.00,3726.6504700,N,12214.0860080,W,1,0,0.0,7.7379,M,0.0000,M,0.0000,0
$GPRMC,205022.00,A,3726.6504700,N,12214.0860080,W,12.8664,211.1288,190721,,,,
$GPGGA,205023.00,3726.6441760,N,12214.0904900,W,1,0,0.0,8.1108,M,0.0000,M,0.0000,0
$GPRMC,205023.00,A,3726.6441760,N,12214.0904900,W,13.8802,208.4537,190721,,,,
$GPGGA,205024.00,3726.6373000,N,12214.0950020,W,1,0,0.0,8.5787,M,0.0000,M,0.0000,0
$GPRMC,205024.00,A,3726.6373000,N,12214.0950020,W,14.8715,207.0318,190721,,,,
$GPGGA,205025.00,3726.6298240,N,12214.0998080,W,1,0,0.0,9.0089,M,0.0000,M,0.0000,0
$GPRMC,205025.00,A,3726.6298240,N,12214.0998080,W,16.2054,207.0264,190721,,,,
$GPGGA,205026.00,3726.6218260,N,12214.1049620,W,1,0,0.0,9.3079,M,0.0000,M,0.0000,0
$GPRMC,205026.00,A,3726.6218260,N,12214.1049620,W,17.1084,207.1814,190721,,,,
$GPGGA,205027.00,3726.6133660,N,12214.1105000,W,1,0,0.0,9.4640,M,0.0000,M,0.0000,0
$GPRMC,205027.00,A,3726.6133660,N,12214.1105000,W,18.1751,207.6299,190721,,,,
$GPGGA,205028.00,3726.6044800,N,12214.1163920,W,1,0,0.0,9.5739,M,0.0000,M,0.0000,0
$GPRMC,205028.00,A,3726.6044800,N,12214.1163920,W,18.9340,207.8729,190721,,,,
$GPGGA,205029.00,3726.5954980,N,12214.1224340,W,1,0,0.0,9.7629,M,0.0000,M,0.0000,0
$GPRMC,205029.00,A,3726.5954980,N,12214.1224340,W,18.6941,208.2220,190721,,,,
$GPGGA,205030.00,3726.5866960,N,12214.1283800,W,1,0,0.0,9.9479,M,0.0000,M,0.0000,0
$GPRMC,205030.00,A,3726.5866960,N,12214.1283800,W,18.2674,208.1307,190721,,,,
$GPGGA,205031.00,3726.5780800,N,12214.1341760,W,1,0,0.0,10.2209,M,0.0000,M,0.0000,0
$GPRMC,205031.00,A,3726.5780800,N,12214.1341760,W,18.0011,208.0146,190721,,,,
$GPGGA,205032.00,3726.5694820,N,12214.1399180,W,1,0,0.0,10.5728,M,0.0000,M,0.0000,0
$GPRMC,205032.00,A,3726.5694820,N,12214.1399180,W,18.0309,207.8517,190721,,,,
$GPGGA,205033.00,3726.5608600,N,12214.1456120,W,1,0,0.0,11.1927,M,0.0000,M,0.0000,0
$GPRMC,205033.00,A,3726.5608600,N,12214.1456120,W,18.0326,207.4958,190721,,,,
$GPGGA,205034.00,3726.5521900,N,12214.1512580,W,1,0,0.0,11.9206,M,0.0000,M,0.0000,0
$GPRMC,205034.00,A,3726.5521900,N,12214.1512580,W,18.0146,207.2972,190721,,,,
$GPGGA,205035.00,3726.5436760,N,12214.1568080,W,1,0,0.0,12.9215,M,0.0000,M,0.0000,0
$GPRMC,205035.00,A,3726.5436760,N,12214.1568080,W,17.4442,207.4929,190721,,,,
$GPGGA,205036.00,3726.5354860,N,12214.1621900,W,1,0,0.0,13.9755,M,0.0000,M,0.0000,0
$GPRMC,205036.00,A,3726.5354860,N,12214.1621900,W,16.7255,207.6868,190721,,,,
$GPGGA,205037.00,3726.5276860,N,12214.1674400,W,1,0,0.0,14.8926,M,0.0000,M,0.0000,0
$GPRMC,205037.00,A,3726.5276860,N,12214.1674400,W,16.1312,208.3308,190721,,,,
$GPGGA,205038.00,3726.5200960,N,12214.1726540,W,1,0,0.0,15.6807,M,0.0000,M,0.0000,0
$GPRMC,205038.00,A,3726.5200960,N,12214.1726540,W,15.9956,208.7562,190721,,,,
$GPGGA,205039.00,3726.5125300,N,12214.1779220,W,1,0,0.0,16.4357,M,0.0000,M,0.0000,0
$GPRMC,205039.00,A,3726.5125300,N,12214.1779220,W,15.9888,209.0721,190721,,,,
$GPGGA,205040.00,3726.5050000,N,12214.1832620,W,1,0,0.0,17.1467,M,0.0000,M,0.0000,0
$GPRMC,205040.00,A,3726.5050000,N,12214.1832620,W,16.1351,209.4850,190721,,,,
$GPGGA,205041.00,3726.4972420,N,12214.1887340,W,1,0,0.0,17.7997,M,0.0000,M,0.0000,0
$GPRMC,205041.00,A,3726.4972420,N,12214.1887340,W,16.8608,209.1020,190721,,,,
$GPGGA,205042.00,3726.4891420,N,12214.1946380,W,1,0,0.0,18.5686,M,0.0000,M,0.0000,0
$GPRMC,205042.00,A,3726.4891420,N,12214.1946380,W,17.6441,211.2216,190721,,,,
$GPGGA,205043.00,3726.4811140,N,12214.2014420,W,1,0,0.0,19.4606,M,0.0000,M,0.0000,0
$GPRMC,205043.00,A,3726.4811140,N,12214.2014420,W,18.3526,216.0151,190721,,,,
$GPGGA,205044.00,3726.4731640,N,12214.2093320,W,1,0,0.0,20.4366,M,0.0000,M,0.0000,0
$GPRMC,205044.00,A,3726.4731640,N,12214.2093320,W,19.1985,219.5299,190721,,,,
$GPGGA,205045.00,3726.4652740,N,12214.2182300,W,1,0,0.0,21.4355,M,0.0000,M,0.0000,0
$GPRMC,205045.00,A,3726.4652740,N,12214.2182300,W,20.0673,223.4250,190721,,,,
$GPGGA,205046.00,3726.4575580,N,12214.2281540,W,1,0,0.0,22.6245,M,0.0000,M,0.0000,0
$GPRMC,205046.00,A,3726.4575580,N,12214.2281540,W,20.8081,227.4807,190721,,,,
$GPGGA,205047.00,3726.4503580,N,12214.2390200,W,1,0,0.0,23.8364,M,0.0000,M,0.0000,0
$GPRMC,205047.00,A,3726.4503580,N,12214.2390200,W,20.8896,232.5588,190721,,,,
$GPGGA,205048.00,3726.4438120,N,12214.2506000,W,1,0,0.0,25.0274,M,0.0000,M,0.0000,0
$GPRMC,205048.00,A,3726.4438120,N,12214.2506000,W,21.0317,235.5427,190721,,,,
$GPGGA,205049.00,3726.4375120,N,12214.2625100,W,1,0,0.0,26.3005,M,0.0000,M,0.0000,0
$GPRMC,205049.00,A,3726.4375120,N,12214.2625100,W,21.0886,236.7715,190721,,,,
$GPGGA,205050.00,3726.4312360,N,12214.2744020,W,1,0,0.0,27.5214,M,0.0000,M,0.0000,0
$GPRMC,205050.00,A,3726.4312360,N,12214.2744020,W,20.9678,235.5917,190721,,,,
$GPGGA,205051.00,3726.4246000,N,12214.2858920,W,1,0,0.0,28.8645,M,0.0000,M,0.0000,0
$GPRMC,205051.00,A,3726.4246000,N,12214.2858920,W,20.9070,232.6800,190721,,,,
$GPGGA,205052.00,3726.4175980,N,12214.2970100,W,1,0,0.0,30.0245,M,0.0000,M,0.0000,0
$GPRMC,205052.00,A,3726.4175980,N,12214.2970100,W,20.9116,231.0457,190721,,,,
$GPGGA,205053.00,3726.4103920,N,12214.3079600,W,1,0,0.0,31.1075,M,0.0000,M,0.0000,0
$GPRMC,205053.00,A,3726.4103920,N,12214.3079600,W,21.0010,229.8748,190721,,,,
$GPGGA,205054.00,3726.4029220,N,12214.3187720,W,1,0,0.0,32.1425,M,0.0000,M,0.0000,0
$GPRMC,205054.00,A,3726.4029220,N,12214.3187720,W,21.2375,228.3636,190721,,,,
$GPGGA,205055.00,3726.3950860,N,12214.3294160,W,1,0,0.0,33.2605,M,0.0000,M,0.0000,0
$GPRMC,205055.00,A,3726.3950860,N,12214.3294160,W,21.3753,226.1236,190721,,,,
$GPGGA,205056.00,3726.3869440,N,12214.3396580,W,1,0,0.0,34.2765,M,0.0000,M,0.0000,0
$GPRMC,205056.00,A,3726.3869440,N,12214.3396580,W,21.2863,224.1589,190721,,,,
$GPGGA,205057.00,3726.3785980,N,12214.3495460,W,1,0,0.0,35.1806,M,0.0000,M,0.0000,0
$GPRMC,205057.00,A,3726.3785980,N,12214.3495460,W,21.1451,222.3784,190721,,,,
$GPGGA,205058.00,3726.3700960,N,12214.3587980,W,1,0,0.0,36.3855,M,0.0000,M,0.0000,0
$GPRMC,205058.00,A,3726.3700960,N,12214.3587980,W,20.4411,219.4174,190721,,,,
$GPGGA,205059.00,3726.3615820,N,12214.3673480,W,1,0,0.0,37.5745,M,0.0000,M,0.0000,0
$GPRMC,205059.00,A,3726.3615820,N,12214.3673480,W,20.0393,218.4973,190721,,,,
$GPGGA,205100.00,3726.3530800,N,12214.3755800,W,1,0,0.0,38.5856,M,0.0000,M,0.0000,0
$GPRMC,205100.00,A,3726.3530800,N,12214.3755800,W,19.6922,216.7249,190721,,,,
$GPGGA,205101.00,3726.3444700,N,12214.3833320,W,1,0,0.0,39.5436,M,0.0000,M,0.0000,0
$GPRMC,205101.00,A,3726.3444700,N,12214.3833320,W,19.5395,214.8145,190721,,,,
$GPGGA,205102.00,3726.3357340,N,12214.3906760,W,1,0,0.0,40.4195,M,0.0000,M,0.0000,0
$GPRMC,205102.00,A,3726.3357340,N,12214.3906760,W,19.3582,212.9828,190721,,,,
$GPGGA,205103.00,3726.3269080,N,12214.3976360,W,1,0,0.0,41.2546,M,0.0000,M,0.0000,0
$GPRMC,205103.00,A,3726.3269080,N,12214.3976360,W,19.2701,211.4541,190721,,,,
$GPGGA,205104.00,3726.3178900,N,12214.4043140,W,1,0,0.0,41.8188,M,0.0000,M,0.0000,0
$GPRMC,205104.00,A,3726.3178900,N,12214.4043140,W,19.5098,209.8279,190721,,,,
$GPGGA,205105.00,3726.3085660,N,12214.4107040,W,1,0,0.0,42.3068,M,0.0000,M,0.0000,0
$GPRMC,205105.00,A,3726.3085660,N,12214.4107040,W,19.7696,207.6263,190721,,,,
$GPGGA,205106.00,3726.2989360,N,12214.4166980,W,1,0,0.0,42.7009,M,0.0000,M,0.0000,0
$GPRMC,205106.00,A,3726.2989360,N,12214.4166980,W,19.9889,205.3702,190721,,,,
$GPGGA,205107.00,3726.2890300,N,12214.4223140,W,1,0,0.0,43.0129,M,0.0000,M,0.0000,0
$GPRMC,205107.00,A,3726.2890300,N,12214.4223140,W,20.2437,203.5481,190721,,,,
$GPGGA,205108.00,3726.2788660,N,12214.4276540,W,1,0,0.0,43.1949,M,0.0000,M,0.0000,0
$GPRMC,205108.00,A,3726.2788660,N,12214.4276540,W,20.4957,201.8977,190721,,,,
$GPGGA,205109.00,3726.2685460,N,12214.4327120,W,1,0,0.0,43.3249,M,0.0000,M,0.0000,0
$GPRMC,205109.00,A,3726.2685460,N,12214.4327120,W,20.4737,200.6453,190721,,,,
$GPGGA,205110.00,3726.2581660,N,12214.4375360,W,1,0,0.0,43.4490,M,0.0000,M,0.0000,0
$GPRMC,205110.00,A,3726.2581660,N,12214.4375360,W,20.5094,200.1767,190721,,,,
$GPGGA,205111.00,3726.2477740,N,12214.4424620,W,1,0,0.0,43.5949,M,0.0000,M,0.0000,0
$GPRMC,205111.00,A,3726.2477740,N,12214.4424620,W,20.5952,201.0626,190721,,,,
$GPGGA,205112.00,3726.2374300,N,12214.4476820,W,1,0,0.0,43.8749,M,0.0000,M,0.0000,0
$GPRMC,205112.00,A,3726.2374300,N,12214.4476820,W,20.6494,202.5489,190721,,,,
$GPGGA,205113.00,3726.2272180,N,12214.4532320,W,1,0,0.0,44.3097,M,0.0000,M,0.0000,0
$GPRMC,205113.00,A,3726.2272180,N,12214.4532320,W,20.4274,204.1107,190721,,,,
$GPGGA,205114.00,3726.2173840,N,12214.4591780,W,1,0,0.0,44.8357,M,0.0000,M,0.0000,0
$GPRMC,205114.00,A,3726.2173840,N,12214.4591780,W,19.9860,207.0463,190721,,,,
$GPGGA,205115.00,3726.2080660,N,12214.4657540,W,1,0,0.0,45.4246,M,0.0000,M,0.0000,0
$GPRMC,205115.00,A,3726.2080660,N,12214.4657540,W,19.6174,211.4324,190721,,,,
$GPGGA,205116.00,3726.1995280,N,12214.4732780,W,1,0,0.0,46.1756,M,0.0000,M,0.0000,0
$GPRMC,205116.00,A,3726.1995280,N,12214.4732780,W,19.0043,217.9850,190721,,,,
$GPGGA,205117.00,3726.1920220,N,12214.4817020,W,1,0,0.0,46.9297,M,0.0000,M,0.0000,0
$GPRMC,205117.00,A,3726.1920220,N,12214.4817020,W,18.3398,224.3151,190721,,,,
$GPGGA,205118.00,3726.1853440,N,12214.4905940,W,1,0,0.0,47.5037,M,0.0000,M,0.0000,0
$GPRMC,205118.00,A,3726.1853440,N,12214.4905940,W,17.7129,227.9375,190721,,,,
$GPGGA,205119.00,3726.1792360,N,12214.4995400,W,1,0,0.0,48.1407,M,0.0000,M,0.0000,0
$GPRMC,205119.00,A,3726.1792360,N,12214.4995400,W,17.0049,230.0296,190721,,,,
$GPGGA,205120.00,3726.1736680,N,12214.5083060,W,1,0,0.0,48.8547,M,0.0000,M,0.0000,0
$GPRMC,205120.00,A,3726.1736680,N,12214.5083060,W,16.0207,232.5307,190721,,,,
$GPGGA,205121.00,3726.1687240,N,12214.5167600,W,1,0,0.0,49.4807,M,0.0000,M,0.0000,0
$GPRMC,205121.00,A,3726.1687240,N,12214.5167600,W,14.8586,234.3401,190721,,,,
$GPGGA,205122.00,3726.1645900,N,12214.5246200,W,1,0,0.0,50.0977,M,0.0000,M,0.0000,0
$GPRMC,205122.00,A,3726.1645900,N,12214.5246200,W,12.8522,238.1545,190721,,,,
$GPGGA,205123.00,3726.1616080,N,12214.5314840,W,1,0,0.0,50.5778,M,0.0000,M,0.0000,0
$GPRMC,205123.00,A,3726.1616080,N,12214.5314840,W,10.0734,243.4955,190721,,,,
$GPGGA,205124.00,3726.1598800,N,12214.5369140,W,1,0,0.0,50.9059,M,0.0000,M,0.0000,0
$GPRMC,205124.00,A,3726.1598800,N,12214.5369140,W,7.2155,250.3866,190721,,,,
$GPGGA,205125.00,3726.1590820,N,12214.5407900,W,1,0,0.0,51.1269,M,0.0000,M,0.0000,0
$GPRMC,205125.00,A,3726.1590820,N,12214.5407900,W,4.6141,256.5806,190721,,,,
$GPGGA,205126.00,3726.1587820,N,12214.5431000,W,1,0,0.0,51.2610,M,0.0000,M,0.0000,0
$GPRMC,205126.00,A,3726.1587820,N,12214.5431000,W,2.4013,260.3292,190721,,,,
$GPGGA,205127.00,3726.1586620,N,12214.5444500,W,1,0,0.0,51.3090,M,0.0000,M,0.0000,0
$GPRMC,205127.00,A,3726.1586620,N,12214.5444500,W,1.9843,262.3815,190721,,,,
$GPGGA,205128.00,3726.1585540,N,12214.5461720,W,1,0,0.0,51.3590,M,0.0000,M,0.0000,0
$GPRMC,205128.00,A,3726.1585540,N,12214.5461720,W,3.6110,264.8577,190721,,,,
$GPGGA,205129.00,3726.1585120,N,12214.5494780,W,1,0,0.0,51.4869,M,0.0000,M,0.0000,0
$GPRMC,205129.00,A,3726.1585120,N,12214.5494780,W,6.0950,269.3622,190721,,,,
$GPGGA,205130.00,3726.1588060,N,12214.5541820,W,1,0,0.0,51.7279,M,0.0000,M,0.0000,0
$GPRMC,205130.00,A,3726.1588060,N,12214.5541820,W,7.6418,275.9394,190721,,,,
$GPGGA,205131.00,3726.1596820,N,12214.5595400,W,1,0,0.0,52.1368,M,0.0000,M,0.0000,0
$GPRMC,205131.00,A,3726.1596820,N,12214.5595400,W,8.5269,283.3845,190721,,,,
$GPGGA,205132.00,3726.1611280,N,12214.5654320,W,1,0,0.0,52.5068,M,0.0000,M,0.0000,0
$GPRMC,205132.00,A,3726.1611280,N,12214.5654320,W,9.6845,288.0929,190721,,,,
$GPGGA,205133.00,3726.1629820,N,12214.5719180,W,1,0,0.0,52.9737,M,0.0000,M,0.0000,0
$GPRMC,205133.00,A,3726.1629820,N,12214.5719180,W,10.6549,290.3210,190721,,,,
$GPGGA,205134.00,3726.1652200,N,12214.5788660,W,1,0,0.0,53.5227,M,0.0000,M,0.0000,0
$GPRMC,205134.00,A,3726.1652200,N,12214.5788660,W,11.3895,292.6016,190721,,,,
$GPGGA,205135.00,3726.1677700,N,12214.5860780,W,1,0,0.0,54.1347,M,0.0000,M,0.0000,0
$GPRMC,205135.00,A,3726.1677700,N,12214.5860780,W,11.8513,294.4655,190721,,,,
$GPGGA,205136.00,3726.1705360,N,12214.5933620,W,1,0,0.0,54.8207,M,0.0000,M,0.0000,0
$GPRMC,205136.00,A,3726.1705360,N,12214.5933620,W,11.7903,295.7075,190721,,,,
$GPGGA,205137.00,3726.1732840,N,12214.6003460,W,1,0,0.0,55.4917,M,0.0000,M,0.0000,0
$GPRMC,205137.00,A,3726.1732840,N,12214.6003460,W,11.1570,296.2899,190721,,,,
$GPGGA,205138.00,3726.1759180,N,12214.6070060,W,1,0,0.0,56.1297,M,0.0000,M,0.0000,0
$GPRMC,205138.00,A,3726.1759180,N,12214.6070060,W,10.9062,296.3804,190721,,,,
$GPGGA,205139.00,3726.1785940,N,12214.6136480,W,1,0,0.0,56.7307,M,0.0000,M,0.0000,0
$GPRMC,205139.00,A,3726.1785940,N,12214.6136480,W,11.0910,296.8187,190721,,,,
$GPGGA,205140.00,3726.1814260,N,12214.6204640,W,1,0,0.0,57.3797,M,0.0000,M,0.0000,0
$GPRMC,205140.00,A,3726.1814260,N,12214.6204640,W,11.6721,297.9017,190721,,,,
$GPGGA,205141.00,3726.1845460,N,12214.6275440,W,1,0,0.0,58.0897,M,0.0000,M,0.0000,0
$GPRMC,205141.00,A,3726.1845460,N,12214.6275440,W,12.0837,299.3142,190721,,,,
$GPGGA,205142.00,3726.1879000,N,12214.6346360,W,1,0,0.0,58.8216,M,0.0000,M,0.0000,0
$GPRMC,205142.00,A,3726.1879000,N,12214.6346360,W,12.2822,301.2150,190721,,,,
$GPGGA,205143.00,3726.1915720,N,12214.6416860,W,1,0,0.0,59.5517,M,0.0000,M,0.0000,0
$GPRMC,205143.00,A,3726.1915720,N,12214.6416860,W,12.5721,304.2050,190721,,,,
$GPGGA,205144.00,3726.1956040,N,12214.6486640,W,1,0,0.0,60.2716,M,0.0000,M,0.0000,0
$GPRMC,205144.00,A,3726.1956040,N,12214.6486640,W,12.8727,306.6889,190721,,,,
$GPGGA,205145.00,3726.1999360,N,12214.6556120,W,1,0,0.0,61.0656,M,0.0000,M,0.0000,0
$GPRMC,205145.00,A,3726.1999360,N,12214.6556120,W,13.1617,308.7470,190721,,,,
$GPGGA,205146.00,3726.2045800,N,12214.6624940,W,1,0,0.0,61.8716,M,0.0000,M,0.0000,0
$GPRMC,205146.00,A,3726.2045800,N,12214.6624940,W,13.4257,310.9972,190721,,,,
$GPGGA,205147.00,3726.2094880,N,12214.6693280,W,1,0,0.0,62.7246,M,0.0000,M,0.0000,0
$GPRMC,205147.00,A,3726.2094880,N,12214.6693280,W,13.7006,312.2060,190721,,,,
$GPGGA,205148.00,3726.2145460,N,12214.6762280,W,1,0,0.0,63.5796,M,0.0000,M,0.0000,0
$GPRMC,205148.00,A,3726.2145460,N,12214.6762280,W,13.9422,312.6797,190721,,,,
$GPGGA,205149.00,3726.2196880,N,12214.6832240,W,1,0,0.0,64.3876,M,0.0000,M,0.0000,0
$GPRMC,205149.00,A,3726.2196880,N,12214.6832240,W,14.1756,312.3825,190721,,,,
$GPGGA,205150.00,3726.2249140,N,12214.6904240,W,1,0,0.0,65.1616,M,0.0000,M,0.0000,0
$GPRMC,205150.00,A,3726.2249140,N,12214.6904240,W,14.5611,312.0871,190721,,,,
$GPGGA,205151.00,3726.2302960,N,12214.6978520,W,1,0,0.0,65.8447,M,0.0000,M,0.0000,0
$GPRMC,205151.00,A,3726.2302960,N,12214.6978520,W,15.0338,312.3156,190721,,,,
$GPGGA,205152.00,3726.2358820,N,12214.7054840,W,1,0,0.0,66.5397,M,0.0000,M,0.0000,0
$GPRMC,205152.00,A,3726.2358820,N,12214.7054840,W,15.5432,312.6205,190721,,,,
$GPGGA,205153.00,3726.2417140,N,12214.7133740,W,1,0,0.0,67.2007,M,0.0000,M,0.0000,0
$GPRMC,205153.00,A,3726.2417140,N,12214.7133740,W,16.1950,312.7951,190721,,,,
$GPGGA,205154.00,3726.2477860,N,12214.7215820,W,1,0,0.0,67.8847,M,0.0000,M,0.0000,0
$GPRMC,205154.00,A,3726.2477860,N,12214.7215820,W,16.8558,312.8380,190721,,,,
$GPGGA,205155.00,3726.2541520,N,12214.7300480,W,1,0,0.0,68.5937,M,0.0000,M,0.0000,0
$GPRMC,205155.00,A,3726.2541520,N,12214.7300480,W,17.4629,313.4348,190721,,,,
$GPGGA,205156.00,3726.2607160,N,12214.7386220,W,1,0,0.0,69.3156,M,0.0000,M,0.0000,0
$GPRMC,205156.00,A,3726.2607160,N,12214.7386220,W,17.5471,313.9913,190721,,,,
$GPGGA,205157.00,3726.2673460,N,12214.7471240,W,1,0,0.0,70.0576,M,0.0000,M,0.0000,0
$GPRMC,205157.00,A,3726.2673460,N,12214.7471240,W,17.5262,314.4760,190721,,,,
$GPGGA,205158.00,3726.2739280,N,12214.7556320,W,1,0,0.0,70.8256,M,0.0000,M,0.0000,0
$GPRMC,205158.00,A,3726.2739280,N,12214.7556320,W,17.4579,313.4701,190721,,,,
$GPGGA,205159.00,3726.2803780,N,12214.7644100,W,1,0,0.0,71.5747,M,0.0000,M,0.0000,0
$GPRMC,205159.00,A,3726.2803780,N,12214.7644100,W,17.8146,312.0765,190721,,,,
$GPGGA,205200.00,3726.2869360,N,12214.7734820,W,1,0,0.0,72.3286,M,0.0000,M,0.0000,0
$GPRMC,205200.00,A,3726.2869360,N,12214.7734820,W,18.4108,312.2773,190721,,,,
$GPGGA,205201.00,3726.2938540,N,12214.7827880,W,1,0,0.0,73.1256,M,0.0000,M,0.0000,0
$GPRMC,205201.00,A,3726.2938540,N,12214.7827880,W,18.9863,313.4256,190721,,,,
$GPGGA,205202.00,3726.3010960,N,12214.7921600,W,1,0,0.0,73.9316,M,0.0000,M,0.0000,0
$GPRMC,205202.00,A,3726.3010960,N,12214.7921600,W,19.5679,314.5063,190721,,,,
$GPGGA,205203.00,3726.3085900,N,12214.8015320,W,1,0,0.0,74.7656,M,0.0000,M,0.0000,0
$GPRMC,205203.00,A,3726.3085900,N,12214.8015320,W,19.4886,315.4374,190721,,,,
$GPGGA,205204.00,3726.3161140,N,12214.8107120,W,1,0,0.0,75.5247,M,0.0000,M,0.0000,0
$GPRMC,205204.00,A,3726.3161140,N,12214.8107120,W,19.4040,315.8316,190721,,,,
$GPGGA,205205.00,3726.3236440,N,12214.8198380,W,1,0,0.0,76.2876,M,0.0000,M,0.0000,0
$GPRMC,205205.00,A,3726.3236440,N,12214.8198380,W,19.2579,315.8261,190721,,,,
$GPGGA,205206.00,3726.3310300,N,12214.8288740,W,1,0,0.0,77.0486,M,0.0000,M,0.0000,0
$GPRMC,205206.00,A,3726.3310300,N,12214.8288740,W,19.0087,315.4010,190721,,,,
$GPGGA,205207.00,3726.3383320,N,12214.8379760,W,1,0,0.0,77.8057,M,0.0000,M,0.0000,0
$GPRMC,205207.00,A,3726.3383320,N,12214.8379760,W,19.1053,314.8992,190721,,,,
$GPGGA,205208.00,3726.3456700,N,12214.8472040,W,1,0,0.0,78.5726,M,0.0000,M,0.0000,0
$GPRMC,205208.00,A,3726.3456700,N,12214.8472040,W,19.3845,314.7419,190721,,,,
$GPGGA,205209.00,3726.3531340,N,12214.8566540,W,1,0,0.0,79.3596,M,0.0000,M,0.0000,0
$GPRMC,205209.00,A,3726.3531340,N,12214.8566540,W,19.8769,314.5559,190721,,,,
$GPGGA,205210.00,3726.3607600,N,12214.8663380,W,1,0,0.0,80.1686,M,0.0000,M,0.0000,0
$GPRMC,205210.00,A,3726.3607600,N,12214.8663380,W,20.2136,314.5237,190721,,,,
$GPGGA,205211.00,3726.3684880,N,12214.8761720,W,1,0,0.0,80.9776,M,0.0000,M,0.0000,0
$GPRMC,205211.00,A,3726.3684880,N,12214.8761720,W,20.5179,314.4839,190721,,,,
$GPGGA,205212.00,3726.3762940,N,12214.8861020,W,1,0,0.0,81.7946,M,0.0000,M,0.0000,0
$GPRMC,205212.00,A,3726.3762940,N,12214.8861020,W,20.5836,314.5760,190721,,,,
$GPGGA,205213.00,3726.3841240,N,12214.8960320,W,1,0,0.0,82.6196,M,0.0000,M,0.0000,0
$GPRMC,205213.00,A,3726.3841240,N,12214.8960320,W,20.6244,314.5798,190721,,,,
$GPGGA,205214.00,3726.3919720,N,12214.9060340,W,1,0,0.0,83.4386,M,0.0000,M,0.0000,0
$GPRMC,205214.00,A,3726.3919720,N,12214.9060340,W,20.7732,314.2396,190721,,,,
$GPGGA,205215.00,3726.3998200,N,12214.9161740,W,1,0,0.0,84.2766,M,0.0000,M,0.0000,0
$GPRMC,205215.00,A,3726.3998200,N,12214.9161740,W,20.8871,313.9867,190721,,,,
$GPGGA,205216.00,3726.4076740,N,12214.9263680,W,1,0,0.0,85.1456,M,0.0000,M,0.0000,0
$GPRMC,205216.00,A,3726.4076740,N,12214.9263680,W,20.9260,313.8799,190721,,,,
$GPGGA,205217.00,3726.4155460,N,12214.9366460,W,1,0,0.0,86.0146,M,0.0000,M,0.0000,0
$GPRMC,205217.00,A,3726.4155460,N,12214.9366460,W,21.1207,313.6092,190721,,,,
$GPGGA,205218.00,3726.4234360,N,12214.9470260,W,1,0,0.0,86.8686,M,0.0000,M,0.0000,0
$GPRMC,205218.00,A,3726.4234360,N,12214.9470260,W,21.1744,313.5052,190721,,,,
$GPGGA,205219.00,3726.4313320,N,12214.9574060,W,1,0,0.0,87.7186,M,0.0000,M,0.0000,0
$GPRMC,205219.00,A,3726.4313320,N,12214.9574060,W,21.1389,313.6561,190721,,,,
$GPGGA,205220.00,3726.4392340,N,12214.9677500,W,1,0,0.0,88.5656,M,0.0000,M,0.0000,0
$GPRMC,205220.00,A,3726.4392340,N,12214.9677500,W,21.1227,313.7801,190721,,,,
$GPGGA,205221.00,3726.4471540,N,12214.9780760,W,1,0,0.0,89.3986,M,0.0000,M,0.0000,0
$GPRMC,205221.00,A,3726.4471540,N,12214.9780760,W,21.1527,313.7927,190721,,,,
$GPGGA,205222.00,3726.4551400,N,12214.9884440,W,1,0,0.0,90.2306,M,0.0000,M,0.0000,0
$GPRMC,205222.00,A,3726.4551400,N,12214.9884440,W,21.3816,313.9817,190721,,,,
$GPGGA,205223.00,3726.4632220,N,12214.9988960,W,1,0,0.0,91.0826,M,0.0000,M,0.0000,0
$GPRMC,205223.00,A,3726.4632220,N,12214.9988960,W,21.5799,314.0119,190721,,,,
$GPGGA,205224.00,3726.4713760,N,12215.0094860,W,1,0,0.0,91.9376,M,0.0000,M,0.0000,0
$GPRMC,205224.00,A,3726.4713760,N,12215.0094860,W,21.8416,313.8890,190721,,,,
$GPGGA,205225.00,3726.4796320,N,12215.0201840,W,1,0,0.0,92.8086,M,0.0000,M,0.0000,0
$GPRMC,205225.00,A,3726.4796320,N,12215.0201840,W,22.0745,313.9645,190721,,,,
$GPGGA,205226.00,3726.4879540,N,12215.0310140,W,1,0,0.0,93.7565,M,0.0000,M,0.0000,0
$GPRMC,205226.00,A,3726.4879540,N,12215.0310140,W,22.2843,313.8037,190721,,,,
$GPGGA,205227.00,3726.4963300,N,12215.0419580,W,1,0,0.0,94.7645,M,0.0000,M,0.0000,0
$GPRMC,205227.00,A,3726.4963300,N,12215.0419580,W,22.4722,313.7771,190721,,,,
$GPGGA,205228.00,3726.5047720,N,12215.0530040,W,1,0,0.0,95.7985,M,0.0000,M,0.0000,0
$GPRMC,205228.00,A,3726.5047720,N,12215.0530040,W,22.6576,313.7149,190721,,,,
$GPGGA,205229.00,3726.5132800,N,12215.0641340,W,1,0,0.0,96.8415,M,0.0000,M,0.0000,0
$GPRMC,205229.00,A,3726.5132800,N,12215.0641340,W,22.8132,313.8326,190721,,,,
$GPGGA,205230.00,3726.5218000,N,12215.0753120,W,1,0,0.0,97.8965,M,0.0000,M,0.0000,0
$GPRMC,205230.00,A,3726.5218000,N,12215.0753120,W,22.7730,313.5456,190721,,,,
$GPGGA,205231.00,3726.5301940,N,12215.0865620,W,1,0,0.0,98.8765,M,0.0000,M,0.0000,0
$GPRMC,205231.00,A,3726.5301940,N,12215.0865620,W,22.6808,312.5201,190721,,,,
$GPGGA,205232.00,3726.5383480,N,12215.0980160,W,1,0,0.0,99.8186,M,0.0000,M,0.0000,0
$GPRMC,205232.00,A,3726.5383480,N,12215.0980160,W,22.6221,311.0421,190721,,,,
$GPGGA,205233.00,3726.5462440,N,12215.1097280,W,1,0,0.0,100.7155,M,0.0000,M,0.0000,0
$GPRMC,205233.00,A,3726.5462440,N,12215.1097280,W,22.5929,309.5540,190721,,,,
$GPGGA,205234.00,3726.5539000,N,12215.1216440,W,1,0,0.0,101.6286,M,0.0000,M,0.0000,0
$GPRMC,205234.00,A,3726.5539000,N,12215.1216440,W,22.5390,308.2374,190721,,,,
$GPGGA,205235.00,3726.5612680,N,12215.1337820,W,1,0,0.0,102.5136,M,0.0000,M,0.0000,0
$GPRMC,205235.00,A,3726.5612680,N,12215.1337820,W,22.4684,306.5274,190721,,,,
$GPGGA,205236.00,3726.5683540,N,12215.1461360,W,1,0,0.0,103.4006,M,0.0000,M,0.0000,0
$GPRMC,205236.00,A,3726.5683540,N,12215.1461360,W,22.4155,304.9450,190721,,,,
$GPGGA,205237.00,3726.5751640,N,12215.1586880,W,1,0,0.0,104.2576,M,0.0000,M,0.0000,0
$GPRMC,205237.00,A,3726.5751640,N,12215.1586880,W,22.3680,303.5279,190721,,,,
$GPGGA,205238.00,3726.5816980,N,12215.1714320,W,1,0,0.0,105.1476,M,0.0000,M,0.0000,0
$GPRMC,205238.00,A,3726.5816980,N,12215.1714320,W,22.3209,302.1082,190721,,,,
$GPGGA,205239.00,3726.5879800,N,12215.1843440,W,1,0,0.0,106.0176,M,0.0000,M,0.0000,0
$GPRMC,205239.00,A,3726.5879800,N,12215.1843440,W,22.2733,300.6957,190721,,,,
$GPGGA,205240.00,3726.5940100,N,12215.1974000,W,1,0,0.0,106.8896,M,0.0000,M,0.0000,0
$GPRMC,205240.00,A,3726.5940100,N,12215.1974000,W,22.2604,299.5511,190721,,,,
$GPGGA,205241.00,3726.5998360,N,12215.2106120,W,1,0,0.0,107.7516,M,0.0000,M,0.0000,0
$GPRMC,205241.00,A,3726.5998360,N,12215.2106120,W,22.2628,298.3644,190721,,,,
$GPGGA,205242.00,3726.6054280,N,12215.2239800,W,1,0,0.0,108.6316,M,0.0000,M,0.0000,0
$GPRMC,205242.00,A,3726.6054280,N,12215.2239800,W,22.2674,296.9864,190721,,,,
$GPGGA,205243.00,3726.6107500,N,12215.2375280,W,1,0,0.0,109.5196,M,0.0000,M,0.0000,0
$GPRMC,205243.00,A,3726.6107500,N,12215.2375280,W,22.2640,295.5494,190721,,,,
$GPGGA,205244.00,3726.6157960,N,12215.2512080,W,1,0,0.0,110.4026,M,0.0000,M,0.0000,0
$GPRMC,205244.00,A,3726.6157960,N,12215.2512080,W,22.1693,294.1898,190721,,,,
$GPGGA,205245.00,3726.6205540,N,12215.2649720,W,1,0,0.0,111.2766,M,0.0000,M,0.0000,0
$GPRMC,205245.00,A,3726.6205540,N,12215.2649720,W,22.0640,292.7204,190721,,,,
$GPGGA,205246.00,3726.6250000,N,12215.2788140,W,1,0,0.0,112.1366,M,0.0000,M,0.0000,0
$GPRMC,205246.00,A,3726.6250000,N,12215.2788140,W,21.9878,291.2476,190721,,,,
$GPGGA,205247.00,3726.6291760,N,12215.2928000,W,1,0,0.0,112.9986,M,0.0000,M,0.0000,0
$GPRMC,205247.00,A,3726.6291760,N,12215.2928000,W,21.9781,289.8374,190721,,,,
$GPGGA,205248.00,3726.6330460,N,12215.3067260,W,1,0,0.0,113.8426,M,0.0000,M,0.0000,0
$GPRMC,205248.00,A,3726.6330460,N,12215.3067260,W,21.5514,288.6965,190721,,,,
$GPGGA,205249.00,3726.6366640,N,12215.3206100,W,1,0,0.0,114.7086,M,0.0000,M,0.0000,0
$GPRMC,205249.00,A,3726.6366640,N,12215.3206100,W,21.5599,287.5710,190721,,,,
$GPGGA,205250.00,3726.6400540,N,12215.3345900,W,1,0,0.0,115.5466,M,0.0000,M,0.0000,0
$GPRMC,205250.00,A,3726.6400540,N,12215.3345900,W,21.5113,286.3132,190721,,,,
$GPGGA,205251.00,3726.6431740,N,12215.3486060,W,1,0,0.0,116.4006,M,0.0000,M,0.0000,0
$GPRMC,205251.00,A,3726.6431740,N,12215.3486060,W,21.4184,284.9149,190721,,,,
$GPGGA,205252.00,3726.6460000,N,12215.3626520,W,1,0,0.0,117.2436,M,0.0000,M,0.0000,0
$GPRMC,205252.00,A,3726.6460000,N,12215.3626520,W,21.3206,283.5088,190721,,,,
$GPGGA,205253.00,3726.6485500,N,12215.3767280,W,1,0,0.0,118.0506,M,0.0000,M,0.0000,0
$GPRMC,205253.00,A,3726.6485500,N,12215.3767280,W,21.2374,282.1160,190721,,,,
$GPGGA,205254.00,3726.6508180,N,12215.3908220,W,1,0,0.0,118.8417,M,0.0000,M,0.0000,0
$GPRMC,205254.00,A,3726.6508180,N,12215.3908220,W,21.1633,280.8315,190721,,,,
$GPGGA,205255.00,3726.6528280,N,12215.4049220,W,1,0,0.0,119.5667,M,0.0000,M,0.0000,0
$GPRMC,205255.00,A,3726.6528280,N,12215.4049220,W,21.0961,279.6392,190721,,,,
$GPGGA,205256.00,3726.6546220,N,12215.4190400,W,1,0,0.0,120.2507,M,0.0000,M,0.0000,0
$GPRMC,205256.00,A,3726.6546220,N,12215.4190400,W,21.0674,278.5420,190721,,,,
$GPGGA,205257.00,3726.6561820,N,12215.4331940,W,1,0,0.0,120.9147,M,0.0000,M,0.0000,0
$GPRMC,205257.00,A,3726.6561820,N,12215.4331940,W,21.0880,277.2635,190721,,,,
$GPGGA,205258.00,3726.6574660,N,12215.4473960,W,1,0,0.0,121.5497,M,0.0000,M,0.0000,0
$GPRMC,205258.00,A,3726.6574660,N,12215.4473960,W,21.0710,275.8135,190721,,,,
$GPGGA,205259.00,3726.6584680,N,12215.4616280,W,1,0,0.0,122.1677,M,0.0000,M,0.0000,0
$GPRMC,205259.00,A,3726.6584680,N,12215.4616280,W,21.0751,274.3556,190721,,,,
$GPGGA,205300.00,3726.6591940,N,12215.4759080,W,1,0,0.0,122.7227,M,0.0000,M,0.0000,0
$GPRMC,205300.00,A,3726.6591940,N,12215.4759080,W,21.1281,272.9844,190721,,,,
$GPGGA,205301.00,3726.6596380,N,12215.4902480,W,1,0,0.0,123.2418,M,0.0000,M,0.0000,0
$GPRMC,205301.00,A,3726.6596380,N,12215.4902480,W,21.1881,271.6591,190721,,,,
$GPGGA,205302.00,3726.6598480,N,12215.5046360,W,1,0,0.0,123.7398,M,0.0000,M,0.0000,0
$GPRMC,205302.00,A,3726.6598480,N,12215.5046360,W,21.2599,270.4044,190721,,,,
$GPGGA,205303.00,3726.6597760,N,12215.5190900,W,1,0,0.0,124.2078,M,0.0000,M,0.0000,0
$GPRMC,205303.00,A,3726.6597760,N,12215.5190900,W,21.3833,268.9838,190721,,,,
$GPGGA,205304.00,3726.6594220,N,12215.5336400,W,1,0,0.0,124.6108,M,0.0000,M,0.0000,0
$GPRMC,205304.00,A,3726.6594220,N,12215.5336400,W,21.5520,267.5923,190721,,,,
$GPGGA,205305.00,3726.6588100,N,12215.5483040,W,1,0,0.0,124.9599,M,0.0000,M,0.0000,0
$GPRMC,205305.00,A,3726.6588100,N,12215.5483040,W,21.7602,266.4450,190721,,,,
$GPGGA,205306.00,3726.6579700,N,12215.5631060,W,1,0,0.0,125.2329,M,0.0000,M,0.0000,0
$GPRMC,205306.00,A,3726.6579700,N,12215.5631060,W,22.0136,265.4147,190721,,,,
$GPGGA,205307.00,3726.6569140,N,12215.5780820,W,1,0,0.0,125.4679,M,0.0000,M,0.0000,0
$GPRMC,205307.00,A,3726.6569140,N,12215.5780820,W,22.3641,264.4871,190721,,,,
$GPGGA,205308.00,3726.6557080,N,12215.5933220,W,1,0,0.0,125.6679,M,0.0000,M,0.0000,0
$GPRMC,205308.00,A,3726.6557080,N,12215.5933220,W,22.7537,264.2523,190721,,,,
$GPGGA,205309.00,3726.6544960,N,12215.6087540,W,1,0,0.0,125.8209,M,0.0000,M,0.0000,0
$GPRMC,205309.00,A,3726.6544960,N,12215.6087540,W,22.9816,264.3625,190721,,,,
$GPGGA,205310.00,3726.6532840,N,12215.6243420,W,1,0,0.0,125.9399,M,0.0000,M,0.0000,0
$GPRMC,205310.00,A,3726.6532840,N,12215.6243420,W,23.2288,264.3036,190721,,,,
$GPGGA,205311.00,3726.6520300,N,12215.6401640,W,1,0,0.0,126.0229,M,0.0000,M,0.0000,0
$GPRMC,205311.00,A,3726.6520300,N,12215.6401640,W,23.6897,264.1469,190721,,,,
$GPGGA,205312.00,3726.6507340,N,12215.6561780,W,1,0,0.0,126.1419,M,0.0000,M,0.0000,0
$GPRMC,205312.00,A,3726.6507340,N,12215.6561780,W,23.6603,264.1125,190721,,,,
$GPGGA,205313.00,3726.6494380,N,12215.6720300,W,1,0,0.0,126.2979,M,0.0000,M,0.0000,0
$GPRMC,205313.00,A,3726.6494380,N,12215.6720300,W,23.3303,263.9901,190721,,,,
$GPGGA,205314.00,3726.6481300,N,12215.6876360,W,1,0,0.0,126.4749,M,0.0000,M,0.0000,0
$GPRMC,205314.00,A,3726.6481300,N,12215.6876360,W,22.9554,263.8983,190721,,,,
$GPGGA,205315.00,3726.6468340,N,12215.7029840,W,1,0,0.0,126.6499,M,0.0000,M,0.0000,0
$GPRMC,205315.00,A,3726.6468340,N,12215.7029840,W,22.5818,263.8907,190721,,,,
$GPGGA,205316.00,3726.6456100,N,12215.7181040,W,1,0,0.0,126.7559,M,0.0000,M,0.0000,0
$GPRMC,205316.00,A,3726.6456100,N,12215.7181040,W,22.2268,264.2235,190721,,,,
$GPGGA,205317.00,3726.6444400,N,12215.7329780,W,1,0,0.0,126.9049,M,0.0000,M,0.0000,0
$GPRMC,205317.00,A,3726.6444400,N,12215.7329780,W,21.8683,264.2750,190721,,,,
$GPGGA,205318.00,3726.6432880,N,12215.7476120,W,1,0,0.0,127.0279,M,0.0000,M,0.0000,0
$GPRMC,205318.00,A,3726.6432880,N,12215.7476120,W,21.5188,264.2877,190721,,,,
$GPGGA,205319.00,3726.6421780,N,12215.7620240,W,1,0,0.0,127.1240,M,0.0000,M,0.0000,0
$GPRMC,205319.00,A,3726.6421780,N,12215.7620240,W,21.1827,264.5320,190721,,,,
$GPGGA,205320.00,3726.6411340,N,12215.7762140,W,1,0,0.0,127.1770,M,0.0000,M,0.0000,0
$GPRMC,205320.00,A,3726.6411340,N,12215.7762140,W,20.8643,264.7044,190721,,,,
$GPGGA,205321.00,3726.6401260,N,12215.7901940,W,1,0,0.0,127.2759,M,0.0000,M,0.0000,0
$GPRMC,205321.00,A,3726.6401260,N,12215.7901940,W,20.5373,264.7101,190721,,,,
$GPGGA,205322.00,3726.6391120,N,12215.8039520,W,1,0,0.0,127.3730,M,0.0000,M,0.0000,0
$GPRMC,205322.00,A,3726.6391120,N,12215.8039520,W,20.2207,264.5358,190721,,,,
$GPGGA,205323.00,3726.6380620,N,12215.8175120,W,1,0,0.0,127.4340,M,0.0000,M,0.0000,0
$GPRMC,205323.00,A,3726.6380620,N,12215.8175120,W,19.9701,264.3072,190721,,,,
$GPGGA,205324.00,3726.6370420,N,12215.8308800,W,1,0,0.0,127.5050,M,0.0000,M,0.0000,0
$GPRMC,205324.00,A,3726.6370420,N,12215.8308800,W,19.7432,264.5576,190721,,,,
$GPGGA,205325.00,3726.6361120,N,12215.8443080,W,1,0,0.0,127.5440,M,0.0000,M,0.0000,0
$GPRMC,205325.00,A,3726.6361120,N,12215.8443080,W,20.0975,265.2733,190721,,,,
$GPGGA,205326.00,3726.6353680,N,12215.8580420,W,1,0,0.0,127.5470,M,0.0000,M,0.0000,0
$GPRMC,205326.00,A,3726.6353680,N,12215.8580420,W,20.5222,266.6996,190721,,,,
$GPGGA,205327.00,3726.6349360,N,12215.8720880,W,1,0,0.0,127.5190,M,0.0000,M,0.0000,0
$GPRMC,205327.00,A,3726.6349360,N,12215.8720880,W,20.9449,268.5372,190721,,,,
$GPGGA,205328.00,3726.6347800,N,12215.8863740,W,1,0,0.0,127.5040,M,0.0000,M,0.0000,0
$GPRMC,205328.00,A,3726.6347800,N,12215.8863740,W,21.1107,269.5349,190721,,,,
$GPGGA,205329.00,3726.6348400,N,12215.9007440,W,1,0,0.0,127.4360,M,0.0000,M,0.0000,0
$GPRMC,205329.00,A,3726.6348400,N,12215.9007440,W,21.3686,270.7318,190721,,,,
$GPGGA,205330.00,3726.6351340,N,12215.9153720,W,1,0,0.0,127.3590,M,0.0000,M,0.0000,0
$GPRMC,205330.00,A,3726.6351340,N,12215.9153720,W,21.7975,271.8243,190721,,,,
$GPGGA,205331.00,3726.6356620,N,12215.9302820,W,1,0,0.0,127.2401,M,0.0000,M,0.0000,0
$GPRMC,205331.00,A,3726.6356620,N,12215.9302820,W,22.2333,272.9743,190721,,,,
$GPGGA,205332.00,3726.6364780,N,12215.9454560,W,1,0,0.0,127.0981,M,0.0000,M,0.0000,0
$GPRMC,205332.00,A,3726.6364780,N,12215.9454560,W,22.6443,274.4064,190721,,,,
$GPGGA,205333.00,3726.6376120,N,12215.9608820,W,1,0,0.0,126.9021,M,0.0000,M,0.0000,0
$GPRMC,205333.00,A,3726.6376120,N,12215.9608820,W,23.0662,275.8228,190721,,,,
$GPGGA,205334.00,3726.6390700,N,12215.9765660,W,1,0,0.0,126.6791,M,0.0000,M,0.0000,0
$GPRMC,205334.00,A,3726.6390700,N,12215.9765660,W,23.5237,277.1834,190721,,,,
$GPGGA,205335.00,3726.6408580,N,12215.9925260,W,1,0,0.0,126.3831,M,0.0000,M,0.0000,0
$GPRMC,205335.00,A,3726.6408580,N,12215.9925260,W,24.0583,278.4520,190721,,,,
$GPGGA,205336.00,3726.6429460,N,12216.0088340,W,1,0,0.0,126.0782,M,0.0000,M,0.0000,0
$GPRMC,205336.00,A,3726.6429460,N,12216.0088340,W,24.6647,279.5136,190721,,,,
$GPGGA,205337.00,3726.6453460,N,12216.0254600,W,1,0,0.0,125.7322,M,0.0000,M,0.0000,0
$GPRMC,205337.00,A,3726.6453460,N,12216.0254600,W,25.1588,280.7830,190721,,,,
$GPGGA,205338.00,3726.6481180,N,12216.0423080,W,1,0,0.0,125.3852,M,0.0000,M,0.0000,0
$GPRMC,205338.00,A,3726.6481180,N,12216.0423080,W,25.5728,282.3360,190721,,,,
$GPGGA,205339.00,3726.6513280,N,12216.0592760,W,1,0,0.0,125.0222,M,0.0000,M,0.0000,0
$GPRMC,205339.00,A,3726.6513280,N,12216.0592760,W,25.8245,284.1452,190721,,,,
$GPGGA,205340.00,3726.6549580,N,12216.0761420,W,1,0,0.0,124.6672,M,0.0000,M,0.0000,0
$GPRMC,205340.00,A,3726.6549580,N,12216.0761420,W,25.6963,285.7874,190721,,,,
$GPGGA,205341.00,3726.6589300,N,12216.0927680,W,1,0,0.0,124.2822,M,0.0000,M,0.0000,0
$GPRMC,205341.00,A,3726.6589300,N,12216.0927680,W,25.5063,287.3061,190721,,,,
$GPGGA,205342.00,3726.6632200,N,12216.1091360,W,1,0,0.0,123.9172,M,0.0000,M,0.0000,0
$GPRMC,205342.00,A,3726.6632200,N,12216.1091360,W,25.3200,288.8344,190721,,,,
$GPGGA,205343.00,3726.6678220,N,12216.1252340,W,1,0,0.0,123.5432,M,0.0000,M,0.0000,0
$GPRMC,205343.00,A,3726.6678220,N,12216.1252340,W,25.1294,290.3006,190721,,,,
$GPGGA,205344.00,3726.6727060,N,12216.1410620,W,1,0,0.0,123.1762,M,0.0000,M,0.0000,0
$GPRMC,205344.00,A,3726.6727060,N,12216.1410620,W,24.9820,291.7714,190721,,,,
$GPGGA,205345.00,3726.6779080,N,12216.1567400,W,1,0,0.0,122.7443,M,0.0000,M,0.0000,0
$GPRMC,205345.00,A,3726.6779080,N,12216.1567400,W,25.1716,293.1973,190721,,,,
$GPGGA,205346.00,3726.6834520,N,12216.1724360,W,1,0,0.0,122.3432,M,0.0000,M,0.0000,0
$GPRMC,205346.00,A,3726.6834520,N,12216.1724360,W,25.4690,294.2284,190721,,,,
$GPGGA,205347.00,3726.6892840,N,12216.1881380,W,1,0,0.0,122.0142,M,0.0000,M,0.0000,0
$GPRMC,205347.00,A,3726.6892840,N,12216.1881380,W,25.6099,295.4771,190721,,,,
$GPGGA,205348.00,3726.6954220,N,12216.2037680,W,1,0,0.0,121.6582,M,0.0000,M,0.0000,0
$GPRMC,205348.00,A,3726.6954220,N,12216.2037680,W,25.7908,296.7790,190721,,,,
$GPGGA,205349.00,3726.7018960,N,12216.2193260,W,1,0,0.0,121.3442,M,0.0000,M,0.0000,0
$GPRMC,205349.00,A,3726.7018960,N,12216.2193260,W,25.9913,298.1084,190721,,,,
$GPGGA,205350.00,3726.7087420,N,12216.2348000,W,1,0,0.0,121.0251,M,0.0000,M,0.0000,0
$GPRMC,205350.00,A,3726.7087420,N,12216.2348000,W,26.1889,299.7359,190721,,,,
$GPGGA,205351.00,3726.7160140,N,12216.2500880,W,1,0,0.0,120.7801,M,0.0000,M,0.0000,0
$GPRMC,205351.00,A,3726.7160140,N,12216.2500880,W,26.3149,301.4793,190721,,,,
$GPGGA,205352.00,3726.7236400,N,12216.2652080,W,1,0,0.0,120.6121,M,0.0000,M,0.0000,0
$GPRMC,205352.00,A,3726.7236400,N,12216.2652080,W,26.4662,303.0056,190721,,,,
$GPGGA,205353.00,3726.7316500,N,12216.2801300,W,1,0,0.0,120.4951,M,0.0000,M,0.0000,0
$GPRMC,205353.00,A,3726.7316500,N,12216.2801300,W,26.6095,304.6847,190721,,,,
$GPGGA,205354.00,3726.7400560,N,12216.2948240,W,1,0,0.0,120.4190,M,0.0000,M,0.0000,0
$GPRMC,205354.00,A,3726.7400560,N,12216.2948240,W,26.7276,306.3596,190721,,,,
$GPGGA,205355.00,3726.7488100,N,12216.3092780,W,1,0,0.0,120.4370,M,0.0000,M,0.0000,0
$GPRMC,205355.00,A,3726.7488100,N,12216.3092780,W,26.8093,307.7966,190721,,,,
$GPGGA,205356.00,3726.7578400,N,12216.3235040,W,1,0,0.0,120.5719,M,0.0000,M,0.0000,0
$GPRMC,205356.00,A,3726.7578400,N,12216.3235040,W,26.8497,309.0389,190721,,,,
$GPGGA,205357.00,3726.7671280,N,12216.3374960,W,1,0,0.0,120.7929,M,0.0000,M,0.0000,0
$GPRMC,205357.00,A,3726.7671280,N,12216.3374960,W,26.8350,310.2305,190721,,,,
$GPGGA,205358.00,3726.7765840,N,12216.3512480,W,1,0,0.0,121.0579,M,0.0000,M,0.0000,0
$GPRMC,205358.00,A,3726.7765840,N,12216.3512480,W,26.7604,311.1319,190721,,,,
$GPGGA,205359.00,3726.7861060,N,12216.3648860,W,1,0,0.0,121.4088,M,0.0000,M,0.0000,0
$GPRMC,205359.00,A,3726.7861060,N,12216.3648860,W,26.6978,311.0017,190721,,,,
$GPGGA,205400.00,3726.7955860,N,12216.3784940,W,1,0,0.0,121.7798,M,0.0000,M,0.0000,0
$GPRMC,205400.00,A,3726.7955860,N,12216.3784940,W,26.6268,311.0806,190721,,,,
$GPGGA,205401.00,3726.8050600,N,12216.3920540,W,1,0,0.0,122.1548,M,0.0000,M,0.0000,0
$GPRMC,205401.00,A,3726.8050600,N,12216.3920540,W,26.5489,311.1590,190721,,,,
$GPGGA,205402.00,3726.8145220,N,12216.4055480,W,1,0,0.0,122.6168,M,0.0000,M,0.0000,0
$GPRMC,205402.00,A,3726.8145220,N,12216.4055480,W,26.4539,311.2430,190721,,,,
$GPGGA,205403.00,3726.8239360,N,12216.4189940,W,1,0,0.0,123.1328,M,0.0000,M,0.0000,0
$GPRMC,205403.00,A,3726.8239360,N,12216.4189940,W,26.3274,311.1105,190721,,,,
$GPGGA,205404.00,3726.8332720,N,12216.4324160,W,1,0,0.0,123.6897,M,0.0000,M,0.0000,0
$GPRMC,205404.00,A,3726.8332720,N,12216.4324160,W,26.1917,310.9174,190721,,,,
$GPGGA,205405.00,3726.8425480,N,12216.4457600,W,1,0,0.0,124.3187,M,0.0000,M,0.0000,0
$GPRMC,205405.00,A,3726.8425480,N,12216.4457600,W,26.0487,311.0424,190721,,,,
$GPGGA,205406.00,3726.8518000,N,12216.4590200,W,1,0,0.0,125.0086,M,0.0000,M,0.0000,0
$GPRMC,205406.00,A,3726.8518000,N,12216.4590200,W,25.9140,311.1219,190721,,,,
$GPGGA,205407.00,3726.8610100,N,12216.4721960,W,1,0,0.0,125.7346,M,0.0000,M,0.0000,0
$GPRMC,205407.00,A,3726.8610100,N,12216.4721960,W,25.7762,311.1629,190721,,,,
$GPGGA,205408.00,3726.8701780,N,12216.4853060,W,1,0,0.0,126.4476,M,0.0000,M,0.0000,0
$GPRMC,205408.00,A,3726.8701780,N,12216.4853060,W,25.6514,311.1802,190721,,,,
$GPGGA,205409.00,3726.8793040,N,12216.4983440,W,1,0,0.0,127.1806,M,0.0000,M,0.0000,0
$GPRMC,205409.00,A,3726.8793040,N,12216.4983440,W,25.5039,311.1806,190721,,,,
$GPGGA,205410.00,3726.8883820,N,12216.5112920,W,1,0,0.0,127.9176,M,0.0000,M,0.0000,0
$GPRMC,205410.00,A,3726.8883820,N,12216.5112920,W,25.4354,311.3014,190721,,,,
$GPGGA,205411.00,3726.8974840,N,12216.5242400,W,1,0,0.0,128.6756,M,0.0000,M,0.0000,0
$GPRMC,205411.00,A,3726.8974840,N,12216.5242400,W,25.4743,311.3146,190721,,,,
$GPGGA,205412.00,3726.9066460,N,12216.5371880,W,1,0,0.0,129.4026,M,0.0000,M,0.0000,0
$GPRMC,205412.00,A,3726.9066460,N,12216.5371880,W,25.6308,311.6721,190721,,,,
$GPGGA,205413.00,3726.9159340,N,12216.5501840,W,1,0,0.0,130.1136,M,0.0000,M,0.0000,0
$GPRMC,205413.00,A,3726.9159340,N,12216.5501840,W,25.8503,311.7754,190721,,,,
$GPGGA,205414.00,3726.9252880,N,12216.5632760,W,1,0,0.0,130.8477,M,0.0000,M,0.0000,0
$GPRMC,205414.00,A,3726.9252880,N,12216.5632760,W,25.9785,311.7095,190721,,,,
$GPGGA,205415.00,3726.9346000,N,12216.5764340,W,1,0,0.0,131.5916,M,0.0000,M,0.0000,0
$GPRMC,205415.00,A,3726.9346000,N,12216.5764340,W,25.8937,311.0112,190721,,,,
$GPGGA,205416.00,3726.9437320,N,12216.5897000,W,1,0,0.0,132.3296,M,0.0000,M,0.0000,0
$GPRMC,205416.00,A,3726.9437320,N,12216.5897000,W,25.8259,310.3902,190721,,,,
$GPGGA,205417.00,3726.9527500,N,12216.6030800,W,1,0,0.0,133.0287,M,0.0000,M,0.0000,0
$GPRMC,205417.00,A,3726.9527500,N,12216.6030800,W,25.8783,309.8347,190721,,,,
$GPGGA,205418.00,3726.9617620,N,12216.6165560,W,1,0,0.0,133.7147,M,0.0000,M,0.0000,0
$GPRMC,205418.00,A,3726.9617620,N,12216.6165560,W,25.9970,309.8940,190721,,,,
$GPGGA,205419.00,3726.9707860,N,12216.6300440,W,1,0,0.0,134.3637,M,0.0000,M,0.0000,0
$GPRMC,205419.00,A,3726.9707860,N,12216.6300440,W,25.8097,309.9460,190721,,,,
$GPGGA,205420.00,3726.9796540,N,12216.6433640,W,1,0,0.0,134.9358,M,0.0000,M,0.0000,0
$GPRMC,205420.00,A,3726.9796540,N,12216.6433640,W,25.3786,309.5166,190721,,,,
$GPGGA,205421.00,3726.9883060,N,12216.6565400,W,1,0,0.0,135.3658,M,0.0000,M,0.0000,0
$GPRMC,205421.00,A,3726.9883060,N,12216.6565400,W,24.9839,309.3693,190721,,,,
$GPGGA,205422.00,3726.9968260,N,12216.6695420,W,1,0,0.0,135.8388,M,0.0000,M,0.0000,0
$GPRMC,205422.00,A,3726.9968260,N,12216.6695420,W,24.6781,309.3722,190721,,,,
$GPGGA,205423.00,3727.0052920,N,12216.6824420,W,1,0,0.0,136.2448,M,0.0000,M,0.0000,0
$GPRMC,205423.00,A,3727.0052920,N,12216.6824420,W,24.6495,309.3488,190721,,,,
$GPGGA,205424.00,3727.0137700,N,12216.6953840,W,1,0,0.0,136.6148,M,0.0000,M,0.0000,0
$GPRMC,205424.00,A,3727.0137700,N,12216.6953840,W,24.7437,309.3771,190721,,,,
$GPGGA,205425.00,3727.0222840,N,12216.7082960,W,1,0,0.0,137.0626,M,0.0000,M,0.0000,0
$GPRMC,205425.00,A,3727.0222840,N,12216.7082960,W,24.6363,309.5320,190721,,,,
$GPGGA,205426.00,3727.0307920,N,12216.7211060,W,1,0,0.0,137.3659,M,0.0000,M,0.0000,0
$GPRMC,205426.00,A,3727.0307920,N,12216.7211060,W,24.5415,309.7291,190721,,,,
$GPGGA,205427.00,3727.0392820,N,12216.7338860,W,1,0,0.0,137.6199,M,0.0000,M,0.0000,0
$GPRMC,205427.00,A,3727.0392820,N,12216.7338860,W,24.5854,309.7332,190721,,,,
$GPGGA,205428.00,3727.0478200,N,12216.7467500,W,1,0,0.0,137.7919,M,0.0000,M,0.0000,0
$GPRMC,205428.00,A,3727.0478200,N,12216.7467500,W,24.7612,309.4846,190721,,,,
$GPGGA,205429.00,3727.0563700,N,12216.7597460,W,1,0,0.0,137.9349,M,0.0000,M,0.0000,0
$GPRMC,205429.00,A,3727.0563700,N,12216.7597460,W,24.9331,309.4441,190721,,,,
$GPGGA,205430.00,3727.0650040,N,12216.7728080,W,1,0,0.0,137.9900,M,0.0000,M,0.0000,0
$GPRMC,205430.00,A,3727.0650040,N,12216.7728080,W,25.1059,309.6873,190721,,,,
$GPGGA,205431.00,3727.0737220,N,12216.7859120,W,1,0,0.0,138.0110,M,0.0000,M,0.0000,0
$GPRMC,205431.00,A,3727.0737220,N,12216.7859120,W,25.2252,309.7254,190721,,,,
$GPGGA,205432.00,3727.0824400,N,12216.7991000,W,1,0,0.0,138.0280,M,0.0000,M,0.0000,0
$GPRMC,205432.00,A,3727.0824400,N,12216.7991000,W,25.3065,309.3902,190721,,,,
$GPGGA,205433.00,3727.0911640,N,12216.8123600,W,1,0,0.0,138.0240,M,0.0000,M,0.0000,0
$GPRMC,205433.00,A,3727.0911640,N,12216.8123600,W,25.4022,309.3651,190721,,,,
$GPGGA,205434.00,3727.0998820,N,12216.8257160,W,1,0,0.0,137.9900,M,0.0000,M,0.0000,0
$GPRMC,205434.00,A,3727.0998820,N,12216.8257160,W,25.5051,308.9339,190721,,,,
$GPGGA,205435.00,3727.1085220,N,12216.8391620,W,1,0,0.0,137.8791,M,0.0000,M,0.0000,0
$GPRMC,205435.00,A,3727.1085220,N,12216.8391620,W,25.4222,308.6938,190721,,,,
$GPGGA,205436.00,3727.1171620,N,12216.8525900,W,1,0,0.0,137.7671,M,0.0000,M,0.0000,0
$GPRMC,205436.00,A,3727.1171620,N,12216.8525900,W,25.4622,308.9350,190721,,,,
$GPGGA,205437.00,3727.1258800,N,12216.8659580,W,1,0,0.0,137.5871,M,0.0000,M,0.0000,0
$GPRMC,205437.00,A,3727.1258800,N,12216.8659580,W,25.4994,309.3575,190721,,,,
$GPGGA,205438.00,3727.1346940,N,12216.8793020,W,1,0,0.0,137.3282,M,0.0000,M,0.0000,0
$GPRMC,205438.00,A,3727.1346940,N,12216.8793020,W,25.6341,309.7037,190721,,,,
$GPGGA,205439.00,3727.1436040,N,12216.8927060,W,1,0,0.0,137.0552,M,0.0000,M,0.0000,0
$GPRMC,205439.00,A,3727.1436040,N,12216.8927060,W,25.8284,309.6102,190721,,,,
$GPGGA,205440.00,3727.1525380,N,12216.9062900,W,1,0,0.0,136.7022,M,0.0000,M,0.0000,0
$GPRMC,205440.00,A,3727.1525380,N,12216.9062900,W,26.1037,309.2962,190721,,,,
$GPGGA,205441.00,3727.1615320,N,12216.9200600,W,1,0,0.0,136.3342,M,0.0000,M,0.0000,0
$GPRMC,205441.00,A,3727.1615320,N,12216.9200600,W,26.4053,309.1408,190721,,,,
$GPGGA,205442.00,3727.1706340,N,12216.9340100,W,1,0,0.0,135.9262,M,0.0000,M,0.0000,0
$GPRMC,205442.00,A,3727.1706340,N,12216.9340100,W,26.7740,309.2724,190721,,,,
$GPGGA,205443.00,3727.1798980,N,12216.9481460,W,1,0,0.0,135.4403,M,0.0000,M,0.0000,0
$GPRMC,205443.00,A,3727.1798980,N,12216.9481460,W,27.1953,309.4276,190721,,,,
$GPGGA,205444.00,3727.1893480,N,12216.9624680,W,1,0,0.0,134.8913,M,0.0000,M,0.0000,0
$GPRMC,205444.00,A,3727.1893480,N,12216.9624680,W,27.6519,309.5318,190721,,,,
$GPGGA,205445.00,3727.1989840,N,12216.9770240,W,1,0,0.0,134.2943,M,0.0000,M,0.0000,0
$GPRMC,205445.00,A,3727.1989840,N,12216.9770240,W,28.1497,309.6333,190721,,,,
$GPGGA,205446.00,3727.2087940,N,12216.9918140,W,1,0,0.0,133.6753,M,0.0000,M,0.0000,0
$GPRMC,205446.00,A,3727.2087940,N,12216.9918140,W,28.5922,309.6217,190721,,,,
$GPGGA,205447.00,3727.2187180,N,12217.0068740,W,1,0,0.0,133.0473,M,0.0000,M,0.0000,0
$GPRMC,205447.00,A,3727.2187180,N,12217.0068740,W,29.0386,309.2271,190721,,,,
$GPGGA,205448.00,3727.2287320,N,12217.0222280,W,1,0,0.0,132.4023,M,0.0000,M,0.0000,0
$GPRMC,205448.00,A,3727.2287320,N,12217.0222280,W,29.4453,309.1765,190721,,,,
$GPGGA,205449.00,3727.2388480,N,12217.0376960,W,1,0,0.0,131.7754,M,0.0000,M,0.0000,0
$GPRMC,205449.00,A,3727.2388480,N,12217.0376960,W,29.4751,309.2847,190721,,,,
$GPGGA,205450.00,3727.2489220,N,12217.0531160,W,1,0,0.0,131.1273,M,0.0000,M,0.0000,0
$GPRMC,205450.00,A,3727.2489220,N,12217.0531160,W,29.3315,309.3688,190721,,,,
$GPGGA,205451.00,3727.2590260,N,12217.0684160,W,1,0,0.0,130.4723,M,0.0000,M,0.0000,0
$GPRMC,205451.00,A,3727.2590260,N,12217.0684160,W,29.2780,309.6586,190721,,,,
$GPGGA,205452.00,3727.2691480,N,12217.0836740,W,1,0,0.0,129.8283,M,0.0000,M,0.0000,0
$GPRMC,205452.00,A,3727.2691480,N,12217.0836740,W,29.2841,309.6437,190721,,,,
$GPGGA,205453.00,3727.2792880,N,12217.0989440,W,1,0,0.0,129.1713,M,0.0000,M,0.0000,0
$GPRMC,205453.00,A,3727.2792880,N,12217.0989440,W,29.3053,309.6460,190721,,,,
$GPGGA,205454.00,3727.2893920,N,12217.1142500,W,1,0,0.0,128.5413,M,0.0000,M,0.0000,0
$GPRMC,205454.00,A,3727.2893920,N,12217.1142500,W,29.3151,309.3614,190721,,,,
$GPGGA,205455.00,3727.2994540,N,12217.1296280,W,1,0,0.0,127.8793,M,0.0000,M,0.0000,0
$GPRMC,205455.00,A,3727.2994540,N,12217.1296280,W,29.3537,309.2104,190721,,,,
$GPGGA,205456.00,3727.3095100,N,12217.1450480,W,1,0,0.0,127.2293,M,0.0000,M,0.0000,0
$GPRMC,205456.00,A,3727.3095100,N,12217.1450480,W,29.4113,309.1978,190721,,,,
$GPGGA,205457.00,3727.3196200,N,12217.1604620,W,1,0,0.0,126.5574,M,0.0000,M,0.0000,0
$GPRMC,205457.00,A,3727.3196200,N,12217.1604620,W,29.4635,309.4800,190721,,,,
$GPGGA,205458.00,3727.3297720,N,12217.1758820,W,1,0,0.0,125.8723,M,0.0000,M,0.0000,0
$GPRMC,205458.00,A,3727.3297720,N,12217.1758820,W,29.4956,309.2607,190721,,,,
$GPGGA,205459.00,3727.3398880,N,12217.1913680,W,1,0,0.0,125.1384,M,0.0000,M,0.0000,0
$GPRMC,205459.00,A,3727.3398880,N,12217.1913680,W,29.5732,309.2431,190721,,,,
$GPGGA,205500.00,3727.3500940,N,12217.2068540,W,1,0,0.0,124.3524,M,0.0000,M,0.0000,0
$GPRMC,205500.00,A,3727.3500940,N,12217.2068540,W,29.7086,309.8112,190721,,,,
$GPGGA,205501.00,3727.3605100,N,12217.2222500,W,1,0,0.0,123.6223,M,0.0000,M,0.0000,0
$GPRMC,205501.00,A,3727.3605100,N,12217.2222500,W,29.8326,310.6022,190721,,,,
$GPGGA,205502.00,3727.3711840,N,12217.2374300,W,1,0,0.0,123.0762,M,0.0000,M,0.0000,0
$GPRMC,205502.00,A,3727.3711840,N,12217.2374300,W,29.8782,312.1196,190721,,,,
$GPGGA,205503.00,3727.3822420,N,12217.2522080,W,1,0,0.0,122.6632,M,0.0000,M,0.0000,0
$GPRMC,205503.00,A,3727.3822420,N,12217.2522080,W,29.9242,314.0561,190721,,,,
$GPGGA,205504.00,3727.3937740,N,12217.2664880,W,1,0,0.0,122.3841,M,0.0000,M,0.0000,0
$GPRMC,205504.00,A,3727.3937740,N,12217.2664880,W,30.0459,316.3883,190721,,,,
$GPGGA,205505.00,3727.4057800,N,12217.2802700,W,1,0,0.0,122.2220,M,0.0000,M,0.0000,0
$GPRMC,205505.00,A,3727.4057800,N,12217.2802700,W,30.1678,318.5159,190721,,,,
$GPGGA,205506.00,3727.4181880,N,12217.2935900,W,1,0,0.0,122.1760,M,0.0000,M,0.0000,0
$GPRMC,205506.00,A,3727.4181880,N,12217.2935900,W,30.2735,320.1872,190721,,,,
$GPGGA,205507.00,3727.4309500,N,12217.3064780,W,1,0,0.0,122.2789,M,0.0000,M,0.0000,0
$GPRMC,205507.00,A,3727.4309500,N,12217.3064780,W,30.2840,321.9792,190721,,,,
$GPGGA,205508.00,3727.4439760,N,12217.3187420,W,1,0,0.0,122.5019,M,0.0000,M,0.0000,0
$GPRMC,205508.00,A,3727.4439760,N,12217.3187420,W,30.0411,324.1325,190721,,,,
$GPGGA,205509.00,3727.4572600,N,12217.3303760,W,1,0,0.0,122.8898,M,0.0000,M,0.0000,0
$GPRMC,205509.00,A,3727.4572600,N,12217.3303760,W,29.9018,325.9089,190721,,,,
$GPGGA,205510.00,3727.4707900,N,12217.3414040,W,1,0,0.0,123.3788,M,0.0000,M,0.0000,0
$GPRMC,205510.00,A,3727.4707900,N,12217.3414040,W,29.8009,327.9062,190721,,,,
$GPGGA,205511.00,3727.4845660,N,12217.3518020,W,1,0,0.0,123.9457,M,0.0000,M,0.0000,0
$GPRMC,205511.00,A,3727.4845660,N,12217.3518020,W,29.6829,329.7419,190721,,,,
$GPGGA,205512.00,3727.4985100,N,12217.3616480,W,1,0,0.0,124.5407,M,0.0000,M,0.0000,0
$GPRMC,205512.00,A,3727.4985100,N,12217.3616480,W,29.5323,331.4016,190721,,,,
$GPGGA,205513.00,3727.5126280,N,12217.3708760,W,1,0,0.0,125.1537,M,0.0000,M,0.0000,0
$GPRMC,205513.00,A,3727.5126280,N,12217.3708760,W,29.3740,333.4864,190721,,,,
$GPGGA,205514.00,3727.5269200,N,12217.3793960,W,1,0,0.0,125.7787,M,0.0000,M,0.0000,0
$GPRMC,205514.00,A,3727.5269200,N,12217.3793960,W,29.1945,335.5645,190721,,,,
$GPGGA,205515.00,3727.5413680,N,12217.3872440,W,1,0,0.0,126.3677,M,0.0000,M,0.0000,0
$GPRMC,205515.00,A,3727.5413680,N,12217.3872440,W,29.0654,337.3525,190721,,,,
$GPGGA,205516.00,3727.5559360,N,12217.3945040,W,1,0,0.0,126.9777,M,0.0000,M,0.0000,0
$GPRMC,205516.00,A,3727.5559360,N,12217.3945040,W,28.9441,339.2231,190721,,,,
$GPGGA,205517.00,3727.5706480,N,12217.4011220,W,1,0,0.0,127.4837,M,0.0000,M,0.0000,0
$GPRMC,205517.00,A,3727.5706480,N,12217.4011220,W,28.8864,341.1656,190721,,,,
$GPGGA,205518.00,3727.5854740,N,12217.4071460,W,1,0,0.0,128.0897,M,0.0000,M,0.0000,0
$GPRMC,205518.00,A,3727.5854740,N,12217.4071460,W,28.7936,342.7494,190721,,,,
$GPGGA,205519.00,3727.6003780,N,12217.4126360,W,1,0,0.0,128.6786,M,0.0000,M,0.0000,0
$GPRMC,205519.00,A,3727.6003780,N,12217.4126360,W,28.6606,344.2581,190721,,,,
$GPGGA,205520.00,3727.6153360,N,12217.4175740,W,1,0,0.0,129.2266,M,0.0000,M,0.0000,0
$GPRMC,205520.00,A,3727.6153360,N,12217.4175740,W,28.5842,346.3840,190721,,,,
$GPGGA,205521.00,3727.6304200,N,12217.4218160,W,1,0,0.0,129.9377,M,0.0000,M,0.0000,0
$GPRMC,205521.00,A,3727.6304200,N,12217.4218160,W,28.6457,348.3580,190721,,,,
$GPGGA,205522.00,3727.6456840,N,12217.4253860,W,1,0,0.0,130.5167,M,0.0000,M,0.0000,0
$GPRMC,205522.00,A,3727.6456840,N,12217.4253860,W,28.8056,350.2980,190721,,,,
$GPGGA,205523.00,3727.6611220,N,12217.4283620,W,1,0,0.0,131.0877,M,0.0000,M,0.0000,0
$GPRMC,205523.00,A,3727.6611220,N,12217.4283620,W,28.9816,352.0421,190721,,,,
$GPGGA,205524.00,3727.6767220,N,12217.4307440,W,1,0,0.0,131.6807,M,0.0000,M,0.0000,0
$GPRMC,205524.00,A,3727.6767220,N,12217.4307440,W,29.1790,354.1850,190721,,,,
$GPGGA,205525.00,3727.6924720,N,12217.4323700,W,1,0,0.0,132.2807,M,0.0000,M,0.0000,0
$GPRMC,205525.00,A,3727.6924720,N,12217.4323700,W,29.2726,356.2522,190721,,,,
$GPGGA,205526.00,3727.7082700,N,12217.4333960,W,1,0,0.0,133.0066,M,0.0000,M,0.0000,0
$GPRMC,205526.00,A,3727.7082700,N,12217.4333960,W,29.2559,357.3683,190721,,,,
$GPGGA,205527.00,3727.7240680,N,12217.4341700,W,1,0,0.0,133.7876,M,0.0000,M,0.0000,0
$GPRMC,205527.00,A,3727.7240680,N,12217.4341700,W,29.2436,357.8851,190721,,,,
$GPGGA,205528.00,3727.7398720,N,12217.4348120,W,1,0,0.0,134.4107,M,0.0000,M,0.0000,0
$GPRMC,205528.00,A,3727.7398720,N,12217.4348120,W,29.2713,358.2734,190721,,,,
$GPGGA,205529.00,3727.7557120,N,12217.4353640,W,1,0,0.0,134.9977,M,0.0000,M,0.0000,0
$GPRMC,205529.00,A,3727.7557120,N,12217.4353640,W,29.3334,358.3590,190721,,,,
$GPGGA,205530.00,3727.7715700,N,12217.4358920,W,1,0,0.0,135.5867,M,0.0000,M,0.0000,0
$GPRMC,205530.00,A,3727.7715700,N,12217.4358920,W,29.3772,358.3953,190721,,,,
